[{"id":"2640192956","name":"Escuela N° 16","tags":"amenity:school","lat":-30.4054906,"lng":-56.5575794},{"id":"3491459691","name":"Liceo 1","tags":"amenity:school","lat":-30.4034126,"lng":-56.470557},{"id":"3491459692","name":"Seccional 1ª","tags":"addr:city:Artigas,addr:country:UY,addr:housenumber:277,addr:postcode:55000,addr:street:Amaro Ferreira Ramos,amenity:police,phone:+598 21526141,wheelchair:yes","lat":-30.3979545,"lng":-56.4632772},{"id":"3491462293","tags":"amenity:place_of_worship,building:church,denomination:catholic,religion:christian","lat":-30.4032219,"lng":-56.469745},{"id":"4341039449","name":"Seccional 2ª","tags":"addr:city:Artigas,addr:country:UY,addr:postcode:55000,addr:street:José Rondeau,amenity:police,phone:+598 21526205","lat":-30.4093445,"lng":-56.4748116},{"id":"4341179987","name":"Colegio Juan Pablo II","tags":"amenity:school","lat":-30.4047497,"lng":-56.4694479},{"id":"4341179988","name":"Escuela Nº71","tags":"amenity:school","lat":-30.3968089,"lng":-56.4596377},{"id":"4341180289","name":"Scotiabank","tags":"amenity:bank","lat":-30.4026359,"lng":-56.4673598},{"id":"4341180290","name":"Unidad Especializada Violencia Doméstica","tags":"addr:postcode:55000,addr:street:18 de Mayo,amenity:police,name:es:Oficina Departamental de Violencia Doméstica y de Género,phone:21526114","lat":-30.3975885,"lng":-56.4625305},{"id":"4341180342","tags":"addr:city:Artigas,addr:country:UY,addr:postcode:55000,addr:street:Avenida Coronel Carlos Lecueder,amenity:atm,currency:USD:yes,currency:UYU:yes,drive_through:no,network:RedBROU,opening_hours:24/7,operator:Banco República,wheelchair:yes","lat":-30.402873,"lng":-56.4678909},{"id":"4341180346","name":"Escuela Nro 37 Barón de Rio Branco","tags":"amenity:school","lat":-30.4062719,"lng":-56.4715588},{"id":"4342007042","name":"Jefatura de Policía","tags":"addr:city:Artigas,addr:country:UY,addr:housenumber:289,addr:postcode:55000,addr:street:Amaro Ferreira Ramos,amenity:police,phone:21526100","lat":-30.3980229,"lng":-56.4629539},{"id":"4342163960","name":"Horandre","tags":"addr:city:Artigas,addr:country:UY,addr:housenumber:248,addr:postcode:55000,addr:street:Avenida Coronel Carlos Lecueder,amenity:pharmacy,delivery:yes,dispensing:yes,drive_through:no,phone:+598 4772 3066","lat":-30.3995646,"lng":-56.4644185},{"id":"4342171367","name":"Popular","tags":"addr:city:Artigas,addr:country:UY,addr:postcode:55000,addr:street:General Eugenio Garzón,amenity:pharmacy,dispensing:yes,drive_through:no,phone:+598 4772 2200","lat":-30.3996465,"lng":-56.4659191},{"id":"4562337490","name":"Escuela N° 65","tags":"amenity:school,name:es:Escuela N° 65","lat":-30.4038397,"lng":-56.4883461},{"id":"4567345893","name":"Escuela N ° 68 \"Italia\"","tags":"addr:street:Carmen Laviaguerre de Ramos,amenity:school,name:es:Escuela N ° 68 \\Italia\\","lat":-30.3974432,"lng":-56.4724443},{"id":"4593898145","name":"AC Quaraí","tags":"addr:city:Quaraí,addr:country:BR,addr:housenumber:814,addr:postcode:97560-970,addr:street:Avenida 7 de Setembro,amenity:post_office,contact:phone:+55 55 3423-1760,contact:website:http://correios.com.br/,opening_hours:Mo-Fr 09:00-12:00, 13:30-17:00","lat":-30.3863278,"lng":-56.4527138},{"id":"4645814989","name":"Baklizi","tags":"addr:city:Quaraí,addr:country:BR,addr:housenumber:655,addr:postcode:97560-000,addr:street:Rua General Canabarro,contact:website:http://www.baklizi.com.br/,shop:supermarket","lat":-30.3891569,"lng":-56.4490688},{"id":"4735586925","name":"Estação Rodoviária de Quaraí","tags":"DER:RS:categoria_rodoviaria:terceira,DER:RS:zona_de_fiscalizacao:09,addr:housenumber:105,addr:postcode:97560-000,addr:street:Rua João Batista de Castilhos,addr:suburb:Centro,amenity:bus_station,bus:yes,contact:email:rodquarai@gmail.com,contact:phone:+55 55 3423-1801;+55 55 3423-1717,network:BR:RS,official_name:Quaraí,operator:Jaime Canuto Nystron ME,public_transport:station,ref:vatin:BR87510244/0001-00","lat":-30.3894955,"lng":-56.4537764},{"id":"4735589623","name":"Fundação Hospital de Caridade de Quaraí","tags":"addr:postcode:97560-000,addr:street:Dr. Ascânio Tubino,amenity:hospital,healthcare:hospital","lat":-30.378973,"lng":-56.4607029},{"id":"4735592421","name":"Delegacia de Polícia","tags":"addr:postcode:97560-000,addr:street:Raul Pilla,amenity:police","lat":-30.3703615,"lng":-56.4532802},{"id":"5315821247","name":"Zorrilla","tags":"addr:city:Artigas,addr:country:UY,addr:housenumber:821,addr:postcode:55000,addr:street:Avenida Coronel Carlos Lecueder,amenity:pharmacy,contact:facebook:https://www.facebook.com/Farmacia-Zorrilla-1488709581186970/,contact:phone:+598 4772-2221,dispensing:yes,drive_through:no,healthcare:pharmacy,opening_hours:Mo-Fr 08:00-13:00, 15:00-22:00; Sa 08:00-13:00, 17:00-22:00","lat":-30.4076858,"lng":-56.4726603},{"id":"5398666844","name":"Boi Brasino","tags":"addr:city:Artigas,addr:country:UY,addr:housenumber:298,addr:postcode:55000,addr:street:Doctor Luis Alberto de Herrera,amenity:restaurant,contact:facebook:https://www.facebook.com/Boi-Brasino-Artigas-1553864601516316/,contact:phone:+598 47730707,contact:website:http://hotelartigas.com/restaurante.html,opening_hours:Mo-Su 11:30-15:00; Mo-Sa 19:30-23:30,outdoor_seating:no,smoking:no,takeaway:yes","lat":-30.4023437,"lng":-56.4676542},{"id":"5410518010","name":"La Vía","tags":"addr:city:Artigas,addr:country:UY,addr:postcode:55000,addr:street:Presidente Tomás Berreta,amenity:restaurant,contact:phone:+598 4773-3739;+598 9228-4346,delivery:yes,description:Comidas al paso, buffet libre,outdoor_seating:yes,smoking:outside,takeaway:yes","lat":-30.4069967,"lng":-56.470307},{"id":"5417376561","name":"Uruguay","tags":"addr:city:Artigas,addr:country:UY,addr:housenumber:336,addr:postcode:55000,addr:street:José Pedro Varela,amenity:pharmacy,contact:phone:+598 47722500;+598 47722748;+598 98190717,contact:website:http://www.correo.com.uy/home,delivery:yes,dispensing:yes,drive_through:no","lat":-30.4049616,"lng":-56.4690471},{"id":"5419111881","name":"Pollini","tags":"addr:city:Artigas,addr:country:UY,addr:housenumber:400,addr:postcode:55000,addr:street:Presidente Tomás Berreta,amenity:pharmacy,contact:email:pedidos@farmaciapollini.com.uy,contact:phone:+598 47722792;0800-8796;+598 9868-3606,contact:website:http://farmaciapollini.com.uy/,drive_through:no,opening_hours:Mo-Su 08:00-22:00,payment:visa_debit:yes","lat":-30.4023469,"lng":-56.4658319},{"id":"5419114284","name":"Correo Uruguayo","tags":"addr:city:Artigas,addr:postcode:55000,addr:street:Presidente Tomás Berreta,amenity:post_office","lat":-30.402308,"lng":-56.4654985},{"id":"5423522985","tags":"shop:convenience","lat":-30.4089136,"lng":-56.4752627},{"id":"5423523483","tags":"shop:convenience","lat":-30.4091402,"lng":-56.4741561},{"id":"5430151419","name":"Yuruna","tags":"addr:city:Artigas,addr:country:UY,addr:housenumber:285,addr:postcode:55000,addr:street:General Flores,contact:phone:+598 47723295,shop:convenience","lat":-30.4050088,"lng":-56.4703844},{"id":"5430201095","name":"DyN","tags":"addr:city:Artigas,addr:country:UY,addr:postcode:55000,addr:street:Avenida Coronel Carlos Lecueder,shop:convenience","lat":-30.4056633,"lng":-56.4708045},{"id":"5430201911","name":"Almacén Ford T","tags":"addr:city:Artigas,addr:country:UY,addr:postcode:55000,shop:convenience","lat":-30.4079443,"lng":-56.4729611},{"id":"5430201912","tags":"addr:city:Artigas,addr:country:UY,addr:postcode:55000,addr:street:General Eugenio Garzón,payment:cash:only,shop:convenience","lat":-30.4099438,"lng":-56.4766537},{"id":"5432108506","tags":"addr:city:Artigas,addr:country:UY,addr:postcode:55000,addr:street:Wilson Ferreira Aldunate,payment:visa:yes,payment:visa_debit:yes,shop:convenience","lat":-30.4077,"lng":-56.4719673},{"id":"5434038552","tags":"addr:city:Artigas,addr:country:UY,addr:postcode:55000,shop:convenience","lat":-30.4069934,"lng":-56.4677836},{"id":"5434056072","name":"Karamelo","tags":"addr:city:Artigas,addr:country:UY,addr:postcode:55000,addr:street:Presidente Tomás Berreta,shop:convenience","lat":-30.4059254,"lng":-56.4695997},{"id":"5434174378","name":"Provisión El Pino","tags":"addr:city:Artigas,addr:country:UY,addr:postcode:55000,addr:street:25 de Agosto,shop:convenience","lat":-30.4074267,"lng":-56.4704627},{"id":"5434174380","name":"Benvenuti","tags":"addr:city:Artigas,addr:country:UY,addr:postcode:55000,addr:street:Héctor Princivalle,amenity:restaurant,contact:phone:+598 47727424,cuisine:pizza;cafe,delivery:no,takeaway:yes","lat":-30.4053186,"lng":-56.4633339},{"id":"5434175696","tags":"addr:city:Artigas,addr:country:UY,addr:postcode:55000,addr:street:Aparicio Saravia,shop:convenience","lat":-30.4069865,"lng":-56.4689772},{"id":"5434182936","name":"La Vaca Picada","tags":"addr:city:Artigas,addr:country:UY,addr:postcode:55000,addr:street:Treinta y Tres,amenity:restaurant,outdoor_seating:yes,smoking:no","lat":-30.4054162,"lng":-56.4669258},{"id":"5438589660","name":"Magic","tags":"addr:city:Artigas,addr:country:UY,addr:housenumber:517,addr:postcode:55000,addr:street:Avenida Coronel Carlos Lecueder,amenity:restaurant,contact:phone:+598 47733213,cuisine:pizza;sandwich,delivery:yes","lat":-30.4034053,"lng":-56.4681421},{"id":"5438606854","name":"Don Carlos","tags":"addr:city:Artigas,addr:country:UY,addr:housenumber:1124,addr:postcode:55000,addr:street:Avenida General José Gervasio Artigas,amenity:pharmacy,contact:phone:+598 4772-6990,dispensing:yes,drive_through:no","lat":-30.4092205,"lng":-56.477658},{"id":"5458018192","tags":"addr:city:Artigas,addr:country:UY,addr:postcode:55000,addr:street:General Eugenio Garzón,shop:convenience","lat":-30.4098956,"lng":-56.4765889},{"id":"5458024562","tags":"shop:convenience","lat":-30.4043477,"lng":-56.4650462},{"id":"5460591553","name":"El Tornillo","tags":"addr:city:Artigas,addr:country:UY,addr:postcode:55000,addr:street:Aparicio Saravia,amenity:car_wash,contact:facebook:https://www.facebook.com/pg/esquinaeltornillo/,contact:phone:+598 47731915","lat":-30.4037036,"lng":-56.4655422},{"id":"5467705836","name":"El Nuevo Restó","tags":"addr:city:Artigas,addr:country:UY,addr:housenumber:364,addr:postcode:55000,addr:street:Pedro Manini Ríos,amenity:restaurant,cuisine:burger;sandwich;pizza;pasta;dessert;friture,delivery:yes,opening_hours:Tu-Sa 20:00-00:00; Su 19:00-23:45,smoking:no,takeaway:yes","lat":-30.4088203,"lng":-56.4721097},{"id":"5470386850","name":"Universidad de la República - CENUR","tags":"addr:city:Artigas,addr:country:UY,addr:postcode:55000,amenity:university","lat":-30.404532,"lng":-56.4697443},{"id":"5478726280","name":"Casarão","tags":"addr:city:Quaraí,addr:country:BR,addr:housenumber:493,addr:postcode:97560-000,addr:street:Avenida Artigas,amenity:restaurant,contact:phone:+55 55 3423-3396,opening_hours:Mo-Su 11:30-14:30, 19:30-23:30,outdoor_seating:no,smoking:no,takeaway:yes","lat":-30.3879258,"lng":-56.4535558},{"id":"5478739271","name":"Agafarma","tags":"addr:city:Quaraí,addr:country:BR,addr:housenumber:698,addr:postcode:97560-000,addr:street:Avenida 7 de Setembro,amenity:pharmacy,contact:email:aga293@agafarma.com.br,contact:facebook:https://www.facebook.com/pg/agafarmaquarai/,contact:phone:+55 55 3423-2134,contact:website:http://www.agafarma.com.br/,dispensing:yes,drive_through:no,healthcare:pharmacy,opening_hours:Mo-Sa 08:00-22:00","lat":-30.3871363,"lng":-56.452117},{"id":"5478800894","name":"Boi Brasino","tags":"addr:city:Quaraí,addr:country:BR,addr:postcode:97560-000,addr:street:Rua General Canabarro,amenity:restaurant,opening_hours:Mo-Su 11:30-15:00,outdoor_seating:no,smoking:no,takeaway:yes","lat":-30.389055,"lng":-56.4498589},{"id":"5481352681","name":"Sayonara","tags":"addr:city:Artigas,addr:country:UY,addr:postcode:55000,shop:convenience","lat":-30.4091245,"lng":-56.477535},{"id":"5483633336","name":"Colegio Tacuabé","tags":"addr:city:Artigas,addr:country:UY,addr:postcode:55000,addr:street:General Eugenio Garzón,amenity:school","lat":-30.4050055,"lng":-56.4713213},{"id":"5492350053","tags":"addr:city:Artigas,addr:country:UY,addr:postcode:55000,addr:street:Treinta y Tres,shop:convenience","lat":-30.404903,"lng":-56.4673309},{"id":"5492363551","name":"SaGa","tags":"addr:city:Artigas,addr:country:UY,addr:housenumber:476,addr:postcode:55000,addr:street:General Manuel Oribe,amenity:pharmacy,contact:phone:+598 4772-4675,delivery:yes,dispensing:yes,drive_through:no,healthcare:pharmacy,payment:creditel:yes,payment:oca_card:yes,payment:visa:yes","lat":-30.4045632,"lng":-56.4652397},{"id":"5492366607","tags":"addr:city:Artigas,addr:country:UY,addr:postcode:55000,addr:street:Treinta y Tres,shop:convenience","lat":-30.4047473,"lng":-56.4678578},{"id":"5506624470","name":"Mayra","tags":"addr:city:Artigas,addr:country:UY,addr:housenumber:539,addr:postcode:55000,addr:street:General Eugenio Garzón,amenity:pharmacy,dispensing:yes,drive_through:no","lat":-30.4031355,"lng":-56.4691447},{"id":"5517317208","tags":"amenity:atm,currency:USD:yes,currency:UYU:yes,drive_through:no,network:RedBROU,opening_hours:Mo-Sa 08:00-20:00,operator:Abitab","lat":-30.4046321,"lng":-56.467933},{"id":"5517322180","tags":"addr:city:Artigas,addr:country:UY,addr:postcode:55000,addr:street:Avenida Coronel Carlos Lecueder,amenity:atm,currency:USD:yes,currency:UYU:yes,drive_through:no,network:RedBROU,opening_hours:24/7,operator:Banco República,wheelchair:yes","lat":-30.4029732,"lng":-56.4680526},{"id":"5517331823","tags":"amenity:atm,drive_through:no,opening_hours:Mo-Su 08:00-22:00","lat":-30.4048748,"lng":-56.4634214},{"id":"5533508214","name":"Bandes","tags":"amenity:bank","lat":-30.4026652,"lng":-56.4676302},{"id":"5533509599","name":"BANDES","tags":"amenity:atm","lat":-30.4026559,"lng":-56.4676165},{"id":"5533510309","name":"Kairos","tags":"amenity:restaurant","lat":-30.4020497,"lng":-56.4666245},{"id":"5533512043","tags":"shop:convenience","lat":-30.402318,"lng":-56.4629718},{"id":"5548422662","tags":"shop:convenience","lat":-30.4091855,"lng":-56.4757284},{"id":"5553505243","tags":"amenity:atm,network:RedBROU","lat":-30.4028921,"lng":-56.4669131},{"id":"5572338662","tags":"shop:convenience","lat":-30.4095894,"lng":-56.4781515},{"id":"5572339804","tags":"shop:convenience","lat":-30.4095099,"lng":-56.4779802},{"id":"9893333983","name":"Panvel","tags":"amenity:pharmacy,brand:Panvel,brand:wikidata:Q10344254,dispensing:yes,healthcare:pharmacy","lat":-30.3864301,"lng":-56.4521675},{"id":"9893342127","name":"Sicredi","tags":"amenity:bank,brand:Sicredi,brand:wikidata:Q3483060","lat":-30.3861499,"lng":-56.4523891},{"id":"9894031933","name":"Supermercados Righi Quaraí Macro","tags":"shop:supermarket","lat":-30.3871273,"lng":-56.4504354},{"id":"9894048228","name":"Super Engenho","tags":"shop:supermarket","lat":-30.3908877,"lng":-56.4494276}]