[{"id":"4817036244","name":"Escola Municipal Neli Betemps","tags":"amenity:school,operator:Secretaria de Educação","lat":-31.4809294,"lng":-53.6840192},{"id":"4817036245","name":"Hospital Municipal de Candiota","tags":"amenity:hospital,healthcare:hospital","lat":-31.5622823,"lng":-53.6744651},{"id":"4817036251","tags":"amenity:police","lat":-31.5598677,"lng":-53.6746247},{"id":"6431801595","name":"Ginásio Municipal","tags":"leisure:sports_centre","lat":-31.5473883,"lng":-53.711273},{"id":"6431803406","name":"Escola Municipal de Educação Infantil Odete Lazzare Corrêa","tags":"amenity:school","lat":-31.5481454,"lng":-53.7157562},{"id":"7735826363","name":"Supermercado São Simão","tags":"shop:supermarket","lat":-31.4666104,"lng":-53.6636604},{"id":"10277028181","name":"delegacia de policia civil","tags":"amenity:police","lat":-31.5478157,"lng":-53.71327}]