[{"id":"4508520797","name":"Empório casa do gaúcho","tags":"shop:convenience","lat":-31.8548188,"lng":-52.8138075},{"id":"4789012060","tags":"amenity:library","lat":-31.8536823,"lng":-52.8119042},{"id":"4789012061","tags":"amenity:place_of_worship,building:church,religion:christian","lat":-31.8553215,"lng":-52.8090074},{"id":"4789012075","name":"Rodoviária","tags":"amenity:bus_station,bus:yes,public_transport:station","lat":-31.8542987,"lng":-52.8156988},{"id":"4789012089","name":"Escola Municipal de Ensino Fundamental Doutor Jacques da Rosa Machado","tags":"amenity:school,operator:Secretaria de Educação","lat":-31.8463104,"lng":-52.8285627},{"id":"4808382701","name":"Escola Corinto Ávila Escobar","tags":"amenity:school","lat":-31.8770494,"lng":-53.0229026},{"id":"4808382702","tags":"amenity:place_of_worship,building:church,religion:christian","lat":-31.8771724,"lng":-53.0236214},{"id":"7055676990","name":"Getulio vargas Municipal","tags":"addr:city:Pedro Osório,addr:postcode:96360-000,addr:street:Rua Ivo Peres,addr:suburb:Jaime Pons,amenity:school","lat":-31.8676137,"lng":-52.8350248},{"id":"7055676998","name":"popular","tags":"addr:city:Pedro Osório,addr:postcode:96360-000,addr:street:Rua Ivo Peres,addr:suburb:Jaime Pons,shop:supermarket","lat":-31.8669881,"lng":-52.833968},{"id":"8663543985","tags":"amenity:school","lat":-31.8656758,"lng":-52.8331203}]