[{"id":"5228125649","name":"Grutas da Pulqueria","tags":"tourism:attraction","lat":-30.2491944,"lng":-53.8032681},{"id":"5257464931","name":"Bexiga Lava Car","tags":"addr:street:Avenida Brasil,amenity:car_wash,contact:phone:+55 55 99677-5664","lat":-30.3430062,"lng":-54.0911154},{"id":"5874013264","name":"Rodoviaria de Vila Nova do Sul","tags":"DER:RS:categoria_rodoviaria:quarta,DER:RS:zona_de_fiscalizacao:04,addr:housenumber:209,addr:postcode:97385-000,addr:street:Avenida Dario Antunes da Rosa,addr:suburb:Centro,amenity:bus_station,bus:yes,contact:phone:+55 55 3234-1191,network:BR:RS,official_name:Vila Nova do Sul,operator:José Quintino Azambuja Pereira ME,public_transport:station,ref:vatin:BR88990544000199","lat":-30.3434123,"lng":-53.8834846},{"id":"6172962035","name":"Brigada Militar","tags":"amenity:police,operator:Brigada Militar","lat":-30.3446149,"lng":-53.8861181},{"id":"6329745220","name":"Cotrisel","tags":"addr:city:Vila Nova do Sul,addr:housenumber:60,addr:postcode:97385-000,addr:street:Avenida Dário Antunes da Rosa,addr:suburb:Centro,shop:supermarket","lat":-30.3428913,"lng":-53.8851317}]