[{"id":"2593971882","tags":"amenity:parking","lat":-29.7221446,"lng":-53.7180472},{"id":"2593971903","tags":"amenity:parking","lat":-29.7224428,"lng":-53.7185809},{"id":"2652353792","tags":"amenity:parking","lat":-29.7089154,"lng":-53.767511},{"id":"2846198883","tags":"amenity:atm,brand:Santander,contact:website:https://www.santander.com.br/,opening_hours:Mo-Fr 10:00-16:00,wheelchair:yes","lat":-29.7111978,"lng":-53.7162344},{"id":"2846198885","name":"AC Universitária","tags":"addr:city:Santa Maria,addr:housename:UFSM Predio 3 Sala 13 e 14,addr:housenumber:1000,addr:postcode:97105-970,addr:street:Avenida Roraima,amenity:post_office,brand:Correios,contact:fax:+55 55 3226-3102,contact:phone:+55 55 3290-6147,contact:website:https://www.correios.com.br,official_name:Agência de Correios Universitária,opening_hours:Mo-Fr 09:00-12:00, 13:30-15:30,operator:Empresa Brasileira de Correios e Telégrafos,operator:type:public,ref:vatin:BR34028316126719;BRRS0962055271","lat":-29.7112379,"lng":-53.7158088},{"id":"2846198893","name":"Farmácia Universitária","tags":"amenity:pharmacy,contact:phone:+55 55 3226-7080,opening_hours:Mo-Fr 07:30-19:30; Su 08:00-12:00","lat":-29.7112081,"lng":-53.7163029},{"id":"2846198894","name":"Livraria UFSM","tags":"shop:books","lat":-29.7111466,"lng":-53.7158378},{"id":"2900091929","name":"Bar e Armazém Bitencourt","tags":"addr:postcode:97130-000,addr:street:RSC-287,shop:convenience","lat":-29.7263693,"lng":-53.5792922},{"id":"3059418023","name":"Biblioteca Setorial do Centro de Tecnologia","tags":"addr:housename:Prédio 7 Anexo C,addr:housenumber:1000,addr:postcode:97105-900,addr:street:Avenida Roraima,alt_name:Biblioteca Setorial do CT,amenity:library,contact:phone:+55 55 3220-8408,contact:website:http://ufsm.br/ct/index.php/pesquisa-e-inovacao/biblioteca-setorial,internet_access:wlan,internet_access:password:bibliotecact,internet_access:ssid:Biblioteca,level:0,opening_hours:Mo-Fr 08:00-17:00,short_name:BSCT","lat":-29.7131195,"lng":-53.7174805},{"id":"3085533103","name":"Mercado Palmas","tags":"alt_name:Mercado Palma,contact:phone:+55 55 99102-5511,old_name:Mercearia Moro,opening_hours:Mo-Sa sunrise-sunset; Su sunrise-11:30,shop:convenience","lat":-29.7327674,"lng":-53.5384931},{"id":"3119215385","name":"Lancheria e Restaurante Etnias","tags":"amenity:restaurant","lat":-29.7179586,"lng":-53.716877},{"id":"3315445216","tags":"amenity:parking","lat":-29.722359,"lng":-53.5487222},{"id":"3315445217","tags":"amenity:parking","lat":-29.7223676,"lng":-53.5490976},{"id":"3361665083","name":"Sabores","tags":"amenity:restaurant,contact:phone:+55 55 3217-3300,contact:website:https://www.saboresrestaurante.net","lat":-29.7076562,"lng":-53.7727175},{"id":"3476902701","name":"Cia dos Bichos","tags":"amenity:veterinary,description:Banho e tosa, veterinária, cirurgia, rações, tele-busca,level:1,shop:pet","lat":-29.7075077,"lng":-53.7459301},{"id":"3477155686","name":"Ilha","tags":"alt_name:Ilha Bar,amenity:bar","lat":-29.7162742,"lng":-53.764266},{"id":"4031002376","name":"Branca","tags":"alt_name:Branca Salão de Beleza,contact:phone:+55 55 3226-4267,shop:beauty","lat":-29.7100626,"lng":-53.7384277},{"id":"4034832571","name":"Novo Horizonte Atividades Físicas","tags":"leisure:sports_centre,sport:fitness","lat":-29.7099552,"lng":-53.7394725},{"id":"4127110153","tags":"shop:convenience","lat":-29.7075924,"lng":-53.7400429},{"id":"4207447091","name":"Museu de Solos do Rio Grande do Sul","tags":"addr:door:4999,subject:soil,tourism:museum","lat":-29.7181116,"lng":-53.7177521},{"id":"4207494537","name":"Sabor e Rango","tags":"alt_name:Sabor e Rango Restautante e Lancheria,amenity:restaurant,entrance:yes","lat":-29.7139281,"lng":-53.7150155},{"id":"4207494538","name":"Spaço Gourmet","tags":"amenity:restaurant,description:Restaurante. Cafeteria. Lanches,opening_hours:Mo-Fr 07:00-18:00","lat":-29.7139335,"lng":-53.7142152},{"id":"4213990206","name":"Mini Mercado Bianchin","tags":"shop:convenience","lat":-29.7934735,"lng":-53.5667989},{"id":"4213990207","name":"Supermercado Aires","tags":"shop:supermarket","lat":-29.7932708,"lng":-53.566363},{"id":"4412558826","tags":"amenity:parking,surface:concrete","lat":-29.7229752,"lng":-53.5493361},{"id":"4419090287","name":"Bar e Restaurante Grigoletto","tags":"amenity:restaurant","lat":-29.7332057,"lng":-53.5117928},{"id":"4421174070","name":"Colégio Estadual Professora Edna May Cardoso","tags":"addr:postcode:97105-625,addr:street:Rua Rubinho Santos,amenity:school,contact:phone:+55 55 3226-1727,operator:Estadual","lat":-29.7099273,"lng":-53.7280006},{"id":"4436350267","name":"Moon Nightlife","tags":"addr:street:Travessa João Pereira Henriques,amenity:nightclub,wheelchair:yes","lat":-29.7134383,"lng":-53.7889561},{"id":"4523707006","name":"Mercado Pains","tags":"shop:supermarket","lat":-29.7507636,"lng":-53.7049033},{"id":"4543634064","name":"Espaço Any Guedes","tags":"contact:phone:+55 55 99947-1510,description:Depilação feminina, masculina, design de sobrancelhas, maquiagem.,shop:beauty","lat":-29.7087752,"lng":-53.7339841},{"id":"4562836316","name":"Lana's","tags":"contact:phone:+55 55 3218-1761;+55 55 99157-1409;+55 55 98166-8895,description:Banho, tosa, hospedagem,shop:pet","lat":-29.7150493,"lng":-53.7303089},{"id":"4581630484","name":"Mercearia Rorato","tags":"contact:phone:+55 55 99975-0766,shop:supermarket","lat":-29.7323969,"lng":-53.5121201},{"id":"4721425302","tags":"amenity:atm,brand:Banco do Brasil,contact:website:http://www.bb.com.br/,level:0,operator:Banco do Brasil S.A.","lat":-29.7134588,"lng":-53.7167843},{"id":"4721425303","tags":"amenity:atm,brand:Caixa,contact:website:http://www.caixa.gov.br/,level:0,operator:Caixa Econômica Federal","lat":-29.7134575,"lng":-53.7167705},{"id":"4725104991","name":"Biblioteca Setorial do Centro de Ciências Naturais e Exatas","tags":"addr:housename:Prédio 13 Sala 1127,addr:housenumber:1000,addr:postcode:97105-900,addr:street:Avenida Roraima,alt_name:Biblioteca Setorial do CCNE,amenity:library,contact:phone:+55 55 3220-8734,contact:website:http://ufsm.br/ccne/index.php/orgaos-suplementares/biblioteca-setorial,level:0,opening_hours:Mo-Fr 07:30-21:00,short_name:BSCCNE","lat":-29.7145303,"lng":-53.7167893},{"id":"4726897748","tags":"amenity:atm,brand:Caixa,contact:website:http://www.caixa.gov.br/,level:0,operator:Caixa Econômica Federal","lat":-29.7207955,"lng":-53.7147078},{"id":"4726897749","tags":"amenity:atm,brand:Banco do Brasil,contact:website:http://www.bb.com.br/,level:0,operator:Banco do Brasil S.A.","lat":-29.7208061,"lng":-53.7147066},{"id":"4728682344","name":"Gula & Café","tags":"amenity:restaurant,contact:phone:+55 55 3286-1770,description:Bar, restaurante e cafeteria","lat":-29.7081982,"lng":-53.7254521},{"id":"4790832902","tags":"amenity:atm,brand:Banco do Brasil,contact:website:http://www.bb.com.br/,level:1,operator:Banco do Brasil S.A.","lat":-29.7154727,"lng":-53.7151741},{"id":"4821427229","tags":"amenity:atm,brand:Banco do Brasil,contact:website:http://www.bb.com.br/,operator:Banco do Brasil S.A.","lat":-29.7158707,"lng":-53.7168064},{"id":"4848560268","tags":"amenity:atm,brand:Caixa,contact:website:http://www.caixa.gov.br/,level:0,operator:Caixa Econômica Federal","lat":-29.7173335,"lng":-53.7145132},{"id":"4981031127","name":"Biblioteca do Colégio Politécnico","tags":"addr:housenumber:1000,addr:postcode:97105-900,addr:street:Avenida Roraima,addr:unit:Prédio 70 Bloco F,alt_name:Biblioteca Setorial do Colégio Politécnico,amenity:library,contact:email:biblioteca@politecnico.ufsm.br,contact:phone:+55 55 3220-8061","lat":-29.7230161,"lng":-53.717988},{"id":"4993700040","tags":"amenity:atm,brand:Caixa,contact:website:http://www.caixa.gov.br/,operator:Caixa Econômica Federal","lat":-29.7137135,"lng":-53.7139449},{"id":"4993700041","tags":"amenity:atm,brand:Banco do Brasil,contact:website:http://www.bb.com.br/,operator:Banco do Brasil S.A.","lat":-29.7137123,"lng":-53.7139249},{"id":"5030831458","name":"Farmácia Escola","tags":"amenity:pharmacy,opening_hours:Mo-Fr 07:00-19:00","lat":-29.7137496,"lng":-53.7142329},{"id":"5089455515","name":"Mercado Benites","tags":"contact:phone:+55 55 3226-2495,shop:supermarket","lat":-29.7098807,"lng":-53.738603},{"id":"5157177514","tags":"amenity:atm,brand:Banco do Brasil,contact:website:http://www.bb.com.br/,level:1,operator:Banco do Brasil S.A.","lat":-29.7148366,"lng":-53.7178366},{"id":"5157281358","name":"Ponto Vinte","tags":"amenity:restaurant,diet:vegan:yes","lat":-29.7167526,"lng":-53.717568},{"id":"5161279076","tags":"amenity:atm,brand:Banco do Brasil,contact:website:http://www.bb.com.br/,level:1,operator:Banco do Brasil S.A.","lat":-29.7186277,"lng":-53.7167446},{"id":"5241562424","tags":"amenity:atm,brand:Banco do Brasil,level:0,operator:Banco do Brasil S.A.","lat":-29.7209249,"lng":-53.718295},{"id":"5243555332","tags":"amenity:atm,brand:Caixa,contact:website:http://www.caixa.gov.br/,level:1,operator:Caixa Econômica Federal","lat":-29.7187362,"lng":-53.71769},{"id":"5243555333","tags":"amenity:atm,brand:Caixa,contact:website:http://www.caixa.gov.br/,level:0,operator:Caixa Econômica Federal","lat":-29.7202897,"lng":-53.7186968},{"id":"5321112348","name":"Salão Grazi","tags":"alt_name:Salão Grazieli Tomazetti Balconi,contact:phone:+55 55 99658-1535,shop:beauty","lat":-29.7270783,"lng":-53.5688438},{"id":"5569521319","name":"Biblioteca Setorial do Centro de Educação","tags":"addr:door:3166,addr:housenumber:1000,addr:postcode:97105-900,addr:street:Avenida Roraima,addr:unit:Centro de Educação,alt_name:Biblioteca Setorial do CE,amenity:library,contact:email:bsce@ufsm.br,contact:phone:+55 55 3220-8889,contact:website:http://w3.ufsm.br/ce/index.php/setores/biblioteca-setorial-carmen-silveira-netto,level:0,official_name:Biblioteca Setorial Professora Carmen Silveira Netto,opening_hours:Mo-Fr 07:30-21:00,short_name:BSCE","lat":-29.7149388,"lng":-53.7185982},{"id":"5623307573","tags":"amenity:atm,brand:Caixa,contact:website:http://www.caixa.gov.br/,level:1,operator:Caixa Econômica Federal","lat":-29.7154741,"lng":-53.7151815},{"id":"5767128180","name":"Parque Florestal da UFSM","tags":"leisure:park","lat":-29.7223573,"lng":-53.7148634},{"id":"5880245460","name":"Biblioteca Setorial do Centro de Ciências Rurais","tags":"alt_name:Biblioteca Setorial do CCR,amenity:library,contact:facebook:https://www.facebook.com/BibliotecaSetorialdoCCR/,contact:phone:+55 55 3220-8894,contact:website:http://bsccr.ufsm.br/,level:2,opening_hours:Mo-Fr 07:30-21:00,short_name:BSCCR","lat":-29.7188194,"lng":-53.7170009},{"id":"5889526552","name":"Trilha do Bambuzal","tags":"tourism:attraction","lat":-29.7169678,"lng":-53.7288067},{"id":"6221666496","tags":"amenity:bar,entrance:yes,loc_name:Bar do Jarbas","lat":-29.7081026,"lng":-53.7268815},{"id":"6309098785","name":"Caminho do Peregrino","tags":"description:Ponto de partida da rota que tem 1 km. Há placa no local,tourism:attraction","lat":-29.7080339,"lng":-53.7757547},{"id":"6309210299","name":"Empório dos Alimentos","tags":"shop:convenience","lat":-29.7130706,"lng":-53.7794092},{"id":"7472487197","name":"Farmácia Distrital São Francisco","tags":"addr:postcode:97061-220,addr:street:Rua Santa Maria,amenity:pharmacy,opening_hours:Mo-Fr 07:30-12:00, 13:00-15:00","lat":-29.716382,"lng":-53.7607697},{"id":"8894863403","name":"Mini Mercado Gama","tags":"shop:convenience","lat":-29.7096385,"lng":-53.7868537},{"id":"10003182109","name":"Universidade Federal de Santa Maria (UFSM)","tags":"addr:city:Santa Maria,addr:housenumber:1000,addr:postcode:97105-900,addr:street:Avenida Roraima,addr:suburb:Camobi,amenity:university,website:https://www.ufsm.br/","lat":-29.7105226,"lng":-53.7168184},{"id":"10233015223","name":"Cosmopolita","tags":"amenity:cafe,cuisine:coffee_shop","lat":-29.7128046,"lng":-53.7168671},{"id":"10290474451","name":"Mercado Central do Mate","tags":"contact:facebook:https://facebook.com/100063467176489/,opening_hours:Mo-Sa 07:30-12:00,13:00-19:00;Su 07:30-12:00,shop:convenience","lat":-29.729312,"lng":-53.5588204},{"id":"10555702562","name":"Diário","tags":"shop:convenience","lat":-29.7082832,"lng":-53.7806162}]