[{"id":"3426743397","name":"Restaurante 300","tags":"addr:city:Panambi,addr:postcode:98280-000,addr:street:BR-285,amenity:restaurant,cuisine:Churrascaria,smoking:outside,takeaway:no","lat":-28.3458808,"lng":-53.5305932},{"id":"4257762586","tags":"amenity:school","lat":-28.3702022,"lng":-53.7696267},{"id":"4257762588","name":"Escola Estadual de Ensino Médio Dr. Bozano","tags":"amenity:school","lat":-28.3657198,"lng":-53.7736694},{"id":"5769356343","name":"Escola Vicente Hirschmann","tags":"amenity:school","lat":-28.33908,"lng":-53.5069478},{"id":"6011030665","name":"EE Angelo Furian","tags":"amenity:school","lat":-28.4196466,"lng":-53.6579531},{"id":"6011030668","tags":"amenity:hospital,healthcare:hospital","lat":-28.4250685,"lng":-53.6559715},{"id":"6878146028","name":"Laboratório São José - Análises Clínicas","tags":"addr:city:Pejuçara,addr:housenumber:1293,addr:postcode:98270-000,addr:street:Rua Antônio Alves Ramos,addr:suburb:centro,amenity:hospital,emergency:no,healthcare:hospital,operator:Laboratório,operator:type:private","lat":-28.422971,"lng":-53.6563138}]