[{"id":"435190766","name":"Escola Pedro João Müller","tags":"amenity:school","lat":-29.6550255,"lng":-51.5593084},{"id":"435595238","name":"Peña del Sur","tags":"addr:city:Montenegro,addr:full:Rua Ernesto Che Guevara esquina com Aloys Jacob Kerber,amenity:restaurant,website:http://www.penadelsur.com.br/","lat":-29.673734,"lng":-51.4455883},{"id":"437528108","name":"Natally","tags":"addr:city:Montenegro,addr:housenumber:548,addr:street:Rua Buarque de Macedo,shop:supermarket","lat":-29.6797786,"lng":-51.4573006},{"id":"438033661","name":"Drogaria Progresso","tags":"addr:housenumber:1850,addr:street:Rua Ramiro Barcelos,amenity:pharmacy,dispensing:no","lat":-29.6869301,"lng":-51.460185},{"id":"438033666","name":"Panvel","tags":"amenity:pharmacy,dispensing:yes","lat":-29.6838552,"lng":-51.4619773},{"id":"438033667","name":"Supermercado Mombach","tags":"addr:housenumber:2279,addr:street:Rua Ramiro Barcelos,shop:supermarket","lat":-29.6837318,"lng":-51.4623598},{"id":"441625395","name":"Bradesco","tags":"addr:housenumber:9,addr:street:Rua Ercy Pohren,amenity:bank,atm:yes,operator:Bradesco","lat":-29.5495338,"lng":-51.55637},{"id":"441625536","name":"Cascata Vitória","tags":"tourism:attraction,waterway:waterfall","lat":-29.5647006,"lng":-51.5536156},{"id":"444370599","name":"Restaurante da Cascata","tags":"amenity:restaurant","lat":-29.5630147,"lng":-51.5547156},{"id":"567072727","name":"Academia Equilíbrio","tags":"addr:housenumber:861,addr:street:Rua Buarque de Macedo,leisure:sports_centre,sport:gymnastics,website:http://www.acequilibrio.com.br/","lat":-29.6773105,"lng":-51.4570092},{"id":"571098001","name":"SESI Montenegro","tags":"addr:city:Montenegro,addr:housenumber:455,addr:street:Rua Campos Neto,leisure:sports_centre,sport:multi,toilets:wheelchair:yes,wheelchair:yes","lat":-29.6977187,"lng":-51.4901199},{"id":"576255699","name":"5º Batalhão da Polícia Militar","tags":"amenity:police","lat":-29.6759283,"lng":-51.4498012},{"id":"576256741","name":"Delegacia de Polícia","tags":"amenity:police","lat":-29.6928282,"lng":-51.4636319},{"id":"576256743","name":"CRPO VC – Vale do Caí","tags":"amenity:police","lat":-29.6955413,"lng":-51.4552723},{"id":"579911875","name":"Restaurante Paladar","tags":"addr:street:Rua Irmãos Ko-Freitag,amenity:restaurant","lat":-29.5491946,"lng":-51.5598835},{"id":"635027156","name":"Supermercado Rui Barbosa","tags":"addr:housenumber:421,addr:street:Rua Daltro Filho,shop:supermarket","lat":-29.6754427,"lng":-51.4623849},{"id":"635027185","name":"Fundação Medicamentos para a Saúde","tags":"addr:housenumber:450,addr:street:Avenida Júlio Renner,amenity:pharmacy,dispensing:yes,healthcare:pharmacy","lat":-29.6943924,"lng":-51.4800195},{"id":"635027213","name":"Supermercado Centenário","tags":"addr:housenumber:325,addr:street:Rua Alberto Gotseelig,shop:supermarket","lat":-29.6716348,"lng":-51.4580826},{"id":"635779522","name":"Supermercado Silveira","tags":"addr:street:Rua Augusto Jaeger Filho,shop:convenience","lat":-29.6718905,"lng":-51.4505845},{"id":"635779523","name":"Supermercado Parati","tags":"addr:street:Rua Antonio Machado Rosa,shop:convenience","lat":-29.672438,"lng":-51.4516681},{"id":"635779524","name":"Mini-mercado dos Mano","tags":"shop:convenience","lat":-29.6744234,"lng":-51.44772},{"id":"635826833","name":"Minimercado Kerber","tags":"shop:supermarket","lat":-29.5904375,"lng":-51.5519449},{"id":"662856717","tags":"amenity:parking","lat":-29.549582,"lng":-51.5566},{"id":"668733966","name":"Supermercado Vier","tags":"addr:housenumber:369,addr:postcode:95790-000,addr:street:Rua Erni Oscar Fauth,opening_hours:Mo-Sa 08:00-20:00,shop:supermarket,website:https://www.zetanet.com.br/","lat":-29.5511503,"lng":-51.5941098},{"id":"774733702","name":"Mercado Maratá","tags":"shop:convenience","lat":-29.549129,"lng":-51.5559747},{"id":"864661525","name":"Delegacia de Policia","tags":"amenity:police","lat":-29.6373704,"lng":-51.400751},{"id":"868514910","name":"Restaurante Misturama","tags":"amenity:restaurant","lat":-29.6381471,"lng":-51.4052053},{"id":"868514927","name":"Posto Barcarollo","tags":"shop:convenience","lat":-29.6376482,"lng":-51.4053167},{"id":"904365037","tags":"amenity:parking,disabled:no,parking:surface","lat":-29.55494,"lng":-51.5960567},{"id":"913411980","name":"Restaurante Di Variani","tags":"amenity:restaurant","lat":-29.5901381,"lng":-51.3534408},{"id":"1012474864","name":"Colégio Municipal Estação Vitória","tags":"amenity:school","lat":-29.5728776,"lng":-51.5423774},{"id":"1012474888","name":"Farmácia Maratá","tags":"amenity:pharmacy,healthcare:pharmacy","lat":-29.5493043,"lng":-51.5574374},{"id":"1012474893","tags":"shop:supermarket","lat":-29.538085,"lng":-51.5483426},{"id":"1012474914","name":"Colégio São Pedro do Maratá","tags":"amenity:school","lat":-29.5322042,"lng":-51.5273999},{"id":"1012474930","name":"Restaurante Bifão","tags":"amenity:restaurant","lat":-29.5488937,"lng":-51.557741},{"id":"1012474933","name":"Mercado Maristela","tags":"shop:supermarket","lat":-29.5494163,"lng":-51.5571617},{"id":"1017948239","tags":"amenity:parking","lat":-29.6540832,"lng":-51.4547146},{"id":"1017948301","tags":"amenity:parking","lat":-29.656773,"lng":-51.454602},{"id":"1017948318","tags":"amenity:parking","lat":-29.6556728,"lng":-51.4544625},{"id":"1017948373","tags":"amenity:parking","lat":-29.6574303,"lng":-51.4560075},{"id":"1075199091","name":"LavaCar Teca","tags":"amenity:car_wash","lat":-29.6792491,"lng":-51.4570321},{"id":"1126323899","name":"Delegacia de policia","tags":"amenity:police,wheelchair:yes","lat":-29.5535937,"lng":-51.5965886},{"id":"1126326241","name":"Banrisul","tags":"amenity:bank,brand:Banrisul,brand:wikidata:Q4857098,brand:wikipedia:en:Banrisul","lat":-29.548938,"lng":-51.5552267},{"id":"1844729293","name":"Polícia Rodoviária","tags":"amenity:police,police:traffic_police","lat":-29.669921,"lng":-51.444911},{"id":"1898068165","name":"Restaurante Fink","tags":"amenity:restaurant","lat":-29.5494253,"lng":-51.4238029},{"id":"1940789776","name":"Escola João Lerner","tags":"amenity:school","lat":-29.5367115,"lng":-51.5015347},{"id":"1962076256","name":"Escola Professora Maria Josepha Alves de Oliveira","tags":"alt_name:Escola Municipal de Ensino Fundamental Professora Maria Josepha Alves de Oliveira,amenity:school","lat":-29.6595315,"lng":-51.4370442},{"id":"2042676934","name":"Escola Rui Ramos","tags":"amenity:school,description:Municipal","lat":-29.621234,"lng":-51.4198021},{"id":"2042676938","name":"Posto Saúde Bananal","tags":"amenity:hospital,emergency:no","lat":-29.6216444,"lng":-51.4199415},{"id":"2188928450","name":"Escola Municipal Santo Inácio","tags":"amenity:school","lat":-29.6407857,"lng":-51.3822188},{"id":"2215514625","name":"Parque Municipal de Harmonia","tags":"addr:street:Rua 25 de Julho,amenity:parking","lat":-29.5464168,"lng":-51.4337368},{"id":"2215515069","name":"Banrisul","tags":"addr:street:Rua 25 de Julho,amenity:bank","lat":-29.5491429,"lng":-51.4239723},{"id":"3072794603","name":"EBCT, Agência Montenegro","tags":"amenity:post_office","lat":-29.6884242,"lng":-51.4609951},{"id":"3072877008","name":"Du Cais Pizzaria","tags":"amenity:restaurant,cuisine:pizza","lat":-29.6961405,"lng":-51.4555306},{"id":"3072877009","name":"Posto de saúde","tags":"amenity:hospital","lat":-29.6926106,"lng":-51.4634123},{"id":"3719455429","name":"Nacional","tags":"shop:supermarket","lat":-29.684062,"lng":-51.4573696},{"id":"4492936569","name":"Segundo Turno","tags":"amenity:cafe,internet_access:wlan","lat":-29.6831887,"lng":-51.4602553},{"id":"4598785990","name":"grife Je","tags":"addr:housenumber:1018 - Sala 105,addr:postcode:95780-000,addr:street:Rua João Pessoa,email:grifeje@gmail.com,internet_access:wlan,opening_hours:Tu-Sa 08:30-18:30,phone:+55 51 3632-5267,shop:beauty,website:http://www.grifejeosalao.com.br","lat":-29.6920717,"lng":-51.4587351},{"id":"5266204302","name":"Dia","tags":"shop:supermarket","lat":-29.6858104,"lng":-51.4576742},{"id":"5697988672","name":"Rodoviária de São Sebastião do Caí","tags":"DER:RS:categoria_rodoviaria:terceira,DER:RS:zona_de_fiscalizacao:Centro,addr:housenumber:655,addr:postcode:95760-000,addr:street:Avenida Egídio Michaelsen,addr:suburb:Centro,amenity:bus_station,bus:yes,contact:email:rodoviariadocai@gmail.com,contact:phone:+55 51 3635-6074,network:BR:RS,official_name:São Sebastião do Caí,operator:R & S Comercio & Serviços Ltda ME,public_transport:station,ref:vatin:BR22921637/0001-53","lat":-29.5912848,"lng":-51.3742758},{"id":"5842255188","name":"Lancheria Serrana","tags":"amenity:restaurant","lat":-29.6887961,"lng":-51.5201846},{"id":"6088709475","tags":"amenity:parking","lat":-29.6383272,"lng":-51.3940001},{"id":"6142966932","name":"EMEF Nossa Senhora das Graças","tags":"addr:city:Capela de Santana,addr:housenumber:1115,addr:street:Rua Helmo Nonnemacher,addr:suburb:Pareci Velho,amenity:school","lat":-29.673286,"lng":-51.3980957},{"id":"6143182353","name":"Escola Estadual de Ensino Médio São José do Maratá","tags":"amenity:school","lat":-29.6011572,"lng":-51.4778371},{"id":"6143491796","name":"Ledur Supermercados","tags":"shop:supermarket","lat":-29.575893,"lng":-51.3607048},{"id":"6143841172","name":"Escola Estadual de Ensino Fundamental José Benemann","tags":"amenity:school","lat":-29.5494838,"lng":-51.3616819},{"id":"6143854013","name":"Escola Municipal de Ensino Infantil Dona Norinha","tags":"amenity:school","lat":-29.5696199,"lng":-51.3562576},{"id":"6143854014","name":"Escola Estadual de Ensino Fundamental Josefina Jacques Noronha","tags":"amenity:school","lat":-29.5752937,"lng":-51.3653613},{"id":"6144764313","name":"UCS Campus São Sebastião do Caí","tags":"amenity:university","lat":-29.6154917,"lng":-51.3440404},{"id":"6173016439","name":"Clube Botafogo","tags":"leisure:sports_centre","lat":-29.5380412,"lng":-51.4833781},{"id":"6173040084","name":"EEEM São Francisco de Assis","tags":"amenity:school","lat":-29.638855,"lng":-51.3981795},{"id":"6181125328","name":"Hospital Sagrada Família","tags":"amenity:hospital,healthcare:hospital","lat":-29.5892557,"lng":-51.3696797},{"id":"6181150961","name":"EEEF São Sebastião","tags":"amenity:school","lat":-29.5882588,"lng":-51.3763664},{"id":"6294480606","name":"EMEF Leonar Ricardo Bauer","tags":"addr:city:Brochier,addr:housenumber:80,addr:street:Avenida da Emancipação,addr:suburb:Centro,amenity:school","lat":-29.5581929,"lng":-51.5907593},{"id":"6605465554","name":"Caça e pesca Restaurante","tags":"amenity:restaurant","lat":-29.6962945,"lng":-51.459622},{"id":"6698287289","tags":"access:yes,amenity:parking,description:Estacionamento do Ginásio Municipal,fee:no,park_ride:no,parking:surface,supervised:no,surface:gravel","lat":-29.6366677,"lng":-51.4013255},{"id":"9778315528","name":"Estádio Hélio Alves de Oliveira","tags":"leisure:stadium","lat":-29.6962,"lng":-51.4704987},{"id":"9778330585","name":"Desco Super & Atacado","tags":"shop:supermarket","lat":-29.6971224,"lng":-51.4750007},{"id":"9778330586","name":"Asun","tags":"shop:supermarket","lat":-29.6869926,"lng":-51.4583475},{"id":"10299605394","name":"Supermercado Ouro do Sul","tags":"shop:supermarket","lat":-29.5503835,"lng":-51.4181484},{"id":"10299608326","name":"Cresol","tags":"amenity:bank","lat":-29.5501092,"lng":-51.4195219},{"id":"10299657296","tags":"amenity:school","lat":-29.5570852,"lng":-51.4238876}]