[{"id":"446894591","name":"Hospital Unimed","tags":"addr:city:Novo Hamburgo,addr:housenumber:161,addr:postcode:93540-290,addr:street:Rua Waldemar Geib,addr:suburb:Hamburgo Velho,amenity:hospital,emergency:yes,healthcare:hospital,operator:Unimed,operator:type:private","lat":-29.6887312,"lng":-51.1071545},{"id":"449928921","tags":"amenity:school","lat":-29.6855615,"lng":-51.1033704},{"id":"538392800","name":"Biblioteca Municipal Machado de Assis","tags":"amenity:library","lat":-29.6808715,"lng":-51.1231278},{"id":"538427577","name":"Mercado Cidade Nova","tags":"shop:supermarket","lat":-29.624443,"lng":-51.160612},{"id":"540135869","tags":"shop:supermarket","lat":-29.6760046,"lng":-51.0983748},{"id":"540135870","name":"IENH Pindorama","tags":"amenity:school,phone:+55 51 3594-8040,website:https://www.ienh.com.br/","lat":-29.6733253,"lng":-51.1111879},{"id":"540135872","tags":"amenity:school","lat":-29.6741029,"lng":-51.1065114},{"id":"540135873","name":"GNV Posto Campo Bom","tags":"addr:city:Campo Bom,addr:housenumber:3295,addr:street:Avenida Brasil,shop:convenience","lat":-29.6778033,"lng":-51.0734876},{"id":"540135878","name":"São Roque","tags":"shop:convenience","lat":-29.6901352,"lng":-51.1081852},{"id":"660215520","name":"Pórtico Morro Reuter","tags":"tourism:attraction,wheelchair:yes","lat":-29.5418379,"lng":-51.0817585},{"id":"982314296","name":"Farmácias Associadas","tags":"amenity:pharmacy,dispensing:no","lat":-29.5398695,"lng":-51.0819925},{"id":"982314318","name":"Agropecuária Lavanda","tags":"addr:city:Morro Reuter,addr:housenumber:54,addr:street:Rua Anita Garibaldi,alt_name:Congregação Morro Reuter,denomination:jehovahs_witness,description:Congregação Morro Reuter,shop:pet","lat":-29.5409847,"lng":-51.0812687},{"id":"1036638141","name":"Tribuna Café","tags":"addr:city:Novo Hamburgo,addr:country:BR,addr:housenumber:83,addr:street:Rua Doutor Bayard de Toledo Mércio,amenity:cafe","lat":-29.6962443,"lng":-51.1155492},{"id":"1036638185","name":"Buffet Alexandre Pilatti","tags":"amenity:restaurant","lat":-29.6961825,"lng":-51.1161991},{"id":"1036638304","name":"Restaurante e Cafeteria Foro","tags":"amenity:restaurant","lat":-29.6955666,"lng":-51.1163732},{"id":"1067772332","name":"Boate Kilômetro","tags":"amenity:nightclub","lat":-29.6315067,"lng":-51.1438545},{"id":"1067928651","name":"Restaurante Faccos","tags":"amenity:restaurant,website:https://www.facebook.com/restaurantefaccosdoisirmaos/","lat":-29.6206555,"lng":-51.1265744},{"id":"1067929379","name":"Obelisco de Livros","tags":"historic:monument,tourism:attraction","lat":-29.5422326,"lng":-51.0805642},{"id":"1067929396","name":"Café Boulevard","tags":"amenity:cafe","lat":-29.6206773,"lng":-51.1267802},{"id":"1067930931","name":"The Front Pub","tags":"amenity:bar","lat":-29.5745169,"lng":-51.0950949},{"id":"1068399367","tags":"amenity:bus_station,bus:yes,public_transport:station","lat":-29.6845532,"lng":-51.1356641},{"id":"1069994341","name":"Estação Rodoviária Normélio Stabel","tags":"DER:RS:categoria_rodoviaria:primeira,DER:RS:zona_de_fiscalizacao:14,addr:housenumber:667,addr:postcode:93300-000,addr:street:Rua Três de Outubro,addr:suburb:Rio Branco,alt_name:Rodoviária de Novo Hamburgo,amenity:bus_station,bus:yes,contact:email:rodoviaria@comur.com.br,contact:phone:+55 51 3525-0990;+55 51 3593-4430,network:BR:RS,official_name:Novo Hamburgo,operator:Prefeitura Municipal de Novo Hamburgo,public_transport:station,ref:vatin:BR88254875000160","lat":-29.7010175,"lng":-51.1359495},{"id":"1069994354","name":"Banco do Brasil","tags":"amenity:bank,atm:yes,brand:Banco do Brasil,brand:wikidata:Q610817,brand:wikipedia:en:Banco do Brasil,operator:Banco do Brasil","lat":-29.6837214,"lng":-51.1361552},{"id":"1069994388","name":"Star Park","tags":"amenity:parking,parking:surface","lat":-29.6962695,"lng":-51.1152647},{"id":"1070105916","name":"Restaurante Tenda das Figueiras","tags":"amenity:restaurant","lat":-29.5324257,"lng":-51.085387},{"id":"1070106060","name":"Casa da Vovó","tags":"amenity:restaurant","lat":-29.5771549,"lng":-51.0956115},{"id":"1070138973","name":"Market Supermercado","tags":"shop:supermarket","lat":-29.6693646,"lng":-51.1435662},{"id":"1070138976","name":"Hamburgo Grill","tags":"amenity:restaurant","lat":-29.7009267,"lng":-51.1471743},{"id":"1070139057","name":"Primavera","tags":"addr:city:Novo Hamburgo,addr:housenumber:2554,addr:street:BR-116,addr:suburb:Primavera,amenity:restaurant,website:http://www.grupoprimaveranh.com.br","lat":-29.6935383,"lng":-51.1443261},{"id":"1071739277","name":"Academia Fitness Way","tags":"leisure:sports_centre,sport:fitness","lat":-29.6836705,"lng":-51.1362247},{"id":"1071739280","name":"Maria Bailarina Centro de Dança","tags":"leisure:sports_centre,sport:gymnastics","lat":-29.6836393,"lng":-51.1361364},{"id":"1072851522","name":"Farmácia Mais Econômica","tags":"amenity:pharmacy,healthcare:pharmacy","lat":-29.6852167,"lng":-51.1353992},{"id":"1072851612","name":"Farmácia Capilé","tags":"amenity:pharmacy,healthcare:pharmacy","lat":-29.6857891,"lng":-51.1371368},{"id":"1104091716","name":"3º BPM","tags":"amenity:police,website:http://www.brigadamilitar.rs.gov.br/crpovrs/estrutura/3bpm.html","lat":-29.7042826,"lng":-51.122761},{"id":"1104091756","name":"Amigos do Coronel","tags":"amenity:car_wash","lat":-29.6955119,"lng":-51.1196269},{"id":"1104154745","name":"Restaurante Vitória","tags":"amenity:restaurant","lat":-29.6887581,"lng":-51.136928},{"id":"1104486210","name":"Restaurante Normélio","tags":"amenity:restaurant","lat":-29.6911851,"lng":-51.1402353},{"id":"1104486279","name":"Estima Cão","tags":"shop:pet","lat":-29.6896909,"lng":-51.1379981},{"id":"1104486283","name":"Auto Lavagem Protela","tags":"amenity:car_wash","lat":-29.6907745,"lng":-51.1393775},{"id":"1104512896","name":"La Piova's Boate","tags":"amenity:nightclub","lat":-29.6547536,"lng":-51.1436908},{"id":"1105704573","name":"Renz Fitness","tags":"leisure:sports_centre,sport:fitness","lat":-29.6250618,"lng":-51.1497533},{"id":"1105704636","name":"Kamin Restaurante e Café Colonial","tags":"amenity:restaurant","lat":-29.6254322,"lng":-51.1491204},{"id":"1106150456","name":"Super Kern","tags":"shop:supermarket","lat":-29.616108,"lng":-51.1649708},{"id":"1106153222","name":"Livraria Ipê","tags":"shop:books","lat":-29.6097467,"lng":-51.1634109},{"id":"1106969541","name":"Banco do Brasil","tags":"amenity:bank,atm:yes,brand:Banco do Brasil,brand:wikidata:Q610817,brand:wikipedia:en:Banco do Brasil,operator:Banco do Brasil","lat":-29.5972066,"lng":-51.1615958},{"id":"1106969545","name":"Fiore Bar e Cafeteria","tags":"amenity:cafe","lat":-29.6031621,"lng":-51.1629477},{"id":"1106969551","name":"Leila Maders Estética e Cosmética","tags":"shop:beauty","lat":-29.5998646,"lng":-51.1662393},{"id":"1106969578","name":"Farmácia Tchê","tags":"amenity:pharmacy","lat":-29.5920762,"lng":-51.1605586},{"id":"1106969587","name":"Banrisul","tags":"amenity:bank,brand:Banrisul,brand:wikidata:Q4857098,brand:wikipedia:en:Banrisul,operator:Banrisul","lat":-29.5966559,"lng":-51.1614745},{"id":"1114124952","name":"Hund Haus","tags":"addr:city:Ivoti,addr:country:BR,addr:housenumber:1015,addr:street:Avenida Presidente Lucena,shop:pet","lat":-29.6153786,"lng":-51.1647368},{"id":"1114228720","name":"Restaurante Paulão","tags":"amenity:restaurant","lat":-29.6256453,"lng":-51.1448295},{"id":"1114229111","name":"Pub do Kascudo","tags":"amenity:bar","lat":-29.62571,"lng":-51.1439717},{"id":"1119550989","name":"Sabores do Sul","tags":"amenity:restaurant","lat":-29.6863022,"lng":-51.1157046},{"id":"1141576821","name":"Hospital Presidente Vargas","tags":"amenity:hospital","lat":-29.6485004,"lng":-51.1750693},{"id":"1141578706","name":"Escola de Ensino Fundamental Cirandinha","tags":"amenity:school","lat":-29.6480808,"lng":-51.1750049},{"id":"1141586236","name":"Sagrada Família","tags":"amenity:place_of_worship,building:church,denomination:catholic,religion:christian","lat":-29.648864,"lng":-51.1745328},{"id":"1141586240","name":"Asun","tags":"shop:supermarket","lat":-29.6504678,"lng":-51.177376},{"id":"1141586243","name":"Banco do Brasil","tags":"amenity:bank,brand:Banco do Brasil,brand:wikidata:Q610817,brand:wikipedia:en:Banco do Brasil","lat":-29.6508725,"lng":-51.1724537},{"id":"1141595868","name":"Caixa","tags":"amenity:bank","lat":-29.6508538,"lng":-51.1727112},{"id":"1193729038","name":"Restaurante e Lancheria F. R.","tags":"amenity:restaurant","lat":-29.7038314,"lng":-51.1114311},{"id":"1195955072","name":"Iza Estética e Beleza","tags":"shop:beauty","lat":-29.6868891,"lng":-51.1325857},{"id":"1200834797","name":"Variedades Bach","tags":"shop:convenience","lat":-29.6843799,"lng":-51.135369},{"id":"1200835245","name":"Droga Rio","tags":"amenity:pharmacy,healthcare:pharmacy","lat":-29.6851043,"lng":-51.1349427},{"id":"1200933415","name":"Sebo Só Ler","tags":"books:second_hand,shop:books,wheelchair:no","lat":-29.6836564,"lng":-51.1307427},{"id":"1200933494","name":"Bradesco","tags":"amenity:bank,branch:Prime,brand:Bradesco,brand:wikidata:Q806181,brand:wikipedia:en:Banco Bradesco,operator:Bradesco","lat":-29.683579,"lng":-51.1281358},{"id":"1200933553","name":"Itaú","tags":"amenity:bank,brand:Itaú Unibanco,brand:wikidata:Q1424293,brand:wikipedia:pt:Itaú Unibanco,operator:Itaú","lat":-29.683688,"lng":-51.1290737},{"id":"1200933888","name":"Super Farmácia Popular","tags":"amenity:pharmacy,healthcare:pharmacy","lat":-29.6836612,"lng":-51.1307841},{"id":"1201086269","name":"Prato del Nono","tags":"amenity:restaurant","lat":-29.6896806,"lng":-51.1297379},{"id":"1201086274","name":"Nostra Pizza","tags":"amenity:restaurant,cuisine:pizza","lat":-29.6930622,"lng":-51.1293401},{"id":"1201086316","name":"Bula Manipulação","tags":"amenity:pharmacy,healthcare:pharmacy","lat":-29.6880385,"lng":-51.1290682},{"id":"1201086362","name":"Yes Podologia","tags":"shop:beauty","lat":-29.6880742,"lng":-51.129097},{"id":"1201086371","name":"Disk Kosméticos","tags":"addr:city:Novo Hamburgo,addr:country:BR,addr:housenumber:1310,addr:street:Rua Marcílio Dias,shop:chemist,website:http://www.diskkosmeticos.com.br","lat":-29.6877997,"lng":-51.1290105},{"id":"1210998572","name":"Espaço Natural","tags":"organic:only,shop:supermarket","lat":-29.6844062,"lng":-51.1358981},{"id":"1223809078","name":"Galeto D'Itália","tags":"amenity:restaurant,cuisine:italian","lat":-29.6882283,"lng":-51.131393},{"id":"1223809082","name":"Mercado e Açougue Tupandi","tags":"shop:convenience","lat":-29.6853384,"lng":-51.1169175},{"id":"1227300325","name":"Drogaria Farmacro","tags":"amenity:pharmacy,healthcare:pharmacy,wheelchair:limited","lat":-29.6852605,"lng":-51.1355384},{"id":"1235410683","name":"Canil Gruta dos Guardiões","tags":"shop:pet,training:yes,website:http://canilgrutadosguardioes.blogspot.com","lat":-29.7028427,"lng":-51.1122109},{"id":"1235461861","name":"Grão Brasil Café","tags":"amenity:cafe","lat":-29.6875229,"lng":-51.1323519},{"id":"1235461866","name":"Bichos & Cia","tags":"addr:city:Novo Hamburgo,addr:country:BR,addr:housenumber:2096,addr:street:Rua Bento Gonçalves,shop:pet,website:http://www.bichosecia.com.br","lat":-29.6879985,"lng":-51.1271717},{"id":"1236482312","name":"Blue House","tags":"amenity:restaurant","lat":-29.6877598,"lng":-51.1287158},{"id":"1236544710","name":"Star Park","tags":"amenity:parking,fee:yes,parking:surface,wheelchair:limited","lat":-29.6829671,"lng":-51.1299593},{"id":"1236544735","name":"Academia Bem Estar","tags":"leisure:sports_centre,sport:fitness,wheelchair:limited","lat":-29.6804492,"lng":-51.1307348},{"id":"1236544738","name":"Panvel","tags":"amenity:pharmacy,brand:Panvel,brand:wikidata:Q10344254,brand:wikipedia:pt:Panvel,healthcare:pharmacy","lat":-29.6834675,"lng":-51.1299724},{"id":"1236544794","name":"Mais Econômica","tags":"addr:city:Novo Hamburgo,addr:country:BR,addr:housenumber:5550,addr:street:Avenida Pedro Adams Filho,amenity:pharmacy,healthcare:pharmacy","lat":-29.6837841,"lng":-51.1301252},{"id":"1236544819","name":"Santander","tags":"addr:city:Novo Hamburgo,addr:country:BR,addr:housenumber:726,addr:street:Rua Joaquim Nabuco,amenity:bank,brand:Santander,brand:wikidata:Q5835668,brand:wikipedia:en:Santander Bank,operator:Santander","lat":-29.6835008,"lng":-51.1302103},{"id":"1236544921","name":"Maxxi Econômica","tags":"amenity:pharmacy,healthcare:pharmacy","lat":-29.683756,"lng":-51.1298881},{"id":"1236689751","name":"Supermercados Goldani","tags":"shop:supermarket","lat":-29.6778568,"lng":-51.1376286},{"id":"1236689784","name":"Supermercados Goldani","tags":"shop:supermarket","lat":-29.6726275,"lng":-51.1317847},{"id":"1241276873","name":"Ser Fisio","tags":"health_facility:type:clinic,health_specialty:physiatry:yes,leisure:sports_centre,medical_system:western:yes,sport:pilates","lat":-29.6879315,"lng":-51.1266707},{"id":"1241276876","name":"O Bifão","tags":"amenity:restaurant,website:http://www.bifao.com.br","lat":-29.6874689,"lng":-51.1243941},{"id":"1241290861","name":"Escola de Idiomas Language Company School","tags":"amenity:school","lat":-29.6882756,"lng":-51.131714},{"id":"1241290869","name":"Mais Você Centro de Beleza","tags":"shop:beauty","lat":-29.6876571,"lng":-51.1276397},{"id":"1245032947","name":"Italian Place","tags":"amenity:restaurant","lat":-29.6892181,"lng":-51.1386785},{"id":"1251593988","name":"BR","tags":"amenity:fuel,brand:BR,brand:wikidata:Q4836468,brand:wikipedia:pt:Vibra Energia,shop:convenience","lat":-29.690654,"lng":-51.1332652},{"id":"1251594085","name":"Arena Academia","tags":"leisure:sports_centre,sport:fitness","lat":-29.6904758,"lng":-51.1295873},{"id":"1309677451","name":"Restaurante Panorâmico","tags":"alt_name:Restaurante Panorâmico da Fenac,amenity:restaurant,wheelchair:yes","lat":-29.7020774,"lng":-51.1401118},{"id":"1510568361","tags":"amenity:police,operator:Polícia Rodoviária Estadual,police:traffic_police","lat":-29.6530261,"lng":-51.0351504},{"id":"1558031108","name":"Restaurante Gaelzer","tags":"amenity:restaurant","lat":-29.6106654,"lng":-51.1610928},{"id":"1589639453","name":"Brigada Militar","tags":"amenity:police","lat":-29.5956533,"lng":-51.1661628},{"id":"1758593939","name":"Ponte do Imperador","tags":"tourism:attraction","lat":-29.583223,"lng":-51.1582937},{"id":"1758622586","name":"Austrália Lanches 1","tags":"amenity:bar","lat":-29.6522146,"lng":-51.1716958},{"id":"1758628351","name":"Austrália Lanches 3","tags":"amenity:bar","lat":-29.6510214,"lng":-51.1720222},{"id":"1844729284","name":"Polícia Rodoviária","tags":"amenity:police,police:traffic_police","lat":-29.6661039,"lng":-51.2573976},{"id":"1872816389","name":"Supermercado redefort","tags":"shop:supermarket","lat":-29.596964,"lng":-51.165567},{"id":"1872816392","name":"Polícia Civil","tags":"amenity:police","lat":-29.5957045,"lng":-51.1658115},{"id":"1872816396","name":"Restaurante Wecker","tags":"amenity:restaurant,cuisine:indian","lat":-29.5938411,"lng":-51.1652965},{"id":"1872845422","name":"Giga Bar","tags":"amenity:restaurant","lat":-29.5921922,"lng":-51.165331},{"id":"1872845426","name":"Bar do Filax","tags":"amenity:bar","lat":-29.5919708,"lng":-51.1649056},{"id":"1883585265","name":"Farmácia São João","tags":"amenity:pharmacy","lat":-29.5965619,"lng":-51.1613926},{"id":"1883585273","name":"Farmácia Ivoti","tags":"amenity:pharmacy,brand:Vida Farmácias","lat":-29.594261,"lng":-51.1609993},{"id":"1883585288","name":"Drogaria Ivoti","tags":"amenity:pharmacy,brand:Vida Farmácias","lat":-29.6098899,"lng":-51.1638791},{"id":"1883585292","name":"Sanare Farmácia de Manipulação","tags":"amenity:pharmacy","lat":-29.5947201,"lng":-51.1610355},{"id":"1898318323","name":"Farmácia Sereia","tags":"amenity:pharmacy","lat":-29.6123299,"lng":-51.1642342},{"id":"1898318324","name":"Mini Mercado do Careca","tags":"shop:convenience","lat":-29.6099988,"lng":-51.1635194},{"id":"1898318325","name":"Restaurante Rosengarten","tags":"amenity:restaurant","lat":-29.6133334,"lng":-51.164442},{"id":"1898318327","name":"Joy's Bar","tags":"amenity:bar","lat":-29.6163042,"lng":-51.1659709},{"id":"1898560518","name":"Hut Bier Pub","tags":"amenity:bar","lat":-29.6241216,"lng":-51.1360144},{"id":"1898627820","name":"Escola Estadual de Ensino Fundamental Portão Velho","tags":"amenity:school","lat":-29.6955921,"lng":-51.2231317},{"id":"1898755569","name":"Bar do Beto","tags":"amenity:bar","lat":-29.5988952,"lng":-51.1598758},{"id":"1898835471","name":"Caixa Econômica Federal","tags":"amenity:bank,brand:Caixa Econômica Federal,brand:wikidata:Q835283,brand:wikipedia:pt:Caixa Econômica Federal","lat":-29.5968069,"lng":-51.1611101},{"id":"1898835475","name":"Panvel","tags":"amenity:pharmacy,brand:Panvel,brand:wikidata:Q10344254,brand:wikipedia:pt:Panvel,dispensing:yes,healthcare:pharmacy","lat":-29.5966983,"lng":-51.1610842},{"id":"1901956898","name":"Farmácia Hamburguesa","tags":"amenity:pharmacy","lat":-29.593223,"lng":-51.1607285},{"id":"1901965010","tags":"amenity:parking","lat":-29.5843599,"lng":-51.1246499},{"id":"1913083313","name":"Agafarma","tags":"amenity:pharmacy","lat":-29.60778,"lng":-51.1756526},{"id":"1913083321","name":"Farmácia Morada do Sol Ltda","tags":"amenity:pharmacy","lat":-29.6080179,"lng":-51.1759315},{"id":"1917756737","name":"Armazém Toast","tags":"addr:city:Novo Hamburgo,addr:country:BR,addr:housenumber:17,addr:street:Rua Almirante Barroso,shop:convenience,website:http://www.toastrestobar.com.br/armazem","lat":-29.6831717,"lng":-51.1215125},{"id":"1917756739","name":"Toast","tags":"addr:city:Novo Hamburgo,addr:country:BR,addr:housenumber:11,addr:street:Rua Almirante Barroso,amenity:restaurant,website:http://www.toastrestobar.com.br","lat":-29.6832714,"lng":-51.1214717},{"id":"1918760711","name":"Escola Municipal de Ensino Fundamental Olavo Bilac","tags":"amenity:school","lat":-29.5467005,"lng":-51.1528492},{"id":"1922583700","name":"Escola Municipal de Ensino Fundamental Nereu Ramos","tags":"amenity:school","lat":-29.5961431,"lng":-51.227698},{"id":"1933768675","name":"Escola Municipal de Ensino Fundamental Dr. Mário Sperb","tags":"amenity:school","lat":-29.6235943,"lng":-51.0931853},{"id":"1935574532","name":"Salão Bickel","tags":"amenity:bar","lat":-29.6377629,"lng":-51.1081973},{"id":"1936828388","name":"Campo Sete Amigos","tags":"alt_name:Sportplatz Sieben Freunde,tourism:attraction","lat":-29.602945,"lng":-51.0980694},{"id":"1982708762","tags":"amenity:parking","lat":-29.5365698,"lng":-51.0907276},{"id":"2296198779","tags":"leisure:sports_centre","lat":-29.6075116,"lng":-51.1763115},{"id":"2296200826","name":"E. M. E. F. ENGº ILDO MENEGHETTI","tags":"amenity:school","lat":-29.6074277,"lng":-51.1770679},{"id":"2296201922","name":"Mercado Dalabrida","tags":"shop:supermarket","lat":-29.6070359,"lng":-51.1760701},{"id":"2301799115","name":"FWA Equip Médicos","tags":"addr:housename:FWA,addr:housenumber:149,addr:postcode:93410-330,addr:street:Rua SÃO FRANCISCO DE PAULA,shop:convenience,website:www.fwa.com.br","lat":-29.6904295,"lng":-51.1209297},{"id":"2426095699","name":"Macromix Atacado","tags":"shop:supermarket","lat":-29.6931643,"lng":-51.0894722},{"id":"2426097353","name":"Trentin Padaria e Confeitaria","tags":"shop:convenience","lat":-29.6954966,"lng":-51.0902233},{"id":"2594162847","name":"Colégio Cenecista Felipe Tiago Gomes","tags":"amenity:school","lat":-29.6815737,"lng":-51.1450369},{"id":"2667086590","name":"Sabor ao Prato","tags":"amenity:restaurant","lat":-29.7036332,"lng":-51.1330502},{"id":"3065485454","name":"Brigada Militar","tags":"amenity:police","lat":-29.6592305,"lng":-51.1682764},{"id":"3067814532","name":"Grão de Sal","tags":"addr:city:Estância Velha,amenity:restaurant,capacity:200,cuisine:regional","lat":-29.6506508,"lng":-51.1720957},{"id":"3198689439","name":"Fundação Ernesto Frederico Scheffel","tags":"tourism:museum","lat":-29.673582,"lng":-51.1096628},{"id":"3198689440","name":"Museu Comunitário Casa Schmitt-Presser","tags":"tourism:museum","lat":-29.6735109,"lng":-51.109463},{"id":"3213142038","name":"Hospital Sapiranga","tags":"amenity:hospital,emergency:yes,healthcare:hospital,operator:Sociedade Beneficente Sapiranguense,phone:+55 51 3599-8100,website:http://www.hospitalsapiranga.com.br/,wheelchair:yes","lat":-29.6407167,"lng":-51.007056},{"id":"3285063061","name":"E.M.E.F. Santos Dumont","tags":"amenity:school","lat":-29.6708289,"lng":-51.0875437},{"id":"3404781791","name":"Agência de Correios Hamburgo Velho","tags":"addr:housename:Sala 05,addr:housenumber:947,addr:postcode:93511-970,addr:street:Avenida Victor Hugo Kunz,amenity:post_office,contact:phone:+55 51 3593-1211,opening_hours:Mo-Fr 09:00-17:00,operator:Correios,operator:wikidata:Q3375004,operator:wikipedia:en:Correios,short_name:AC Hamburgo Velho","lat":-29.673645,"lng":-51.1144065},{"id":"3404781792","name":"Agência de Correios Novo Hamburgo","tags":"addr:housenumber:5156,addr:postcode:93301-970,addr:street:Avenida Pedro Adams Filho,amenity:post_office,contact:phone:+55 51 3594-4133;+55 51 3581-5707,opening_hours:Mo-Fr 09:00-17:30; Sa 09:00-12:00,operator:Correios,operator:wikidata:Q3375004,operator:wikipedia:en:Correios,short_name:AC Novo Hamburgo","lat":-29.6871728,"lng":-51.1296022},{"id":"3444992100","name":"E. M. Dr. Antônio Benfica Filho","tags":"amenity:school","lat":-29.6729473,"lng":-51.1587029},{"id":"4107892761","name":"Restaurante e Churrascaria Faisão","tags":"amenity:restaurant,cuisine:regional,_churrasco,_pizza.,takeaway:yes","lat":-29.6837394,"lng":-51.2410868},{"id":"4117320113","name":"Escola 26 de Fevereiro","tags":"amenity:school,wheelchair:no","lat":-29.6394707,"lng":-51.0264753},{"id":"4117320136","tags":"amenity:school","lat":-29.6468126,"lng":-51.0219033},{"id":"4117320195","tags":"amenity:school","lat":-29.6431891,"lng":-51.0244091},{"id":"4117320291","tags":"amenity:school","lat":-29.6531562,"lng":-50.993377},{"id":"4117320293","name":"Escola Waldemar Carlos Jaeger","tags":"amenity:school","lat":-29.6417457,"lng":-50.9916914},{"id":"4117320294","name":"Escola São Carlos","tags":"amenity:school","lat":-29.6397598,"lng":-50.9806079},{"id":"4120149428","name":"Hospital da Visão","tags":"amenity:hospital,healthcare:hospital","lat":-29.6886727,"lng":-51.1127987},{"id":"4120551017","name":"Brigada Militar","tags":"amenity:police","lat":-29.6991634,"lng":-51.0884851},{"id":"4120551018","name":"CIEP","tags":"amenity:school","lat":-29.6975338,"lng":-51.0881015},{"id":"4121396345","name":"Escola Estadual Borges de Medeiros","tags":"amenity:school","lat":-29.6989088,"lng":-51.1194253},{"id":"4121396346","name":"Escola Estadual Bairro Rondônia","tags":"amenity:school","lat":-29.6984794,"lng":-51.1188875},{"id":"4438978191","name":"Pastelaria Expresso","tags":"addr:housenumber:356,addr:postcode:93600-000,addr:street:Rua Reynaldo Leuck,amenity:cafe,internet_access:wlan,opening_hours:Tu-Sa,phone:+55 51 99582-4769","lat":-29.6431551,"lng":-51.1705907},{"id":"4562818090","name":"IERGS/UNIASSELVI","tags":"addr:housenumber:2842,addr:street:Rua Bento Gonçalves,amenity:school,opening_hours:Mo-Fr 10:00-22:00; Sa 08:00-12:00","lat":-29.6812129,"lng":-51.129181},{"id":"4638944347","name":"Duda Bilhalva","tags":"addr:city:Rio Grande do Sul,addr:housenumber:121,addr:postcode:93700-000,addr:street:Rua Voluntários da Pátria,addr:suburb:Centro,amenity:restaurant,cuisine:Familiar,delivery:no,outdoor_seating:no,smoking:no","lat":-29.6786811,"lng":-51.059882},{"id":"4640907507","name":"Colégio Imaculada Conceição","tags":"addr:city:Dois Irmãos,addr:housenumber:436,addr:postcode:93950-000,addr:street:Avenida São Miguel,addr:suburb:Centro,amenity:school","lat":-29.5888883,"lng":-51.0880501},{"id":"4640907510","name":"Rodoviária de Dois Irmãos","tags":"DER:RS:categoria_rodoviaria:quarta,DER:RS:zona_de_fiscalizacao:14,addr:housenumber:888,addr:postcode:93950-000,addr:street:Avenida Posto Alegre,addr:suburb:Primavera,amenity:bus_station,contact:email:rododoisirmaos@gmail.com,contact:phone:+55 51 3564-1959;+55 51 3564-1234,contact:website:http://wendling.tur.br,internet_access:wlan,internet_access:fee:no,network:BR:RS,official_name:Dois Irmãos,operator:J.E. Wendling & Cia Ltda,public_transport:station,ref:vatin:BR5591518000160","lat":-29.5788519,"lng":-51.0950745},{"id":"4661156589","name":"Cunha","tags":"addr:housenumber:6525,addr:street:Avenida Pedro Adams Filho,amenity:cafe,opening_hours:Mo-Su 07:30-21:00","lat":-29.6752339,"lng":-51.1313832},{"id":"4735130248","name":"Pastor Rodolfo Saenger","tags":"amenity:school","lat":-29.6312795,"lng":-51.0066047},{"id":"4735130336","name":"CEMEAM","tags":"amenity:school","lat":-29.6119116,"lng":-50.9971402},{"id":"4736768901","name":"Restaurante Atiradores","tags":"addr:city:Dois Irmãos,addr:housenumber:785,addr:postcode:93950-000,addr:street:Avenida São Miguel,addr:suburb:Centro,amenity:restaurant,opening_hours:11:00-14:00,phone:+55 51 3564-1136","lat":-29.585748,"lng":-51.0870541},{"id":"4737275391","name":"Núcleo de Casas Enxaimel / Buraco do Diabo","tags":"tourism:attraction","lat":-29.5829229,"lng":-51.1567841},{"id":"4764103634","name":"Restaurante Beira Rio - Sociedade Santa Cecília","tags":"amenity:restaurant","lat":-29.5921048,"lng":-51.0976373},{"id":"4775981831","name":"Sabor do Campo","tags":"amenity:restaurant,cuisine:regional","lat":-29.6949479,"lng":-51.2268987},{"id":"4782117953","tags":"amenity:parking","lat":-29.6649072,"lng":-51.1416189},{"id":"4792475631","name":"Churrascaria Mathias","tags":"addr:city:Sapiranga,addr:suburb:Santa Fé,amenity:restaurant,cuisine:Churrasco","lat":-29.6441133,"lng":-51.0208472},{"id":"4792475898","name":"Mercado Apollo","tags":"addr:city:Sapiranga,addr:suburb:Santa Fé,shop:supermarket","lat":-29.6457779,"lng":-51.0186169},{"id":"4792486021","name":"Museu Municipal","tags":"addr:city:Sapiranga,addr:suburb:Centro,tourism:museum","lat":-29.6364778,"lng":-51.0074563},{"id":"4792504333","name":"Mirante João Arlindo Hilgert","tags":"tourism:attraction","lat":-29.6779127,"lng":-51.0578462},{"id":"4792512803","name":"Memorial ao Pioneirismo","tags":"historic:monument,tourism:attraction","lat":-29.676041,"lng":-51.087986},{"id":"4792519061","name":"HidroCentro","tags":"addr:city:Sapiranga,addr:suburb:Centro,leisure:sports_centre,sport:swimming","lat":-29.6410257,"lng":-51.015539},{"id":"4792522422","name":"Academia BioCenter","tags":"addr:city:Sapiranga,addr:suburb:Centro,leisure:fitness_centre,sport:exercise,_fitness,_gymnastics","lat":-29.6365085,"lng":-51.010412},{"id":"4792524277","name":"Quadra de Futsal","tags":"addr:city:Sapiranga,addr:suburb:Centro,leisure:fitness_centre,sport:soccer","lat":-29.6349737,"lng":-51.0091727},{"id":"4792540819","name":"Pizza Pepperoni","tags":"addr:city:Sapiranga,amenity:restaurant,cuisine:pizza","lat":-29.6426701,"lng":-51.0198737},{"id":"4792563247","name":"Spetaccolo","tags":"addr:city:Sapiranga,addr:suburb:Centro,amenity:restaurant","lat":-29.6387744,"lng":-51.0064673},{"id":"4792571831","name":"Imaculado","tags":"addr:city:Sapiranga,addr:suburb:Centro,amenity:school","lat":-29.638203,"lng":-51.0037451},{"id":"4792578345","name":"Academia Alto Esporte","tags":"leisure:fitness_centre","lat":-29.6367142,"lng":-51.0143823},{"id":"4793389000","name":"Brigada Militar","tags":"addr:city:Sapiranga,addr:suburb:Centro,amenity:police","lat":-29.6388309,"lng":-51.0140449},{"id":"4793603366","name":"Posto Policial","tags":"amenity:police","lat":-29.6905172,"lng":-51.2365043},{"id":"4795451246","name":"Yutaka Sushi Bar","tags":"amenity:restaurant,cuisine:sushi","lat":-29.6386652,"lng":-51.0081973},{"id":"4810065252","name":"Restaurante Cevel","tags":"addr:city:Dois Irmãos,addr:housenumber:1221,addr:postcode:93950-000,addr:street:Rua Novo Hamburgo,addr:suburb:Floresta,amenity:restaurant,capacity:200,email:contato@restaurantecevel.com.br,phone:+55 51 3564-4602,website:http://restaurantecevel.com.br","lat":-29.5779292,"lng":-51.0925451},{"id":"4810065253","name":"Supermercado Asun","tags":"addr:city:Dois Irmãos,addr:housenumber:585,addr:postcode:93950-000,addr:street:Avenida Irineu Becker,addr:suburb:Floresta,phone:+55 51 98594-0779,shop:supermarket,website:http://asun.com.br","lat":-29.5789591,"lng":-51.0930541},{"id":"4860772003","name":"Festeja Hamburgo Velho","tags":"description:Feira de gastronomia, artesanato e antiguidades, promove diferentes atrações culturais, com ênfase para apresentações musicais. Evento comunitário mensal.,tourism:attraction","lat":-29.6767957,"lng":-51.1125963},{"id":"4949350522","name":"Casa","tags":"addr:housenumber:3115,addr:street:Avenida dos Municípios,amenity:bar,internet_access:wlan,phone:+55 51 3049-0412","lat":-29.689607,"lng":-51.0520844},{"id":"5073253427","name":"Escola Municipal Dom Bosco","tags":"amenity:school","lat":-29.5480106,"lng":-51.062617},{"id":"5136378935","name":"Escola Estadual Ensino Fundamental Kurt Walzer","tags":"addr:city:Novo Hamburgo,addr:housenumber:125,addr:street:Rua Bernardo Dejalmo Ludwig,addr:suburb:Vila Diehl,amenity:school","lat":-29.6518887,"lng":-51.1111598},{"id":"5143751420","tags":"amenity:library,operator:FEEVALE","lat":-29.6660278,"lng":-51.1187521},{"id":"5169959122","name":"Café da Cládis","tags":"addr:housenumber:7817 - km 216,addr:street:Rua Lateral da BR-116,amenity:cafe,cuisine:diner;tea;coffee_shop,opening_hours:Sa 09:00-19:00,phone:+55 51 99667-4069","lat":-29.541821,"lng":-51.0808519},{"id":"5263584218","name":"Salão de Festas e Quadra de Esportes","tags":"addr:city:Capela de Santana,addr:postcode:95745-000,addr:street:Avenida Coronel Orestes Lucas,addr:suburb:Vila Nova,leisure:sports_centre,opening_hours:Mo-Su 08:00-23:00,sport:soccer;volleyball","lat":-29.6894242,"lng":-51.3212215},{"id":"5263584220","name":"Rodeio","tags":"addr:city:Capela de Santana,addr:postcode:95745-000,addr:street:Avenida Coronel Orestes Lucas,addr:suburb:Vila Nova,leisure:sports_centre,sport:equestrian","lat":-29.6908077,"lng":-51.3235336},{"id":"5263587221","name":"Rodeio","tags":"addr:city:Capela de Santana,addr:postcode:95745-000,addr:street:Avenida Coronel Orestes Lucas,addr:suburb:Vila Nova,description:local em que ocorre prática de esportes tradicionalistas da região.,leisure:sports_centre,opening_hours:Mo-Su 10:00-20:00,sport:diversas_práticas_de_esportes_tradicionalistas_ligados_à_cultura_gaúcha","lat":-29.6908077,"lng":-51.3235336},{"id":"5267720479","name":"Brigada Militar","tags":"addr:city:Capela de Santana,addr:postcode:95745-000,addr:street:Avenida Coronel Orestes Lucas,addr:suburb:Vila Nova,amenity:police","lat":-29.6886408,"lng":-51.3207678},{"id":"5285708083","name":"Mini Mercado Leo","tags":"addr:city:Capela de Santana,addr:housenumber:118,addr:postcode:95745-000,addr:street:Rua Dom Pedro I,addr:suburb:Vila Nova,opening_hours:Mo-Su 08:00-20:00,shop:supermarket","lat":-29.6886238,"lng":-51.3220037},{"id":"5285708086","name":"Cursos Comunitarios","tags":"addr:city:Capela de Santana,addr:postcode:95745-000,addr:street:Avenida Coronel Orestes Lucas,addr:suburb:Vila Nova,amenity:school","lat":-29.6897136,"lng":-51.3212422},{"id":"5285708087","name":"Parque Centro de Eventos","tags":"leisure:park","lat":-29.6900519,"lng":-51.3231321},{"id":"5285708088","name":"Parque Centro de Eventos","tags":"leisure:park","lat":-29.6907348,"lng":-51.3245653},{"id":"5285751619","name":"Escola Estadual","tags":"addr:city:Capela de Santana,addr:postcode:95745-000,addr:street:Rua Santa Helena,addr:suburb:Parque Primavera,amenity:school","lat":-29.6921304,"lng":-51.3195761},{"id":"5285751624","name":"Agropecuária e PetShop","tags":"addr:city:Capela de Santana,addr:postcode:95745-000,addr:street:Avenida Coronel Orestes Lucas,addr:suburb:Vila Nova,shop:pet","lat":-29.6882165,"lng":-51.3206687},{"id":"5300105669","tags":"amenity:parking","lat":-29.662911,"lng":-51.0903673},{"id":"5300105670","tags":"amenity:parking","lat":-29.6631033,"lng":-51.0905899},{"id":"5317023262","name":"Novo Hamburgo","tags":"addr:housenumber:2040,addr:postcode:93320-020,addr:street:Avenida Nações Unidas,colour:#FF5800,opening_hours:Mo-Su, PH 04:50-23:20,operator:Trensurb,platforms:1,public_transport:station,railway:station,source:name:survey,station:subway,subway:yes,website:http://www.trensurb.gov.br/,wheelchair:yes","lat":-29.686764,"lng":-51.1329056},{"id":"5320204166","name":"Fenac","tags":"addr:housenumber:3690,addr:postcode:93320-020,addr:street:Avenida Nações Unidas,colour:#00B7EB,opening_hours:Mo-Su, PH 04:50-23:20,operator:Trensurb,platforms:2,public_transport:station,railway:station,source:name:survey,station:subway,subway:yes,website:http://www.trensurb.gov.br/,wheelchair:yes","lat":-29.7009482,"lng":-51.1349789},{"id":"5321097964","tags":"amenity:parking","lat":-29.6590524,"lng":-51.1725529},{"id":"5342888998","tags":"amenity:parking","lat":-29.6743775,"lng":-51.1120838},{"id":"5373012549","tags":"amenity:parking","lat":-29.6142888,"lng":-51.1223674},{"id":"5419198286","name":"Restaurante Quero-Quero","tags":"amenity:restaurant,cuisine:regional,opening_hours:Mo-Fr 11:30-14:00","lat":-29.6209378,"lng":-51.1588065},{"id":"5422626320","tags":"amenity:parking","lat":-29.6542975,"lng":-51.1375809},{"id":"5422782460","name":"Moinho movido a Boi","tags":"tourism:attraction","lat":-29.6394899,"lng":-51.1694918},{"id":"5422782494","tags":"amenity:parking","lat":-29.6201858,"lng":-51.1652029},{"id":"5600711421","name":"Mais Pastel - Ifashion Outlet - Novo Hamburgo","tags":"amenity:restaurant,email:maispastel@maispastel.com.br,phone:+55 51 99237-6633,website:http://www.maispastel.com.br","lat":-29.6651929,"lng":-51.1422909},{"id":"5810877254","name":"VegTal","tags":"addr:housenumber:890,addr:postcode:93510-250,addr:street:Avenida Doutor Maurício Cardoso,alt_name:Vegtal Cozinha Vegana,amenity:restaurant,diet:vegan:only,phone:+55 51 3586-3116,website:https://facebook.com/vegtal","lat":-29.6817773,"lng":-51.1195264},{"id":"5902931817","name":"Escola Municipal de Ensino Fundamental 25 de Julho","tags":"addr:city:Campo Bom,addr:housenumber:150,addr:postcode:93700-000,addr:street:Rua Deputado Plínio Salgado,addr:suburb:25 de Julho,amenity:school","lat":-29.6863351,"lng":-51.0419261},{"id":"5907942131","name":"Amo Dois Irmãos","tags":"artwork_type:installation,tourism:attraction","lat":-29.5849164,"lng":-51.0829594},{"id":"5939159838","name":"VegTal","tags":"addr:housenumber:890,addr:street:Avenida Doutor Maurício Cardoso,amenity:restaurant,diet:gluten_free:yes,diet:vegan:only,email:vegtal@uol.com.br,opening_hours:Mo-Sa 11:30-14:00,organic:yes,phone:+55 51 3586-3116","lat":-29.6800568,"lng":-51.1166362},{"id":"6020631063","name":"Serraria e Carpintaria Becker","tags":"tourism:attraction","lat":-29.6046561,"lng":-51.0908427},{"id":"6069362809","name":"Paradouro Cantina","tags":"amenity:restaurant","lat":-29.7055239,"lng":-51.1878993},{"id":"6242530032","name":"Restaurante Casa Blanca","tags":"amenity:restaurant,outdoor_seating:yes","lat":-29.6464998,"lng":-51.0029295},{"id":"6242606028","name":"V. Konrath","tags":"amenity:restaurant","lat":-29.6468434,"lng":-51.0020032},{"id":"6242944686","name":"Farmácias São João","tags":"amenity:pharmacy,dispensing:yes,healthcare:pharmacy","lat":-29.6469083,"lng":-51.0002054},{"id":"6286912985","name":"Igreja Adventista do Sétimo Dia","tags":"amenity:place_of_worship,building:church,denomination:seventh_day_adventist,religion:christian,service_times:Sa 9:00-12:00; Su 20:00-21:30,short_name:IASD Loteamento União","lat":-29.6621058,"lng":-51.1633059},{"id":"6315158478","name":"EMEI Veneza","tags":"amenity:school","lat":-29.6685375,"lng":-51.1731251},{"id":"6381433789","name":"Complexo Esportivo Atletico Clube Veterano","tags":"leisure:park","lat":-29.6897241,"lng":-51.0923181},{"id":"6383301121","name":"Atletico Clube Americano","tags":"leisure:park","lat":-29.6829278,"lng":-51.095989},{"id":"6496483544","name":"Galpão do Brasil","tags":"amenity:restaurant,cuisine:barbecue","lat":-29.6569774,"lng":-51.0801675},{"id":"6813306725","name":"Bradesco","tags":"amenity:bank,brand:Bradesco,brand:wikidata:Q806181,brand:wikipedia:en:Banco Bradesco","lat":-29.5829405,"lng":-51.087585},{"id":"6813306732","name":"Biblioteca Pública Municipal","tags":"amenity:library","lat":-29.5824693,"lng":-51.0881121},{"id":"6823935777","name":"Escola Estadual de Ensino Médio Ildefonso Pinto","tags":"amenity:school","lat":-29.6779566,"lng":-51.0524887},{"id":"6836026429","name":"Hospital São José","tags":"amenity:hospital,healthcare:hospital","lat":-29.5919142,"lng":-51.1601501},{"id":"6836026434","name":"Memorial da Cultura Japonesa em Ivoti","tags":"tourism:museum","lat":-29.5959148,"lng":-51.1258127},{"id":"6837965284","name":"EMEF Nova Vila","tags":"amenity:school","lat":-29.5442609,"lng":-51.1840382},{"id":"6838270140","name":"Pórtico de Presidente Lucena","tags":"tourism:attraction","lat":-29.5474578,"lng":-51.1883618},{"id":"6838872037","name":"Sicoob","tags":"amenity:bank,brand:Sicoob,brand:wikidata:Q28679754,brand:wikipedia:pt:Sistema de Cooperativas de Crédito do Brasil","lat":-29.5982266,"lng":-51.1612707},{"id":"6838872843","name":"Escola de Ensino Médio Duque","tags":"amenity:school","lat":-29.6301739,"lng":-51.0001621},{"id":"6838872919","name":"Unisuper","tags":"brand:wikipedia:es:Supermercados DIA,shop:supermarket","lat":-29.5999867,"lng":-51.1623468},{"id":"6838872922","name":"Sicredi","tags":"amenity:bank,brand:Sicredi,brand:wikidata:Q3483060,brand:wikipedia:pt:Sistema de Crédito Cooperativo","lat":-29.5998566,"lng":-51.1615437},{"id":"6841955869","name":"Rissul - Filial 67","tags":"shop:supermarket","lat":-29.6775617,"lng":-51.0654825},{"id":"6844214856","name":"Correios","tags":"amenity:post_office,brand:Correios,brand:wikidata:Q3375004,brand:wikipedia:en:Correios","lat":-29.6372889,"lng":-51.0122846},{"id":"7399938885","name":"EEEF Jair Henrique Foscarini","tags":"amenity:school","lat":-29.6778602,"lng":-51.1601478},{"id":"7399938886","name":"EMEI Primavera","tags":"amenity:school","lat":-29.6897626,"lng":-51.1514467},{"id":"7495617002","name":"EMEI Ipê Amarelo","tags":"amenity:school","lat":-29.64078,"lng":-51.139944},{"id":"7495617003","name":"EMEF Maria Quitéria","tags":"amenity:school","lat":-29.6424472,"lng":-51.1401847},{"id":"7590154250","name":"Saffra Supermercado","tags":"addr:city:Novo Hamburgo,addr:housenumber:1000,addr:street:Rua Maria Olinda Telles,shop:supermarket","lat":-29.6995899,"lng":-51.1103418},{"id":"7804380096","name":"AABB - Associação Atlética Banco do Brasil","tags":"addr:housenumber:3465,addr:street:Rua Presidente Kennedy,leisure:sports_centre,sport:swimming","lat":-29.6658621,"lng":-50.993838},{"id":"7969474190","name":"Bar Alternativo","tags":"amenity:nightclub","lat":-29.6635652,"lng":-51.0943905},{"id":"8022232062","name":"Xicúria D'unhas Studio by Delise","tags":"addr:city:Novo Hamburgo,addr:housenumber:207,addr:street:Rua Pedro Quaresma da Silva,addr:suburb:Boa saude,beauty:nails,operator:delise,shop:beauty","lat":-29.6716976,"lng":-51.1671929},{"id":"8606339083","name":"Praça","tags":"addr:city:Sapiranga,addr:postcode:93800-222,addr:street:Rua João Otto Saenger,addr:suburb:Centro,architect:Gustavo Schiaffino,building:flats:180,building:levels:13,height:43.95,leisure:park","lat":-29.6382837,"lng":-51.0004213},{"id":"8706499334","name":"Letreiro \"Morro Reuter\"","tags":"tourism:attraction","lat":-29.5380577,"lng":-51.0794762},{"id":"8727717162","tags":"amenity:parking","lat":-29.665058,"lng":-51.1416053},{"id":"8727717163","tags":"amenity:parking","lat":-29.6647449,"lng":-51.1416312},{"id":"8727717165","tags":"amenity:parking","lat":-29.6646242,"lng":-51.1416404},{"id":"8727717166","tags":"amenity:parking","lat":-29.6644833,"lng":-51.1416511},{"id":"8749948872","tags":"amenity:parking","lat":-29.6638988,"lng":-51.1417262},{"id":"8828704733","name":"Sicredi","tags":"amenity:bank,brand:Sicredi,brand:wikidata:Q3483060,brand:wikipedia:pt:Sistema de Crédito Cooperativo","lat":-29.6913668,"lng":-51.2333874},{"id":"8833880728","name":"Dream's Esthetic School","tags":"addr:city:Novo Hamburgo,addr:housenumber:2399, sala 506,addr:postcode:93510-040,addr:street:Rua Bento Gonçalves,addr:suburb:Centro,amenity:school,grades:1-10","lat":-29.6852131,"lng":-51.1277624},{"id":"8891503645","name":"Escola Municipal Aroni Aloísio Mossmann","tags":"amenity:school","lat":-29.6244316,"lng":-51.1552312},{"id":"8919615521","name":"Correios","tags":"amenity:post_office,brand:Correios,brand:wikidata:Q3375004,brand:wikipedia:en:Correios","lat":-29.5838558,"lng":-51.087764},{"id":"8939504322","name":"Sicredi","tags":"amenity:bank,brand:Sicredi,brand:wikidata:Q3483060,brand:wikipedia:pt:Sistema de Crédito Cooperativo","lat":-29.5407976,"lng":-51.0829175},{"id":"8939504323","name":"Banrisul","tags":"amenity:bank,brand:Banrisul,brand:wikidata:Q4857098,brand:wikipedia:en:Banrisul","lat":-29.5393109,"lng":-51.0816263},{"id":"8939504328","name":"Bradesco","tags":"amenity:bank,brand:Bradesco,brand:wikidata:Q806181,brand:wikipedia:en:Banco Bradesco","lat":-29.5406493,"lng":-51.0831977},{"id":"8939504368","name":"Correios","tags":"amenity:post_office,brand:Correios,brand:wikidata:Q3375004,brand:wikipedia:en:Correios","lat":-29.5407207,"lng":-51.0825925},{"id":"8939554488","name":"Banco do Brasil","tags":"amenity:bank,brand:Banco do Brasil,brand:wikidata:Q610817,brand:wikipedia:en:Banco do Brasil","lat":-29.584471,"lng":-51.0878737},{"id":"8939554489","name":"Sicredi","tags":"amenity:bank,brand:Sicredi,brand:wikidata:Q3483060,brand:wikipedia:pt:Sistema de Crédito Cooperativo","lat":-29.5813795,"lng":-51.0864272},{"id":"9148412810","name":"Escola Estadual de Ensino Fundamental Leopoldo Petry","tags":"addr:city:Novo Hamburgo,addr:housenumber:3790,addr:postcode:93546-740,addr:street:Rua Bartolomeu de Gusmão,addr:suburb:Canudos,amenity:school","lat":-29.7063269,"lng":-51.1079181},{"id":"9193005732","name":"Farmácia Agafarma 24 Horas","tags":"addr:city:Sapiranga,addr:housenumber:507,addr:street:Avenida João Corrêa,addr:suburb:Centro,amenity:pharmacy,dispensing:yes,healthcare:pharmacy","lat":-29.637408,"lng":-51.0015157},{"id":"9193017464","name":"Café das Nações","tags":"addr:city:Sapiranga,addr:housenumber:629,addr:street:Avenida João Corrêa,addr:suburb:Centro,amenity:cafe","lat":-29.6382874,"lng":-51.0022714},{"id":"9409060454","name":"Colégio Marista Pio XII","tags":"addr:city:Novo Hamburgo,addr:housenumber:182,addr:postcode:93315-042,addr:street:Avenida Nicolau Becker,addr:suburb:Vila Rosa,amenity:school,email:pioxii@maristas.org.br,operator:Rede Marista,operator:type:private_non_profit,phone:+55 51 3584-8000,religion:christian,website:https://colegios.redemarista.org.br/pio-xii","lat":-29.6829355,"lng":-51.1341999},{"id":"9458934278","name":"Don Amaro","tags":"addr:city:Novo Hamburgo,addr:housenumber:217,addr:street:Rua Visconde de São Leopoldo,addr:suburb:Vila Rosa,amenity:restaurant,contact:whatsapp:+55 51 99988 7728,cuisine:pizza,delivery:yes,mobile:+55 51 99988 7728,phone:+55 51 2160 4479,takeaway:yes,website:https://domamaropizzaria.com.br/","lat":-29.6797787,"lng":-51.1342516},{"id":"9461948429","name":"Mundo Real Atacado Sapiranga","tags":"addr:city:Sapiranga,addr:housenumber:3325,addr:street:RS-239,addr:suburb:Santa Fé,brand:Mundo Real Atacado,contact:instagram:https://www.instagram.com/mundorealatacado,contact:whatsapp:+55 51 99569 7980,opening_hours:Mo-Sa 08:00-20:00, Su 09:00-19:00,operator:Mundo Real,organic:yes,payment:cash:yes,payment:credit_cards:yes,payment:debit_cards:yes,shop:supermarket,website:https://atacadomundoreal.com/,wheelchair:yes","lat":-29.6449165,"lng":-51.0069803},{"id":"9470447561","name":"Droga Raia","tags":"addr:city:Novo Hamburgo,addr:housenumber:5837,addr:postcode:93320-105,addr:street:Avenida Pedro Adams Filho,addr:suburb:Centro,amenity:pharmacy,brand:Droga Raia,brand:wikidata:Q10357101,brand:wikipedia:pt:RaiaDrogasil,contact:phone:+55 51 3581 2076,dispensing:yes,drive_through:no,healthcare:pharmacy,opening_hours:Mo-Su 07:00-23:00,opening_hours:covid19:same,phone:+55 51 99500 5004","lat":-29.6810789,"lng":-51.1302819},{"id":"9482113517","name":"Boteco 1538","tags":"amenity:restaurant","lat":-29.6840175,"lng":-51.1211159},{"id":"9494238525","name":"O2 Fitness","tags":"addr:city:Novo Hamburgo,addr:housenumber:651,addr:street:Rua Pedro Álvares Cabral,addr:suburb:Vila Rosa,contact:email:academiao2nh@hotmail.com,contact:facebook:https://www.facebook.com/academiao2nhfitness/,contact:phone:+55 51 3107 4142,contact:whatsapp:+55 51 99874 1332,internet_access:wlan,internet_access:fee:customers,leisure:fitness_centre,opening_hours:Mo-Fr 07:00-22:00; Sa 09:00-13:00","lat":-29.6804844,"lng":-51.1349572},{"id":"9706018888","tags":"amenity:atm,cash_in:yes,currency:BRL:yes,drive_through:no,network:Saque e Pague,operator:Saque e Pague","lat":-29.6851897,"lng":-51.1340692},{"id":"9731183162","name":"Escola Municipal de Ensino Fundamental Edmundo Kern","tags":"amenity:school","lat":-29.6975018,"lng":-51.2083144},{"id":"9731273158","tags":"amenity:school","lat":-29.7018532,"lng":-51.1945593},{"id":"9849005473","name":"BR","tags":"branch:Mania,brand:BR,brand:wikidata:Q4836468,shop:convenience","lat":-29.6334782,"lng":-51.0003423},{"id":"9879146455","name":"Celeiro Tap House","tags":"addr:housenumber:1151,addr:street:Rua Castro Alves,amenity:bar,description:Torneiras de chopp com barris selecionados com os melhores chopes artesanais da região.,opening_hours:Th-Sa 17:00-23:00; Su 16:00-22:00,website:https://www.celeiro.beer","lat":-29.6117059,"lng":-51.1586781},{"id":"9880153818","name":"Colégio Marista São Marcelino Champagnat","tags":"addr:city:Novo Hamburgo,addr:housenumber:182,addr:postcode:93315-042,addr:street:Avenida Nicolau Becker,amenity:school,contact:phone:+55 51 98139 1158,email:marcelino@maristas.org.br,opening_hours:Mo-Fr 18:00-22:30,operator:Rede Marista,operator:type:private_non_profit,phone:+55 51 3584 8040,religion:christian,website:https://social.redemarista.org.br/colegio/eja-champagnat","lat":-29.6829341,"lng":-51.1341785},{"id":"9973450574","name":"Centro de Educação Integrada - CEI","tags":"amenity:school","lat":-29.6828028,"lng":-51.0470188},{"id":"10065562940","name":"Supermercado Imperial","tags":"shop:supermarket","lat":-29.6848245,"lng":-51.0605955},{"id":"10065562943","name":"Supper Rissul","tags":"shop:supermarket","lat":-29.6817182,"lng":-51.057902},{"id":"10076140395","name":"Dia","tags":"brand:Dia,brand:wikidata:Q925132,shop:supermarket","lat":-29.6531867,"lng":-51.168962},{"id":"10076140400","name":"São João","tags":"amenity:pharmacy,brand:São João,brand:wikidata:Q62663306,dispensing:yes,healthcare:pharmacy","lat":-29.6637933,"lng":-51.195804},{"id":"10076140401","tags":"shop:supermarket","lat":-29.6625321,"lng":-51.1958812},{"id":"10076140404","tags":"shop:supermarket","lat":-29.6602464,"lng":-51.1948242},{"id":"10076140406","tags":"shop:supermarket","lat":-29.6666386,"lng":-51.169482},{"id":"10080877062","tags":"amenity:school","lat":-29.6722475,"lng":-51.1658117},{"id":"8754725296","tags":"amenity:parking","lat":-29.6940487,"lng":-51.1306722},{"id":"10085819857","name":"Cristóvão 437 - Estética Automotiva","tags":"addr:city:Novo Hamburgo,addr:housenumber:437,addr:postcode:93310-320,addr:street:Rua Cristóvão Colombo,addr:suburb:Vila Rosa,amenity:car_wash,automated:no,contact:whatsapp:+55 51 9296 4010,phone:+55 51 9296 4010,self_service:no","lat":-29.6813073,"lng":-51.1343765},{"id":"10085933019","name":"Estética Helena","tags":"addr:city:Novo Hamburgo,addr:housenumber:277,addr:street:Rua Carlos Gomes,addr:suburb:Vila Rosa,beauty:nails,phone:+55 51 3593 7190,shop:beauty","lat":-29.6818443,"lng":-51.134174},{"id":"10085933028","name":"Studio Leila Saádeh","tags":"addr:city:Novo Hamburgo,addr:housenumber:40,addr:street:Rua Visconde de São Leopoldo,addr:suburb:Vila Rosa,contact:facebook:https://pt-br.facebook.com/StudioLeila/,contact:instagram:https://www.instagram.com/studioleilasaadeh/,leisure:fitness_centre,phone:+55 51 99754 5180,sport:yoga","lat":-29.6815068,"lng":-51.1342176},{"id":"10087567074","tags":"access:customers,amenity:parking,fee:yes,operator:Bourbon,operator:type:business,parking:multi-storey,surface:asphalt","lat":-29.6938385,"lng":-51.132115},{"id":"10087567091","tags":"access:customers,amenity:parking","lat":-29.6941745,"lng":-51.1311843},{"id":"10104525654","tags":"access:permissive,amenity:parking,fee:yes,parking:multi-storey,payment:cash:yes,payment:coins:yes,payment:credit_cards:yes,payment:debit_cards:yes,surface:concrete","lat":-29.6858138,"lng":-51.1338646},{"id":"10104525655","name":"Panvel","tags":"addr:city:Novo Hamburgo,addr:housenumber:2001,addr:street:Avenida Nações Unidas,addr:suburb:Rio Branco,amenity:pharmacy,brand:Panvel,brand:wikidata:Q10344254,dispensing:yes,healthcare:pharmacy,level:0,wheelchair:yes","lat":-29.685771,"lng":-51.1337413},{"id":"10104633059","name":"Weber's","tags":"addr:city:Novo Hamburgo,addr:housenumber:222,addr:street:Rua 24 de Maio,addr:suburb:Rincão,amenity:restaurant,contact:email:restaurantewebers@gmail.com,contact:facebook:https://www.facebook.com/restaurantewebersnh,cuisine:regional;german,level:0,opening_hours:Mo-Fr 11:30-14:30; Sa 11:30-23:00; Su 11:30-14:30,phone:+55 51 3593 2822","lat":-29.6776703,"lng":-51.1401561},{"id":"10133093345","name":"Magrass","tags":"addr:housenumber:2161,addr:street:Rua Bento Gonçalves,beauty:aesthetic,branch:Unidade NH,check_date:2022-10-27,contact:facebook:https://www.facebook.com/magrassNH,contact:phone:+55 51 3279-9384,contact:whatsapp:+55 51 99393 4819,currency:BRL:yes,shop:beauty","lat":-29.6874633,"lng":-51.1270391},{"id":"6129535685","name":"Madero","tags":"amenity:restaurant,brand:Madero,brand:wikidata:Q115206711,cuisine:burger","lat":-29.6799708,"lng":-51.1225287},{"id":"10268881138","name":"Panquecaria 251","tags":"addr:housenumber:251,addr:street:Rua Marcilio Dias,amenity:restaurant,check_date:2022-12-16","lat":-29.6889779,"lng":-51.1387297},{"id":"10268954495","name":"Nobre Arte","tags":"addr:city:Novo Hamburgo,addr:housenumber:533,addr:street:Rua 24 de Maio,addr:suburb:Vila Rosa,contact:facebook:https://www.facebook.com/viviansousanobrearte/,contact:instagram:https://www.instagram.com/nobrearte.salao/,opening_hours:Mo-Sa 09:00-19:00,phone:+55 51 98598 7400,shop:beauty","lat":-29.678191,"lng":-51.1367055},{"id":"10268954496","name":"Mercearia Do Rocky","tags":"addr:city:Novo Hamburgo,addr:housenumber:527,addr:street:Rua 24 de Maio,addr:suburb:Vila Rosa,contact:instagram:https://www.instagram.com/merceariadorocky/,phone:+55 51 98514 2010,shop:convenience","lat":-29.6781868,"lng":-51.1367528},{"id":"10550755459","name":"Fink Supermercados","tags":"shop:supermarket","lat":-29.5834435,"lng":-51.0859957},{"id":"10653432895","name":"Celeiro Tap House","tags":"addr:housenumber:1151,addr:street:Rua Castro Alves,amenity:bar,opening_hours:Th-Sa 17:00-23:30; Su 16:00-23:00,website:https://celeiro.beer","lat":-29.6117058,"lng":-51.1586781}]