[{"id":"1934460274","name":"Cremogel","tags":"amenity:bar","lat":-29.4744469,"lng":-53.299341},{"id":"2066966790","name":"Escola Municipal Pe João Zanella","tags":"amenity:school","lat":-29.475811,"lng":-53.4052224},{"id":"3739577726","name":"Paróquia São Paulo Apóstolo","tags":"amenity:place_of_worship,building:church,religion:christian","lat":-29.4222005,"lng":-53.1323565},{"id":"3803990201","name":"E.E.E.M. Catarina Bridi","tags":"amenity:school","lat":-29.4220235,"lng":-53.1293062},{"id":"6855958693","tags":"leisure:fitness_centre","lat":-29.4235862,"lng":-53.1283181},{"id":"6855958700","name":"Sicredi","tags":"amenity:bank,brand:Sicredi,brand:wikidata:Q3483060,brand:wikipedia:pt:Sistema de Crédito Cooperativo","lat":-29.4243688,"lng":-53.127433},{"id":"6855958701","name":"Supermercado Kluge","tags":"shop:supermarket","lat":-29.4224858,"lng":-53.1303646},{"id":"6855958702","name":"Banrisul","tags":"amenity:bank,brand:Banrisul,brand:wikidata:Q4857098,brand:wikipedia:en:Banrisul","lat":-29.4221003,"lng":-53.1307348},{"id":"6855958703","tags":"amenity:pharmacy,dispensing:yes,healthcare:pharmacy","lat":-29.4219041,"lng":-53.1310271},{"id":"6856029364","name":"Supermercado Redefort","tags":"shop:supermarket","lat":-29.4236396,"lng":-53.128113},{"id":"6856029366","name":"Lazzarotto Restaurante e Festas","tags":"amenity:restaurant","lat":-29.4246395,"lng":-53.1265158},{"id":"6856029367","name":"MM lanches","tags":"amenity:restaurant","lat":-29.4245391,"lng":-53.1270442},{"id":"6856029372","name":"Correios","tags":"amenity:post_office,brand:Correios,brand:wikidata:Q3375004,brand:wikipedia:en:Correios","lat":-29.421565,"lng":-53.1318239},{"id":"6856029375","tags":"amenity:bus_station,bus:yes,public_transport:station","lat":-29.4218664,"lng":-53.1314108},{"id":"9817115000","name":"EMEF Luiz Augusto Colombelli","tags":"amenity:school","lat":-29.4297126,"lng":-53.1148173}]