[{"id":"1218651063","name":"Banco do Brasil","tags":"amenity:bank,atm:yes,operator:Banco do Brasil","lat":-29.4676066,"lng":-51.8097841},{"id":"1218659711","name":"Supermercado Languiru","tags":"amenity:parking","lat":-29.4680966,"lng":-51.8114961},{"id":"1218659890","name":"Estacionamento da cooperativa Languiru","tags":"access:public,amenity:parking","lat":-29.4680686,"lng":-51.8098116},{"id":"1221387408","name":"Ginásio do Gaúcho","tags":"leisure:sports_centre","lat":-29.447448,"lng":-51.8131057},{"id":"1489807397","name":"Restaurante da Lagoa","tags":"amenity:restaurant","lat":-29.3924029,"lng":-51.8008694},{"id":"1491754671","name":"Rodoviária de Canabarro","tags":"amenity:bus_station,bus:yes,local_ref:Rodoviária de Canabarro,public_transport:station","lat":-29.5093967,"lng":-51.8075734},{"id":"1491754672","name":"Theutos","tags":"amenity:restaurant","lat":-29.4486498,"lng":-51.8071501},{"id":"1491754673","name":"Museu Henrique Uebel","tags":"tourism:museum","lat":-29.4826619,"lng":-51.8166959},{"id":"1491755686","name":"Super Zart","tags":"shop:convenience","lat":-29.4482156,"lng":-51.8035712},{"id":"1491766161","name":"Pizzaria Good Food","tags":"amenity:restaurant,cuisine:pizza","lat":-29.4696966,"lng":-51.8130724},{"id":"1491766168","name":"Restaurante Paladar","tags":"amenity:restaurant","lat":-29.4707194,"lng":-51.8085931},{"id":"1561102682","name":"UNIVATES","tags":"amenity:university,wheelchair:yes","lat":-29.4439944,"lng":-51.9554481},{"id":"1637809654","name":"Farmácia Sanar Binafarma","tags":"addr:city:Teutônua,addr:housenumber:179,addr:postcode:95890-000,addr:street:Rua Arthur Pilz, 179,addr:suburb:Languirú,amenity:pharmacy,dispensing:yes,healthcare:pharmacy,opening_hours:Mo-Sa 08:00-18:00,phone:+55 51 3762-2047,website:https://www.binafarma.com.br/","lat":-29.4685737,"lng":-51.8122158},{"id":"1656305200","name":"Restaurante União","tags":"amenity:restaurant,website:http://www.hruniao.com.br","lat":-29.4684738,"lng":-51.8085343},{"id":"1656310234","name":"Estacionamento coberto da prefeitura","tags":"amenity:parking","lat":-29.4823103,"lng":-51.8162877},{"id":"1678188543","tags":"leisure:sports_centre,sport:soccer","lat":-29.4471598,"lng":-51.8020967},{"id":"1678190001","name":"Campo da AAC","tags":"leisure:sports_centre,sport:soccer","lat":-29.4394656,"lng":-51.7997147},{"id":"1687825658","name":"Farmácia Panvel","tags":"amenity:pharmacy,healthcare:pharmacy","lat":-29.4643162,"lng":-51.964468},{"id":"1803523088","tags":"amenity:bar","lat":-29.4508125,"lng":-51.9828972},{"id":"1803523090","tags":"amenity:bar","lat":-29.446971,"lng":-51.9829332},{"id":"1851089292","name":"Garagem da Julyo","tags":"amenity:parking","lat":-29.4660605,"lng":-51.9629745},{"id":"1852469151","tags":"shop:convenience","lat":-29.4623639,"lng":-51.964142},{"id":"1852469152","name":"Brigada Militar","tags":"amenity:police","lat":-29.4666128,"lng":-51.9645233},{"id":"1854335153","tags":"amenity:car_wash","lat":-29.4521763,"lng":-51.9785268},{"id":"2145787752","name":"Peters","tags":"amenity:car_wash","lat":-29.4760352,"lng":-51.8182933},{"id":"2147926587","name":"Supermercado Gottardi","tags":"shop:convenience","lat":-29.4467651,"lng":-51.8111592},{"id":"2147941989","name":"Durayski Gourmet","tags":"amenity:restaurant","lat":-29.4483767,"lng":-51.805253},{"id":"2147941991","name":"Posto da Dani","tags":"amenity:cafe,cuisine:coffee_shop","lat":-29.4696618,"lng":-51.8113082},{"id":"2158256663","name":"Museu Antickhaus Bergmann","tags":"phone:+55 51 3762-5328,tourism:museum","lat":-29.4397048,"lng":-51.717084},{"id":"2158263944","name":"Residência Wiethölter","tags":"historic:monument,tourism:attraction","lat":-29.4463891,"lng":-51.7589869},{"id":"2158294339","name":"Cascata Santa Rita","tags":"addr:city:Estrela,addr:postcode:95880-000,tourism:attraction,website:http://www.overmundo.com.br/guia/cascata-santa-rita","lat":-29.5214823,"lng":-51.9062413},{"id":"2167564443","name":"Caixa Econômica Federal","tags":"amenity:bank,atm:yes","lat":-29.4709161,"lng":-51.8085788},{"id":"2167564938","name":"Correio","tags":"amenity:post_office,operator:ECT","lat":-29.4725507,"lng":-51.8083265},{"id":"2167567180","tags":"amenity:car_wash","lat":-29.4446867,"lng":-51.8205761},{"id":"2374357720","name":"Campo de Futebol","tags":"leisure:sports_centre","lat":-29.5114059,"lng":-51.9874556},{"id":"2383439501","name":"Correios","tags":"amenity:post_office","lat":-29.3887296,"lng":-51.8693626},{"id":"2383439502","tags":"amenity:hospital,emergency:no","lat":-29.3895192,"lng":-51.8691354},{"id":"2383479746","name":"Estacionamento Caminhões","tags":"amenity:parking","lat":-29.4448354,"lng":-51.8213438},{"id":"2383481325","name":"Churrascaria Rota do Sol","tags":"amenity:restaurant","lat":-29.4442118,"lng":-51.8202302},{"id":"2384396913","name":"Cactario Horst","tags":"tourism:attraction","lat":-29.355801,"lng":-51.7793414},{"id":"2384404191","name":"Brigada Militar","tags":"amenity:police","lat":-29.3558941,"lng":-51.7776718},{"id":"2386622558","name":"Soges","tags":"amenity:nightclub","lat":-29.5008927,"lng":-51.9653372},{"id":"2386622561","name":"Sicredi","tags":"amenity:bank,brand:Sicredi,brand:wikidata:Q3483060,brand:wikipedia:pt:Sistema de Crédito Cooperativo","lat":-29.5007753,"lng":-51.9668589},{"id":"2386622563","name":"Caixa","tags":"amenity:bank","lat":-29.5016799,"lng":-51.9672739},{"id":"2386622564","name":"Bradesco","tags":"amenity:bank,atm:yes,brand:Bradesco,brand:wikidata:Q806181,brand:wikipedia:en:Banco Bradesco,drive_through:no","lat":-29.5024143,"lng":-51.9673465},{"id":"2386657881","name":"Restaurante Estrela Palace","tags":"addr:housenumber:375,addr:street:Rua 20 de maio,amenity:restaurant,cuisine:regional","lat":-29.5081673,"lng":-51.968057},{"id":"2387686696","name":"Farmácia Languiru","tags":"amenity:pharmacy","lat":-29.468513,"lng":-51.809483},{"id":"2387688289","name":"Farmácia 24hrs Canabarro","tags":"amenity:pharmacy,healthcare:pharmacy","lat":-29.505159,"lng":-51.8068285},{"id":"2387692321","name":"Escola Reinaldo Afonso Augustin","tags":"amenity:school","lat":-29.512991,"lng":-51.807968},{"id":"2387692324","name":"Escola Municipal Leopoldo Klepker","tags":"amenity:school","lat":-29.516697,"lng":-51.814964},{"id":"2387692328","name":"Esporte Clube Canabarrense","tags":"leisure:stadium","lat":-29.504263,"lng":-51.808983},{"id":"2387692331","name":"Colégio Cenecista","tags":"amenity:school","lat":-29.50452,"lng":-51.807587},{"id":"2387694811","name":"Mercado Bauer","tags":"shop:supermarket","lat":-29.5023822,"lng":-51.8059848},{"id":"2388659060","tags":"amenity:parking,parking:surface","lat":-29.5049163,"lng":-51.9666491},{"id":"2393076009","name":"Polícia Civil","tags":"amenity:police","lat":-29.4962475,"lng":-51.9653428},{"id":"2393076013","name":"Correios","tags":"amenity:post_office,brand:Correios,brand:wikidata:Q3375004,brand:wikipedia:en:Correios","lat":-29.5014138,"lng":-51.9677836},{"id":"2393176650","name":"Colégio Martin Luther","tags":"addr:city:Estrela,addr:housenumber:104,addr:postcode:95880-000,addr:street:Rua Nilo Pecanha,addr:suburb:Oriental,amenity:school,phone:+55 51 3712-1248,website:http://cml.com.br/","lat":-29.4931916,"lng":-51.9638783},{"id":"2393176698","name":"Faculdade La Salle","tags":"addr:city:Estrela,addr:housenumber:401,addr:postcode:95880-000,addr:street:Rua Tiradentes,addr:suburb:Centro,amenity:university,denomination:catholic,operator:La Salle,operator:type:religious,phone:+55 51 3720-2732,religion:christian,website:https://www.unilasalle.edu.br/faculdade/estrela","lat":-29.5014685,"lng":-51.9658},{"id":"2395086983","name":"Escola Estadual Ensino Médio","tags":"amenity:school","lat":-29.5044994,"lng":-51.964318},{"id":"2395087006","name":"Sociedade Rio Branco - Sede campestre","tags":"leisure:sports_centre","lat":-29.5050086,"lng":-51.9488286},{"id":"2395087029","name":"Soges - Sede campestre","tags":"building:yes,leisure:sports_centre","lat":-29.5102795,"lng":-51.9659304},{"id":"2395087042","name":"Zafferano gastronomia","tags":"amenity:restaurant","lat":-29.5008623,"lng":-51.9654902},{"id":"2395087099","name":"Escola Estadual Vidal de Negreiros","tags":"amenity:school","lat":-29.5091961,"lng":-51.9672656},{"id":"2395132665","name":"Sivius beauty hair","tags":"phone:+55 51 3714-2507,shop:beauty","lat":-29.4675702,"lng":-51.9632637},{"id":"2396591066","name":"AABB - Associação Atlética Banco do Brasil","tags":"leisure:sports_centre","lat":-29.4701699,"lng":-51.9507145},{"id":"2396894953","name":"Caixa Econômica Federal","tags":"amenity:bank,atm:yes","lat":-29.4576701,"lng":-51.9727582},{"id":"2396894954","name":"Farmácia Mais Econômica","tags":"amenity:pharmacy,healthcare:pharmacy","lat":-29.4643547,"lng":-51.9646665},{"id":"2396894956","tags":"amenity:parking","lat":-29.4636387,"lng":-51.9641388},{"id":"2400771990","name":"Restaurante e lancheria","tags":"amenity:restaurant","lat":-29.5009469,"lng":-51.963655},{"id":"2401562062","tags":"amenity:car_wash","lat":-29.5001697,"lng":-51.9651359},{"id":"2401562098","name":"Maxxi Econômica","tags":"amenity:pharmacy,dispensing:yes,healthcare:pharmacy","lat":-29.5003962,"lng":-51.9654444},{"id":"2401562110","name":"Armazém","tags":"shop:books","lat":-29.5015097,"lng":-51.9655731},{"id":"2401562178","name":"Ferraza restaurante e pizzaria","tags":"amenity:restaurant","lat":-29.500709,"lng":-51.9673917},{"id":"2402695882","name":"São João","tags":"amenity:pharmacy,brand:São João,brand:wikidata:Q62663306,healthcare:pharmacy","lat":-29.5041506,"lng":-51.9645006},{"id":"2402980568","name":"Banrisul","tags":"amenity:bank,atm:yes","lat":-29.4002677,"lng":-51.9456228},{"id":"2402980569","name":"Correios","tags":"amenity:post_office","lat":-29.402476,"lng":-51.9440395},{"id":"2402980570","name":"Sicredi","tags":"amenity:bank,atm:yes","lat":-29.3981506,"lng":-51.9476207},{"id":"2402980571","name":"Sicredi","tags":"amenity:bank,atm:yes","lat":-29.4018027,"lng":-51.9439231},{"id":"2402980572","name":"Supermercado Languiru","tags":"addr:street:Rua Doutor João Carlos Machado,atm:yes,shop:supermarket","lat":-29.3995184,"lng":-51.9464501},{"id":"2402980573","name":"RITTS","tags":"addr:city:Arroio do Meio,addr:housenumber:1184,addr:street:Rua Gustavo Wienandts,amenity:restaurant,internet_access:wlan,phone:+55 51 3716-2022","lat":-29.3973398,"lng":-51.9478965},{"id":"2402980576","name":"Caixa Econômica Federal","tags":"amenity:bank,atm:yes","lat":-29.3992569,"lng":-51.9467547},{"id":"2402980577","name":"Colégio Bom Jesus","tags":"amenity:school","lat":-29.4015932,"lng":-51.9475515},{"id":"2402980578","name":"Banco do Brasil","tags":"amenity:bank,atm:yes","lat":-29.4034107,"lng":-51.9440207},{"id":"2402980579","name":"Hospital São José","tags":"amenity:hospital","lat":-29.4025649,"lng":-51.9464822},{"id":"2402981987","name":"Escola Estadual Guararapes","tags":"amenity:school","lat":-29.4000735,"lng":-51.9469999},{"id":"2402983304","name":"Igreja Evangélica","tags":"amenity:place_of_worship,building:church,denomination:evangelical,religion:christian","lat":-29.3932058,"lng":-51.9243789},{"id":"2402983351","name":"Igreja Católica","tags":"amenity:place_of_worship,building:church,denomination:catholic,religion:christian","lat":-29.392673,"lng":-51.9244915},{"id":"2402983900","name":"Mercado Arroiomeense","tags":"shop:supermarket","lat":-29.4020712,"lng":-51.942005},{"id":"2402983901","tags":"amenity:restaurant","lat":-29.4034107,"lng":-51.9424007},{"id":"2403775133","name":"IEEEM - Instituto Estadual de Educação Estrela da Manhã","tags":"amenity:school","lat":-29.5117154,"lng":-51.9679046},{"id":"2405469622","name":"Bar do Adão","tags":"amenity:restaurant","lat":-29.5065867,"lng":-51.9638031},{"id":"2405469629","name":"Mercado e padaria AB","tags":"shop:convenience","lat":-29.5099037,"lng":-51.9631594},{"id":"2435404791","tags":"amenity:bar","lat":-29.4392131,"lng":-51.7994335},{"id":"2435511049","name":"Restaurante Matinho","tags":"amenity:restaurant","lat":-29.4927955,"lng":-51.8069549},{"id":"2437413217","tags":"amenity:bar","lat":-29.5074671,"lng":-51.8071985},{"id":"2463257166","tags":"amenity:bar","lat":-29.4470558,"lng":-51.8118529},{"id":"2468042916","name":"Banco Banrisul","tags":"amenity:bank","lat":-29.4489717,"lng":-51.8059486},{"id":"2490093241","tags":"amenity:cafe","lat":-29.4814168,"lng":-51.9612719},{"id":"2490093253","name":"Comida caseira","tags":"amenity:restaurant","lat":-29.4814932,"lng":-51.962294},{"id":"2490093255","name":"Bar do Zé","tags":"amenity:bar","lat":-29.4812988,"lng":-51.9630756},{"id":"2512696823","name":"Terminal de Ônibus","tags":"amenity:bus_station,bus:yes,public_transport:station","lat":-29.5031805,"lng":-51.9650402},{"id":"2592701297","tags":"amenity:parking","lat":-29.4687601,"lng":-51.8103035},{"id":"2592711576","tags":"amenity:parking","lat":-29.4677925,"lng":-51.8119745},{"id":"2601599739","name":"Brigada MIlitar","tags":"amenity:police","lat":-29.5121744,"lng":-51.9902228},{"id":"2837649597","name":"Farmácia Droga Raia","tags":"addr:city:Lajeado,addr:housenumber:1200,addr:postcode:95900-000,addr:street:Rua Julio de Castilhos,amenity:pharmacy,healthcare:pharmacy,operator:Droga Raia","lat":-29.4607136,"lng":-51.9669808},{"id":"2837653003","name":"Itaú","tags":"amenity:bank,atm:yes","lat":-29.4658465,"lng":-51.9637645},{"id":"2837745708","name":"Mercado Bom Gosto","tags":"addr:street:ERS-130,opening_hours:Mo-Sa 07:30-19:00; Su 07:30-11:00,phone:+55 51 3716-5013,shop:supermarket","lat":-29.411262,"lng":-51.9613225},{"id":"2837745709","tags":"amenity:restaurant","lat":-29.4113399,"lng":-51.9613832},{"id":"2928658116","name":"Agência de Correios Cruzeiro do Sul","tags":"addr:housenumber:229,addr:postcode:95930-970,addr:street:Rua General Neto,amenity:post_office,contact:phone:+55 51 3764-1396,opening_hours:Mo-Fr 09:00-12:00,13:30-17:00,operator:EBCT,short_name:AC Cruzeiro do Sul","lat":-29.5130022,"lng":-51.9855488},{"id":"2928658117","name":"Agência de Correios Florestal","tags":"addr:housenumber:1016,addr:postcode:95900-000,addr:street:Avenida dos Quinze,amenity:post_office,contact:phone:+55 51 3710-1583,opening_hours:Mo-Fr 09:00-12:00, 13:30-17:30,operator:EBCT,short_name:AC Florestal","lat":-29.4502712,"lng":-51.9755183},{"id":"2928658118","name":"Agência de Correios Franqueada Alberto Pasqualini","tags":"addr:housename:Sala 01,addr:housenumber:151,addr:postcode:95900-971,addr:street:Avenida Senador Alberto Pasqualini,amenity:post_office,contact:phone:+55 51 3710-2960,opening_hours:Mo-Fr 09:00-12:00, 13:30-17:45; Sa 09:00-11:45,operator:EBCT,short_name:ACF Alberto Pasqualini","lat":-29.45947,"lng":-51.9673327},{"id":"2928658119","name":"Agência de Correios Lajeado","tags":"addr:housename:Sala 107,addr:housenumber:670,addr:postcode:95900-970,addr:street:Avenida Benjamin Constant,amenity:post_office,contact:phone:+55 51 3710-1600,opening_hours:Mo-Fr 09:00-17:30,operator:EBCT,short_name:AC Lajeado","lat":-29.4651531,"lng":-51.966026},{"id":"3905639383","name":"Balneário da Cascalheira","tags":"tourism:attraction,wheelchair:no","lat":-29.4135739,"lng":-51.9186256},{"id":"4020837476","name":"Rodoviária de Arroio do Meio","tags":"DER:RS:categoria_rodoviaria:terceira,DER:RS:zona_de_fiscalizacao:11,addr:housenumber:489,addr:postcode:95940-000,addr:street:Rua João Carlos Machado,addr:suburb:Centro,amenity:bus_station,contact:email:rodoarroiodomeio@gmail.com,contact:phone:+55 51 3716-1334,network:BR:RS,official_name:Arroio do Meio,operator:Eliani Tischer & Cia Ltda,public_transport:station,ref:vatin:BR09164990000178","lat":-29.402425,"lng":-51.9432018},{"id":"4024881629","name":"Colégio Evangélico Alberto Torres","tags":"amenity:school","lat":-29.4633171,"lng":-51.9643937},{"id":"4024881635","name":"Itaú","tags":"amenity:bank,atm:yes","lat":-29.4640486,"lng":-51.9648962},{"id":"4024881638","name":"Sicredi","tags":"amenity:bank,atm:yes,brand:Sicredi,brand:wikidata:Q3483060,brand:wikipedia:pt:Sistema de Crédito Cooperativo","lat":-29.4468118,"lng":-51.9633645},{"id":"4024881640","name":"Sicredi","tags":"amenity:bank,atm:yes","lat":-29.4554095,"lng":-51.9733271},{"id":"4024881642","name":"Sicredi","tags":"amenity:bank,brand:Sicredi,brand:wikidata:Q3483060,brand:wikipedia:pt:Sistema de Crédito Cooperativo","lat":-29.4641196,"lng":-51.9642266},{"id":"4024881643","name":"Sicredi","tags":"amenity:atm","lat":-29.4643378,"lng":-51.9640812},{"id":"4024881644","name":"Tombado","tags":"addr:city:Lajeado,addr:housenumber:225,addr:street:Rua Borges de Medeiros,amenity:restaurant,phone:+55 51 3709-0272,website:www.tombado.com.br","lat":-29.4667266,"lng":-51.962458},{"id":"4076081197","name":"Polícia Rodoviária Federal","tags":"amenity:police,email:del04.rs@prf.gov.br,opening_hours:24/7,operator:Polícia Rodoviária Federal,operator:wikidata:Q1158853,operator:wikipedia:pt:Polícia Rodoviária Federal,phone:+55 51 3748 9548,police:traffic_police,wheelchair:yes","lat":-29.4320747,"lng":-52.011814},{"id":"4106676507","name":"Sicredi","tags":"amenity:bank,atm:yes","lat":-29.3880225,"lng":-51.868896},{"id":"4106676514","tags":"amenity:school","lat":-29.3925575,"lng":-51.8718155},{"id":"4106676541","tags":"shop:supermarket","lat":-29.431351,"lng":-52.0297755},{"id":"4172327164","name":"Supermercado Pessi","tags":"addr:city:Lajeado,addr:housenumber:3362,addr:postcode:95905-080,addr:street:Avenida Benjamin Constant,addr:suburb:Montanha,phone:+55 51 3710-1278,shop:supermarket","lat":-29.4511612,"lng":-51.9829682},{"id":"4181889644","name":"Relógio das flores","tags":"amenity:clock,tourism:attraction","lat":-29.4819035,"lng":-51.8167518},{"id":"4286835008","tags":"amenity:restaurant","lat":-29.4493593,"lng":-51.9682966},{"id":"4286835009","tags":"amenity:atm","lat":-29.4450051,"lng":-51.9563252},{"id":"4286835011","name":"Sicredi","tags":"amenity:bank,atm:yes,operator:Sicredi","lat":-29.5131783,"lng":-51.9843696},{"id":"4286887396","tags":"amenity:atm","lat":-29.4491438,"lng":-51.9686688},{"id":"4286887497","tags":"amenity:car_wash","lat":-29.4495899,"lng":-51.968392},{"id":"4286920303","tags":"shop:books","lat":-29.4492182,"lng":-51.9690246},{"id":"4286921402","name":"Ponto de Vista","tags":"amenity:restaurant,cuisine:brazilian,internet_access:wlan,phone:+55 51 3764-1287","lat":-29.5150471,"lng":-51.9870376},{"id":"4293722059","tags":"amenity:place_of_worship,building:church,denomination:lutheran,religion:christian","lat":-29.3794827,"lng":-51.9184806},{"id":"4293722060","tags":"amenity:place_of_worship,building:church,denomination:catholic,religion:christian","lat":-29.3804477,"lng":-51.919836},{"id":"4293722061","tags":"amenity:place_of_worship,building:church,religion:christian","lat":-29.3895174,"lng":-51.9528664},{"id":"4293722062","tags":"amenity:place_of_worship,building:church,denomination:pentecostal,religion:christian","lat":-29.3903907,"lng":-51.9267149},{"id":"4293722063","tags":"amenity:place_of_worship,building:church,denomination:pentecostal,religion:christian","lat":-29.3997763,"lng":-51.9446262},{"id":"4293722065","tags":"amenity:place_of_worship,building:church,denomination:lutheran,religion:christian","lat":-29.4008646,"lng":-51.9408099},{"id":"4293722066","tags":"amenity:place_of_worship,building:church,denomination:catholic,religion:christian","lat":-29.4062333,"lng":-51.940837},{"id":"4293722943","tags":"amenity:place_of_worship,building:church,denomination:catholic,religion:christian","lat":-29.401434,"lng":-51.9925661},{"id":"4293747893","name":"Bradesco","tags":"amenity:bank,atm:yes","lat":-29.4006533,"lng":-51.9470086},{"id":"4293747895","name":"Farmácia Carisfarma","tags":"amenity:pharmacy","lat":-29.4019388,"lng":-51.9418697},{"id":"4293747896","name":"Farmácia Drogativa","tags":"amenity:pharmacy","lat":-29.404607,"lng":-51.94372},{"id":"4293747897","name":"Farmácia Francibel","tags":"amenity:pharmacy","lat":-29.3999611,"lng":-51.9459614},{"id":"4293747898","name":"Farmácia Agafarma","tags":"addr:postcode:95940-000,addr:street:Rua Júlio de Castilhos,amenity:pharmacy","lat":-29.4022168,"lng":-51.9464339},{"id":"4293747899","name":"Farmácia Noite e Dia","tags":"amenity:pharmacy","lat":-29.4005128,"lng":-51.9453522},{"id":"4293747900","name":"Farmácia Petternina","tags":"amenity:pharmacy","lat":-29.3996499,"lng":-51.9466477},{"id":"4293747901","name":"Farmácia São João","tags":"amenity:pharmacy","lat":-29.399136,"lng":-51.9469154},{"id":"4293747903","name":"Mercado Airton","tags":"opening_hours:Mo-Sa 08:00-12:00, 14:00-22:00; Su 08:00-12:00, 15:00-22:00,phone:+55 51 3716-1285,shop:supermarket","lat":-29.4001547,"lng":-51.947595},{"id":"4293747904","name":"Mercado Redefort","tags":"shop:supermarket","lat":-29.4035749,"lng":-51.9437241},{"id":"4293747905","tags":"amenity:pharmacy","lat":-29.3907749,"lng":-51.9512568},{"id":"4293747906","tags":"amenity:pharmacy","lat":-29.3908867,"lng":-51.9404879},{"id":"4293747907","tags":"amenity:pharmacy","lat":-29.3922227,"lng":-51.924402},{"id":"4293747909","name":"Kadernus","tags":"shop:books","lat":-29.4021248,"lng":-51.9435912},{"id":"4293762729","tags":"amenity:place_of_worship,building:church,denomination:catholic,religion:christian","lat":-29.3875555,"lng":-51.8699906},{"id":"4293762730","tags":"amenity:place_of_worship,building:church,denomination:evangelical,religion:christian","lat":-29.3894881,"lng":-51.8705611},{"id":"4293762731","tags":"amenity:place_of_worship,building:church,denomination:pentecostal,religion:christian","lat":-29.3954486,"lng":-51.8716922},{"id":"4293762732","tags":"amenity:place_of_worship,building:church,denomination:evangelical,religion:christian","lat":-29.436313,"lng":-51.9127581},{"id":"4293762733","tags":"amenity:place_of_worship,building:church,denomination:catholic,religion:christian","lat":-29.4673511,"lng":-51.9420145},{"id":"4293763628","name":"Mercado Redefort","tags":"shop:supermarket","lat":-29.3919025,"lng":-51.8723595},{"id":"4293770356","name":"Banrisul","tags":"amenity:bank,atm:yes","lat":-29.3889365,"lng":-51.8694022},{"id":"4293770357","name":"Brigada Militar","tags":"amenity:police","lat":-29.3880009,"lng":-51.8691593},{"id":"4293770358","name":"Brigada Militar","tags":"amenity:police","lat":-29.3995978,"lng":-51.9345978},{"id":"4293770359","name":"Polícia Civil","tags":"amenity:police","lat":-29.40033,"lng":-51.9475408},{"id":"4293770360","name":"Polícia Civil","tags":"amenity:police","lat":-29.4656078,"lng":-51.9664285},{"id":"4293770363","tags":"amenity:pharmacy","lat":-29.3867572,"lng":-51.8701682},{"id":"4293770364","tags":"amenity:bus_station","lat":-29.3872289,"lng":-51.8703165},{"id":"4293902681","tags":"amenity:restaurant,cuisine:barbecue","lat":-29.433304,"lng":-52.0103944},{"id":"4293902684","tags":"amenity:restaurant,cuisine:barbecue","lat":-29.4784057,"lng":-51.9551004},{"id":"4293905595","name":"Banrisul","tags":"amenity:bank,atm:yes,brand:Banrisul,brand:wikidata:Q4857098,brand:wikipedia:en:Banrisul","lat":-29.4592143,"lng":-51.9690563},{"id":"4296383231","name":"Escola João Beda Korbes","tags":"amenity:school","lat":-29.3924566,"lng":-51.9249456},{"id":"4296613213","name":"Salão de Beleza Brunita","tags":"shop:beauty","lat":-29.3913109,"lng":-51.9508872},{"id":"4297203588","name":"Igreja Matriz","tags":"amenity:place_of_worship,building:church,denomination:lutheran,religion:christian","lat":-29.4016346,"lng":-51.9451067},{"id":"4299301913","name":"Museu Público Municipal de Arroio do Meio","tags":"tourism:museum","lat":-29.4022492,"lng":-51.9452338},{"id":"4346707515","name":"O Pastelão","tags":"addr:city:Lajeado,addr:housenumber:1047,addr:street:Avenida Benjamin Constant,amenity:restaurant,phone:+55 51 3748-1769","lat":-29.46203,"lng":-51.9672216},{"id":"4346707516","name":"Pramius","tags":"addr:city:Lajeado,addr:housenumber:314,addr:street:Rua João Batista de Melo,amenity:restaurant","lat":-29.465407,"lng":-51.9647302},{"id":"4346707517","name":"Restaurante e Pizzaria Moenda","tags":"addr:city:Lajeado,addr:housenumber:251,addr:street:Rua João Batista de Melo,amenity:restaurant,phone:+55 51 3714-2323","lat":-29.4647997,"lng":-51.9637777},{"id":"4346707520","name":"Sicredi","tags":"amenity:bank,website:https://www.sicredi.com.br/","lat":-29.4643168,"lng":-51.9639829},{"id":"4346736863","name":"Academia Musical Êxitus","tags":"addr:city:Lajeado,amenity:school,phone:+55 51 3714-1414","lat":-29.4545192,"lng":-51.9643087},{"id":"4346736872","name":"Minato Mirai","tags":"addr:city:Lajeado,addr:housenumber:438,addr:street:Rua Dezessete de Dezembro,amenity:restaurant,cuisine:sushi,phone:+55 51 3729-7555,website:http://minatomiraisushi.com.br","lat":-29.4621841,"lng":-51.9585929},{"id":"4352077923","name":"Restaurante Luigi","tags":"addr:city:Lajeado,addr:housenumber:102,addr:street:Rua Donga Menezes,amenity:restaurant,phone:+55 51 3729-7014,website:https://m.facebook.com/RestauranteLuigiLajeado/","lat":-29.4448566,"lng":-51.9808164},{"id":"4352077924","name":"Supermercado Dália","tags":"phone:+55 51 3716-1374,shop:supermarket","lat":-29.3911419,"lng":-51.9404491},{"id":"4644366191","name":"Posto de Lavagem Classe A","tags":"addr:postcode:95900-000,addr:street:Avenida Senador Alberto Pasqualini,amenity:car_wash,phone:+55 51 3748-4572","lat":-29.4459616,"lng":-51.9630867},{"id":"4678669103","name":"STR","tags":"shop:supermarket","lat":-29.5133362,"lng":-51.9907474},{"id":"4678679375","name":"Bar do Beti","tags":"amenity:bar,operator:Beti","lat":-29.5144129,"lng":-51.9942956},{"id":"4688735565","name":"Restaurante do Baldo","tags":"amenity:restaurant","lat":-29.4007834,"lng":-51.9468689},{"id":"4688779234","name":"Agrovida Pet Shop","tags":"shop:pet","lat":-29.398342,"lng":-51.9477437},{"id":"4745788515","name":"EMEF Campestre","tags":"addr:city:Lajeado,addr:housenumber:488,addr:postcode:95900-000,addr:street:Rua Paul Harris,addr:suburb:Campestre,amenity:school,internet_access:yes,level:1","lat":-29.438364,"lng":-51.9751212},{"id":"4839265223","name":"Ki-Ponto Lanches","tags":"addr:postcode:95940-000,addr:street:Rua Visconde do Rio Branco,amenity:restaurant,cuisine:burger,internet_access:wlan,phone:+55 51 3716-2775","lat":-29.4031483,"lng":-51.9442821},{"id":"4851873132","name":"Mercado Scheid","tags":"addr:housenumber:275,addr:street:Rua Bela Vista,phone:+55 51 3716-1170,shop:supermarket","lat":-29.3941899,"lng":-51.9490928},{"id":"4851875323","name":"Minimercado Seibel","tags":"shop:supermarket","lat":-29.3898892,"lng":-51.9541762},{"id":"4851875324","name":"Mercado do Gordo","tags":"addr:housenumber:201,addr:street:Rua Pastor Victor Lehenbauer,phone:+55 51 3716-1717,shop:supermarket","lat":-29.3919705,"lng":-51.9527936},{"id":"4896147321","name":"Restaurante e Lancheria do Vale","tags":"addr:postcode:95940-000,addr:street:Rua José Wunibaldo Thomas,amenity:restaurant,cuisine:brazilian,internet_access:wlan,phone:+55 51 99575-6771","lat":-29.4043077,"lng":-51.958758},{"id":"4917872021","tags":"amenity:bar","lat":-29.4373701,"lng":-51.9718594},{"id":"5043066121","name":"Saborear Restaurante","tags":"addr:housenumber:274,addr:postcode:95900-000,addr:street:Rua Omar Moreira Libio,amenity:restaurant,cuisine:brazilian,internet_access:wlan,phone:+55 51 3748-0416","lat":-29.4490499,"lng":-51.9637017},{"id":"5241570704","name":"Cascata Wasserfall III","tags":"tourism:attraction,waterway:waterfall","lat":-29.3628935,"lng":-51.6980696},{"id":"5264201556","name":"Restaurante 22","tags":"amenity:restaurant","lat":-29.449038,"lng":-51.9468366},{"id":"5308872909","tags":"amenity:parking","lat":-29.4200655,"lng":-51.7708276},{"id":"5308872910","tags":"shop:convenience","lat":-29.420215,"lng":-51.7706144},{"id":"5734971590","name":"Boate Flerte","tags":"amenity:nightclub","lat":-29.4768329,"lng":-51.8849406},{"id":"5873505498","name":"Associação Manoel Ribeiro Pontes","tags":"leisure:sports_centre","lat":-29.4520739,"lng":-51.7176707},{"id":"5914851729","name":"Entrada Pinguela","tags":"addr:city:Arroio do Meio,addr:postcode:95940-000,addr:street:VRS-811,addr:suburb:Forqueta,tourism:attraction","lat":-29.3841633,"lng":-52.0296958},{"id":"6496588877","name":"Buddha Sushi Lounge","tags":"amenity:restaurant,cuisine:sushi","lat":-29.4455596,"lng":-51.949974},{"id":"6661378087","name":"Academia da Soges","tags":"leisure:fitness_centre","lat":-29.5009625,"lng":-51.9653358},{"id":"6703096375","name":"Biblioteca Univates","tags":"amenity:library","lat":-29.4457273,"lng":-51.9531464},{"id":"6736437177","name":"Sicredi","tags":"amenity:bank,brand:Sicredi,brand:wikidata:Q3483060,brand:wikipedia:pt:Sistema de Crédito Cooperativo","lat":-29.4694081,"lng":-51.8125539},{"id":"6746347243","name":"O Gato da Praça Pub","tags":"addr:city:Estrela,addr:housenumber:360,addr:postcode:95880-000,addr:street:Rua 13 de Maio,addr:suburb:Centro,amenity:bar,outdoor_seating:no","lat":-29.5023684,"lng":-51.9677616},{"id":"6746347275","name":"Mercado Brodhaus","tags":"addr:city:Estrela,addr:housenumber:448,addr:postcode:95880-000,addr:street:Rua Fernando Abott,addr:suburb:Centro,shop:supermarket","lat":-29.5023289,"lng":-51.9665404},{"id":"6881671668","name":"Espaço Naty Beauty","tags":"shop:beauty","lat":-29.5000531,"lng":-51.9635815},{"id":"6906965012","tags":"addr:city:Estrela,addr:housenumber:933,addr:postcode:95880-000,addr:street:Avenida Rio Branco,addr:suburb:Estados,amenity:restaurant,phone:+55 51 99152-3173","lat":-29.4909445,"lng":-51.9598608},{"id":"6907018356","name":"Farmácias São João","tags":"addr:street:Avenida Rio Branco,amenity:pharmacy,dispensing:yes,healthcare:pharmacy","lat":-29.4929263,"lng":-51.9612352},{"id":"6907018363","name":"Restaurante Terraço","tags":"addr:city:Estrela,addr:housenumber:461,addr:postcode:95880-000,addr:street:Avenida Rio Branco,addr:suburb:Estados,amenity:restaurant,phone:+55 51 3712-3769","lat":-29.4926835,"lng":-51.9606947},{"id":"6973907070","name":"Restaurante Bocatto","tags":"amenity:restaurant,opening_hours:11:30-14:00","lat":-29.4450296,"lng":-51.956735},{"id":"7008098562","name":"EEEM Westfália","tags":"addr:city:Westfália,addr:postcode:95893-000,addr:street:Avenida Henrique Uebel,addr:suburb:Bela Vista,amenity:school","lat":-29.4167665,"lng":-51.7670121},{"id":"7008109259","name":"Bloco B da EMEF Vila Schmidt","tags":"addr:city:Westfália,addr:postcode:95893-000,addr:street:Avenida Henrique Uebel,addr:suburb:Bela Vista,amenity:school","lat":-29.4176868,"lng":-51.7661994},{"id":"7008110695","tags":"addr:city:Westfália,addr:postcode:95893-000,addr:street:Rua Cristiano Ahlert,addr:suburb:Bela Vista,amenity:grave_yard,religion:christian","lat":-29.4165475,"lng":-51.7659413},{"id":"7008122054","name":"EMEF Vila Schmidt","tags":"addr:city:Westfália,addr:postcode:95893-000,addr:street:Avenida Henrique Uebel,addr:suburb:Bela Vista,amenity:school","lat":-29.4172201,"lng":-51.7668765},{"id":"7008151197","name":"Academia CT Mão de Pedra","tags":"addr:city:Westfália,addr:postcode:95893-000,addr:street:Avenida Henrique Uebel,addr:suburb:Germânia,leisure:fitness_centre","lat":-29.4260813,"lng":-51.7662422},{"id":"7051818966","name":"EMEF Getúlio Vargas","tags":"amenity:school","lat":-29.4273931,"lng":-51.8055384},{"id":"7340887407","name":"Croasonho","tags":"addr:city:Lajeado,addr:housenumber:1144,addr:street:Rua Bento Gonçalves,addr:suburb:Centro,amenity:cafe,phone:+55 51 3729-5626,website:http://www.croasonho.com.br/","lat":-29.4606124,"lng":-51.9656579},{"id":"7340887409","name":"Restaurante Barranco","tags":"addr:city:Lajeado,addr:housenumber:255,addr:street:Rua Osvaldo Aranha,addr:suburb:Centro,amenity:restaurant,phone:+55 51 3714-2038","lat":-29.470372,"lng":-51.961524},{"id":"7340906274","name":"Amor Animal Pet Shop","tags":"addr:city:Lajeado,addr:housenumber:165,addr:street:Rua João Goulart,addr:suburb:Campestre,phone:+55 51 3748-0842,shop:pet,website:https://www.facebook.com/amoranimalpetshoplajeado/","lat":-29.4373247,"lng":-51.971591},{"id":"7340907855","name":"Farmácia Panvel","tags":"amenity:pharmacy,healthcare:pharmacy","lat":-29.4580358,"lng":-51.9719772},{"id":"7346147376","name":"Mercado e Açougue JL","tags":"addr:city:Arroio do Meio,addr:housenumber:842,addr:postcode:95900-000,addr:street:Rua Afonso Schneider,addr:suburb:Barra do Forqueta,phone:+55 51 99953-8317,shop:supermarket","lat":-29.4076931,"lng":-51.9662954},{"id":"7411498186","name":"EMEF Ernesto Alves","tags":"amenity:school","lat":-29.3636423,"lng":-51.8159205},{"id":"7626537444","name":"EMEF Pinheiros","tags":"amenity:school","lat":-29.4959176,"lng":-51.9471085},{"id":"7626537445","name":"EMEI Espaço de Sonhos","tags":"amenity:school","lat":-29.4956012,"lng":-51.9448769},{"id":"7626575042","name":"Escola Estadual de Ensino Médio Santo Antônio","tags":"amenity:school","lat":-29.4847786,"lng":-51.9878703},{"id":"7811120945","name":"EMEI Cantinho do Lar","tags":"amenity:school","lat":-29.5186959,"lng":-51.9595084},{"id":"7811170190","name":"Mercado Cristal","tags":"shop:supermarket","lat":-29.5129051,"lng":-51.9687224},{"id":"7863183185","name":"Márcia Souza Espaço da Beleza","tags":"addr:housenumber:686,addr:postcode:95940-000,addr:street:Rua São Cristóvão,name:pt:Márcia Souza Espaço da Beleza,phone:+5551998404215,shop:beauty","lat":-29.4080162,"lng":-51.9672025},{"id":"7874063216","name":"Unidade de Pronto Atendimento - UPA","tags":"amenity:hospital,emergency:yes,healthcare:hospital,opening_hours:24/7","lat":-29.4608745,"lng":-51.9969961},{"id":"8283518160","name":"Casa Morreto","tags":"amenity:restaurant,phone:+55 51 3720 3453,website:http://morreto.com/","lat":-29.3954888,"lng":-51.8785383},{"id":"8364544031","name":"Área Verde","tags":"leisure:park","lat":-29.4294671,"lng":-51.9906211},{"id":"8364544032","name":"Praça da Valmir da Silva","tags":"leisure:park","lat":-29.4290631,"lng":-51.9919754},{"id":"9264374694","name":"V2 Bistrô","tags":"amenity:restaurant","lat":-29.4334248,"lng":-51.8530304},{"id":"9353382406","name":"praca bairos igrejinha","tags":"leisure:park,operator:prefeitura municipal de lajeado","lat":-29.4293477,"lng":-51.9910942},{"id":"9637515777","name":"Consisa","tags":"addr:city:Estrela,addr:housenumber:1005,addr:postcode:95880-000,addr:street:Rua Coronel Britto,addr:suburb:Imigrantes,amenity:school","lat":-29.4966725,"lng":-51.9563458},{"id":"9661818792","tags":"amenity:restaurant","lat":-29.5150439,"lng":-51.9863158},{"id":"9888377514","name":"Bufalera","tags":"addr:city:Lajeado,addr:housenumber:438 LJ07,addr:postcode:95900-210,addr:street:Rua 17 de Dezembro,addr:suburb:Hidráulica,amenity:restaurant,cuisine:búfalo,diet:meat:yes,opening_hours:09:00–12:00, 14:30–23:00,phone:+55 51 98166-4697,website:https://bufalera.com.br","lat":-29.4619461,"lng":-51.9585818},{"id":"10169062124","name":"ES222","tags":"amenity:nightclub","lat":-29.47672,"lng":-51.8851179},{"id":"10169831621","name":"ES019","tags":"tourism:attraction","lat":-29.5041987,"lng":-51.9721381},{"id":"10169831627","name":"ES011","tags":"amenity:grave_yard","lat":-29.494088,"lng":-51.9259062},{"id":"10169831628","name":"ES010","tags":"amenity:grave_yard","lat":-29.5076874,"lng":-51.8644086},{"id":"10234826520","tags":"amenity:car_wash,automated:yes","lat":-29.4661032,"lng":-51.9807845}]