[{"id":"1067741064","name":"PRF - Policia Rodoviária Federal","tags":"addr:street:Rodovia Presidente Getúlio Vargas,amenity:police,email:del05p02.rs@prf.gov.br,opening_hours:24/7,operator:Polícia Rodoviária Federal,operator:wikidata:Q1158853,operator:wikipedia:pt:Polícia Rodoviária Federal,phone:+55 54 3281 1098,police:traffic_police,short_name:PRF","lat":-29.3852199,"lng":-51.1222201},{"id":"1068415400","name":"Comercial Schneider","tags":"shop:convenience","lat":-29.4980643,"lng":-50.9936388},{"id":"1068416801","name":"Escola Municipal Tiradentes","tags":"amenity:school","lat":-29.5206259,"lng":-51.0051517},{"id":"1069304962","name":"Panvel","tags":"amenity:pharmacy,brand:Panvel,brand:wikidata:Q10344254,brand:wikipedia:pt:Panvel,healthcare:pharmacy","lat":-29.3776986,"lng":-51.1131356},{"id":"1069304993","name":"Estação Rodoviária de Nova Petrópolis","tags":"amenity:bus_station,bus:yes,internet_access:no,public_transport:station,wheelchair:yes","lat":-29.3750093,"lng":-51.1101287},{"id":"1069713950","name":"Restaurante Reichert","tags":"amenity:restaurant","lat":-29.4387551,"lng":-51.1357688},{"id":"1069714715","name":"Casa Schmidt Produtos Coloniais","tags":"amenity:restaurant","lat":-29.4510093,"lng":-51.1363956},{"id":"1070105981","name":"Tenda do Umbu","tags":"amenity:restaurant","lat":-29.4903903,"lng":-51.1507111},{"id":"1070105995","name":"Canários Belga","tags":"shop:pet","lat":-29.4946383,"lng":-51.1389744},{"id":"1764743642","name":"Escola Alberto Schweitzer","tags":"amenity:school","lat":-29.4627532,"lng":-50.9908975},{"id":"1985737965","name":"Salão Bier","tags":"amenity:bar","lat":-29.4597775,"lng":-51.2007091},{"id":"1987609170","name":"Escola Municipal de Ensino Fundamental Arthur Ernesto Gutheil","tags":"amenity:school","lat":-29.5116896,"lng":-51.2951471},{"id":"2173895076","tags":"amenity:parking","lat":-29.5016658,"lng":-51.0023522},{"id":"2177547930","name":"Escola Municipal Germano Hauschild","tags":"amenity:school","lat":-29.4448275,"lng":-51.0060209},{"id":"2178804529","name":"Escola Municipal Henrique Konrad","tags":"amenity:school","lat":-29.4837074,"lng":-51.1798926},{"id":"3448546373","name":"Caverna dos Bugres","tags":"natural:cave_entrance,tourism:attraction","lat":-29.4910715,"lng":-50.9909152},{"id":"3448546384","name":"Cascata dos Bugres","tags":"tourism:attraction,waterway:waterfall","lat":-29.4909374,"lng":-50.9910484},{"id":"3932982058","name":"Restaurante Choppão","tags":"amenity:restaurant","lat":-29.457187,"lng":-51.3240144},{"id":"4328600489","name":"Café & Cia","tags":"addr:city:Nova Petrópolis,addr:housenumber:1727,addr:postcode:95150-000,addr:street:Avenida 15 de Novembro,addr:suburb:Centro,amenity:cafe,cuisine:breakfast;coffee_shop,internet_access:yes,outdoor_seating:yes,phone:+55 54 3281-1101","lat":-29.3743637,"lng":-51.1089555},{"id":"4328607706","name":"Banco do Brasil","tags":"addr:housenumber:330,addr:postcode:95150-000,addr:street:Rua Sete de Setembro,amenity:bank,brand:Banco do Brasil,brand:wikidata:Q610817,brand:wikipedia:en:Banco do Brasil,phone:+55 54 3281-1366,website:https://www.bb.com.br/","lat":-29.3759769,"lng":-51.1128902},{"id":"4328611391","name":"Bradesco","tags":"addr:city:Nova Petrópolis,addr:housenumber:100,addr:postcode:95150-000,addr:street:Rua Daniel Hildebrand,addr:suburb:Centro,amenity:bank,atm:yes,brand:Bradesco,brand:wikidata:Q806181,brand:wikipedia:en:Banco Bradesco,operator:Bradesco,website:http://www.bradesco.com.br/","lat":-29.3740422,"lng":-51.1102235},{"id":"4329305490","name":"Banrisul","tags":"addr:housenumber:390,addr:postcode:95150-000,addr:street:Rua Rui Barbosa,amenity:bank,branch:Banco do Estado do Rio Grande do Sul,brand:Banrisul,brand:wikidata:Q4857098,phone:+55 54 3281-1357,website:http://www.banrisul.com.br/","lat":-29.3759162,"lng":-51.1135382},{"id":"4354514690","name":"Morro do Vento","tags":"tourism:attraction","lat":-29.4457068,"lng":-51.1208963},{"id":"4357787389","name":"Bistrô 289","tags":"addr:housenumber:1883,addr:postcode:95150-000,addr:street:Avenida 15 de Novembro,amenity:restaurant,cuisine:sandwich;breakfast;ice_cream;local;pasta;pizza;chicken,internet_access:wlan,phone:+55 54 3281-1994,website:https://facebook.com/bistro289/","lat":-29.3735803,"lng":-51.1073573},{"id":"4370511893","name":"Correios","tags":"addr:housenumber:375,addr:postcode:95150-000,addr:street:Rua Rio Branco,amenity:post_office,brand:Correios,brand:wikidata:Q3375004,brand:wikipedia:en:Correios,operator:Correios,operator:wikidata:Q3375004,phone:+55 54 3281-2383,website:http://www.correios.com.br","lat":-29.377459,"lng":-51.1130448},{"id":"4370534991","name":"Restaurante e Hamburgueria Casa Nova","tags":"addr:housenumber:407,addr:postcode:95150-000,addr:street:Rua Rio Branco,amenity:restaurant,cuisine:burger;sandwich;noodles,opening_hours:We, Sa-Su 18:00-23:00,phone:+55 54 3281-4045,website:http://facebook.com/casanovarestaurantenp","lat":-29.3772549,"lng":-51.1133595},{"id":"4403482098","name":"Restaurante Tenda do Guri","tags":"addr:street:Rodovia Presidente Getúlio Vargas,amenity:restaurant,cuisine:steak_house;german","lat":-29.4385229,"lng":-51.1350285},{"id":"4403534489","name":"Sicredi","tags":"addr:housenumber:374,addr:postcode:95150-000,addr:street:Rua Sete de Setembro,amenity:bank,branch:Pioneira RS,brand:Sicredi,brand:wikidata:Q3483060,opening_hours:Mo-Fr 10:00-15:00,website:http://sicredipioneira.coop.br","lat":-29.3755486,"lng":-51.1126119},{"id":"4403534589","name":"Memorial Padre Theodor Amstad","tags":"addr:street:Rua Antônio Schoeler,tourism:museum","lat":-29.3600623,"lng":-51.0495885},{"id":"4567863806","name":"Farmácia Drogabel","tags":"addr:city:Nova Petrópolis,addr:housenumber:305,addr:postcode:95150-000,addr:street:Rua Frederico Michaelsen,addr:suburb:Centro,amenity:pharmacy,healthcare:pharmacy","lat":-29.375304,"lng":-51.1115674},{"id":"4691223547","name":"Brigada Militar","tags":"amenity:police","lat":-29.4680867,"lng":-51.2010992},{"id":"4725036881","name":"Cascata Passo Fundo Eck","tags":"tourism:attraction","lat":-29.4309723,"lng":-51.0192082},{"id":"4739511236","name":"Restaurante e Pizzaria Paladar","tags":"amenity:restaurant","lat":-29.3748395,"lng":-51.1102698},{"id":"4739511245","name":"Restaurante Café Kehl","tags":"amenity:restaurant","lat":-29.3765281,"lng":-51.1116321},{"id":"4745119623","name":"Restaurante Lindenhof","tags":"amenity:restaurant,cuisine:german,delivery:no,takeaway:no","lat":-29.3650258,"lng":-51.0912709},{"id":"4779765397","name":"Pista Aeromodelismo","tags":"sport:model_aerodrome,tourism:attraction","lat":-29.366857,"lng":-51.0223278},{"id":"4779765690","name":"Armazém Rosa Mosqueta","tags":"shop:beauty","lat":-29.3600378,"lng":-51.0474824},{"id":"4795533357","tags":"amenity:parking","lat":-29.4458464,"lng":-51.1213828},{"id":"4795533543","name":"Rampa Voo Livre","tags":"sport:free_flying,tourism:attraction","lat":-29.445864,"lng":-51.1206871},{"id":"4823225257","name":"Salao de Beleza ÂNGELA RAMOS","tags":"addr:housenumber:810,addr:street:Estrada Júlio de Castilhos,email:angelacidaramos@hotmail.com,internet_access:wlan,phone:+55 51 99585-6204,shop:beauty","lat":-29.4255725,"lng":-51.285534},{"id":"4985594721","name":"Osteria Di Valli","tags":"addr:housenumber:1860,addr:postcode:95150-000,addr:street:Avenida 15 de Novembro,amenity:restaurant,cuisine:pasta;italian;pizza;italian_pizza;argentinian;barbecue,email:osteriadivalli@gmail.com,opening_hours:We-Su 11:50-23:00,phone:+55 54 3281-3358,website:http://divalli.com.br","lat":-29.3736142,"lng":-51.1080062},{"id":"4988659685","name":"Jardim Mais Alto da Serra Gaúcha","tags":"tourism:attraction","lat":-29.3732502,"lng":-51.0288153},{"id":"4988659705","name":"Museu Capela Menino Jesus de Praga","tags":"tourism:museum","lat":-29.3729523,"lng":-51.0287501},{"id":"5005953925","name":"Casa de Pedra","tags":"name:en:Stone House,tourism:attraction","lat":-29.3881555,"lng":-51.0036674},{"id":"5146304632","name":"Café Colonial Encosta da Serra","tags":"amenity:cafe,cuisine:regional","lat":-29.4644879,"lng":-51.1462239},{"id":"5213326029","name":"Pórtico de Nova Petrópolis","tags":"tourism:attraction","lat":-29.3600687,"lng":-51.0741051},{"id":"5213326030","name":"Café Colonial Sabor do Campo","tags":"amenity:restaurant","lat":-29.3572592,"lng":-51.0712374},{"id":"5240952279","name":"Restaurante Colonial Kieling","tags":"amenity:restaurant","lat":-29.5221269,"lng":-51.004746},{"id":"5240952280","name":"Super Kieling","tags":"shop:supermarket","lat":-29.5221398,"lng":-51.0042766},{"id":"5242652530","name":"Pesque e Pague Sobra","tags":"leisure:sports_centre","lat":-29.4058785,"lng":-51.1043646},{"id":"5242652542","name":"Escola Municipal São Jacó","tags":"amenity:school","lat":-29.4012015,"lng":-51.098749},{"id":"5305243143","name":"Café do Lago","tags":"amenity:cafe","lat":-29.3600152,"lng":-51.0727603},{"id":"5305246367","tags":"amenity:car_wash,shop:car_repair","lat":-29.3785313,"lng":-51.1085258},{"id":"5305246375","tags":"amenity:parking","lat":-29.3761999,"lng":-51.1130923},{"id":"5309385689","name":"Restaurante Adoty Bar e Café Expresso","tags":"amenity:restaurant","lat":-29.3742024,"lng":-51.1078512},{"id":"5309393202","tags":"shop:supermarket","lat":-29.3717343,"lng":-51.1191474},{"id":"5309393203","tags":"amenity:parking","lat":-29.3704765,"lng":-51.1132532},{"id":"5309393235","name":"Park Haus","tags":"amenity:cafe","lat":-29.3717483,"lng":-51.106134},{"id":"5309393236","name":"Sabores da Serra","tags":"amenity:restaurant","lat":-29.3720744,"lng":-51.1063345},{"id":"5309393237","name":"Plátano Grill","tags":"amenity:restaurant,cuisine:german","lat":-29.3740337,"lng":-51.1073718},{"id":"5309393242","tags":"amenity:car_wash","lat":-29.3752527,"lng":-51.1085735},{"id":"5309393249","name":"Daichi (Tele-Entrega)","tags":"amenity:restaurant,cuisine:japanese,phone:+55 54 99992-8212","lat":-29.377656,"lng":-51.1133115},{"id":"5309393254","tags":"amenity:pharmacy,healthcare:pharmacy","lat":-29.3752638,"lng":-51.1123949},{"id":"5309393261","tags":"shop:convenience","lat":-29.3770483,"lng":-51.1146621},{"id":"5309393268","name":"Café da Praça","tags":"amenity:cafe","lat":-29.3765096,"lng":-51.1124888},{"id":"5309393269","name":"Cafeteria Imperatriz","tags":"amenity:cafe","lat":-29.3767918,"lng":-51.1122555},{"id":"5309393270","tags":"amenity:pharmacy,healthcare:pharmacy","lat":-29.3759837,"lng":-51.1112241},{"id":"5309393273","tags":"amenity:pharmacy,healthcare:pharmacy","lat":-29.376412,"lng":-51.110042},{"id":"5309393290","name":"Restaurante Tiro ao Alvo","tags":"amenity:restaurant,cuisine:barbecue","lat":-29.3786202,"lng":-51.1153118},{"id":"5309393309","name":"Marina","tags":"shop:supermarket","lat":-29.3753047,"lng":-51.1170231},{"id":"5309393319","tags":"leisure:fitness_centre","lat":-29.3747829,"lng":-51.1123037},{"id":"5309393320","tags":"amenity:cafe","lat":-29.3747759,"lng":-51.1125015},{"id":"5309393324","tags":"shop:supermarket","lat":-29.373679,"lng":-51.1088625},{"id":"5309393325","tags":"shop:supermarket","lat":-29.3736235,"lng":-51.1089563},{"id":"5309393326","name":"Rótula Grill - Restaurante, Churrascaria e Pizzaria","tags":"amenity:restaurant,cuisine:regional","lat":-29.3736726,"lng":-51.108149},{"id":"5309393327","name":"Café Tulipa's RestoBar","tags":"amenity:restaurant,cuisine:regional","lat":-29.3742347,"lng":-51.1093737},{"id":"5320740711","name":"Casarão","tags":"tourism:museum","lat":-29.5307943,"lng":-51.0733674},{"id":"5405970263","tags":"amenity:parking","lat":-29.524423,"lng":-51.0117839},{"id":"5405970264","tags":"amenity:parking","lat":-29.5241802,"lng":-51.0123767},{"id":"5465576341","name":"Aldeia histórica","tags":"tourism:attraction","lat":-29.3705302,"lng":-51.108764},{"id":"5502025821","name":"Café Colonial Walachay","tags":"amenity:cafe,internet_access:wlan,internet_access:fee:no,opening_hours:Sa-Su 11:30-18:00,13:30-18:30; PH open,smoking:no,takeaway:no,toilets:access:customers,website:http://www.cafewalachay.com.br/,wheelchair:limited","lat":-29.52407,"lng":-51.066798},{"id":"5615907856","name":"Estação Rodoviária de Feliz","tags":"DER:RS:categoria_rodoviaria:quarta,DER:RS:zona_de_fiscalizacao:02,addr:housenumber:648,addr:postcode:95770-000,addr:street:RS-452 - Rua Lateral,addr:suburb:Centro,amenity:bus_station,bus:yes,contact:email:hotelpousadafreiberger@hotelpousadafreiberger.com.br,contact:phone:+55 51 3637-1080;+55 51 3637-2264,network:BR:RS,official_name:Feliz,operator:Rodoviária Feliz Ltda-Me,public_transport:station,ref:vatin:BR91797308000165","lat":-29.4512953,"lng":-51.3063463},{"id":"5828116824","name":"E.M.E.F. 25 de Julho","tags":"amenity:school","lat":-29.4476203,"lng":-51.1353289},{"id":"5828119692","name":"EMEI Quatro Estações","tags":"amenity:school","lat":-29.4500295,"lng":-51.097587},{"id":"5879441758","name":"Andreazza","tags":"addr:city:Vale Real,addr:housenumber:40,addr:street:Rua Emancipação,addr:suburb:Centro,shop:supermarket","lat":-29.3968001,"lng":-51.254409},{"id":"5927183329","name":"Escola Estadual Ensino Fundamental Padre Amstad","tags":"amenity:school","lat":-29.3596417,"lng":-51.0494544},{"id":"6143816163","name":"EMEF Alfredo Spier","tags":"amenity:school","lat":-29.4625538,"lng":-51.3037315},{"id":"6154310504","name":"Restaurante Bom Mangiare","tags":"amenity:restaurant","lat":-29.3633356,"lng":-51.0951819},{"id":"6154310515","name":"Restaurante Bambuu","tags":"amenity:restaurant","lat":-29.3748232,"lng":-51.1111048},{"id":"6154339811","name":"Restaurante Piá","tags":"amenity:restaurant","lat":-29.3757172,"lng":-51.1104678},{"id":"6154407893","name":"Café Colonial Serra Verde","tags":"amenity:cafe","lat":-29.3651507,"lng":-51.097337},{"id":"6154407894","name":"Galeteria Piccolo Pollo","tags":"amenity:restaurant,cuisine:italian","lat":-29.3652407,"lng":-51.0973987},{"id":"6154407907","name":"Café Germânia","tags":"amenity:cafe","lat":-29.373076,"lng":-51.1069527},{"id":"6163906636","name":"Cláudia Emporio Gourmet","tags":"amenity:restaurant","lat":-29.3764897,"lng":-51.1129005},{"id":"6163906647","name":"Imperial Lancheria e Pizzaria","tags":"amenity:restaurant","lat":-29.3613095,"lng":-51.0800676},{"id":"6163906648","name":"Kaffeehaus Café Colonial","tags":"amenity:cafe","lat":-29.3612802,"lng":-51.079959},{"id":"6837840124","tags":"amenity:school","lat":-29.5226897,"lng":-51.1852507},{"id":"6837924352","name":"Escola Estadual de 1º Grau Guilherme Exner","tags":"amenity:school","lat":-29.5177566,"lng":-51.1790303},{"id":"6837933530","name":"Correios","tags":"amenity:post_office,brand:Correios,brand:wikidata:Q3375004,brand:wikipedia:en:Correios","lat":-29.5197031,"lng":-51.1792214},{"id":"6837933531","name":"Farmácias Associadas","tags":"amenity:pharmacy,dispensing:yes,healthcare:pharmacy","lat":-29.5197646,"lng":-51.1790869},{"id":"6837933532","name":"Sicredi","tags":"amenity:bank,brand:Sicredi,brand:wikidata:Q3483060,brand:wikipedia:pt:Sistema de Crédito Cooperativo","lat":-29.5197585,"lng":-51.1793347},{"id":"6838369450","name":"Pórtico de Picada Café","tags":"tourism:attraction","lat":-29.4542679,"lng":-51.1367448},{"id":"6839040733","name":"E.E.E.F. Maria Saturnina Ruschel","tags":"amenity:school","lat":-29.455335,"lng":-51.312071},{"id":"6839040751","name":"Colégio Estadual Professor Jacob Milton Bennemann","tags":"amenity:school","lat":-29.4513353,"lng":-51.3025645},{"id":"6852286861","name":"Gudcakes","tags":"amenity:cafe,website:https://gudcakes.com.br/","lat":-29.4530164,"lng":-51.3059132},{"id":"6896990900","name":"Supermercado Olinda","tags":"shop:supermarket","lat":-29.3861375,"lng":-51.1242302},{"id":"7108386216","name":"Garten","tags":"amenity:cafe","lat":-29.3735995,"lng":-51.108276},{"id":"7120484731","name":"Salão de Belesa Maria","tags":"shop:beauty","lat":-29.469184,"lng":-51.1521067},{"id":"7120515462","name":"Escola Estadual Décio","tags":"amenity:school","lat":-29.4676006,"lng":-51.1528163},{"id":"7120551147","tags":"amenity:childcare","lat":-29.4616406,"lng":-51.15098},{"id":"7182654688","tags":"amenity:atm,network:Banco24horas","lat":-29.3777799,"lng":-51.1132369},{"id":"7190420696","name":"Aldeia Bávara","tags":"shop:mall","lat":-29.3725693,"lng":-51.107608},{"id":"7391208638","name":"Parque do Lago","tags":"leisure:park","lat":-29.3601263,"lng":-51.0729302},{"id":"7988427163","name":"Supermercado Kunst","tags":"shop:supermarket","lat":-29.4986787,"lng":-50.9908061},{"id":"7988427164","tags":"amenity:hospital,healthcare:hospital","lat":-29.4982597,"lng":-50.9896452},{"id":"7988436162","name":"Correios","tags":"amenity:post_office,brand:Correios,brand:wikidata:Q3375004,brand:wikipedia:en:Correios","lat":-29.4978403,"lng":-50.9928337},{"id":"7988465846","name":"Colégio Estadual Cônego Affonso Scherer","tags":"amenity:school","lat":-29.4974773,"lng":-50.990714},{"id":"7988491846","name":"Supermercado Piá","tags":"shop:supermarket","lat":-29.4982171,"lng":-50.9871328},{"id":"8209791920","name":"Parque Temático Nederland ZAANDAM","tags":"tourism:attraction,website:http://www.zaandam.com.br/","lat":-29.3788825,"lng":-51.1133284},{"id":"8209791921","name":"Dia a Dia","tags":"shop:supermarket","lat":-29.3775594,"lng":-51.1150626},{"id":"8444174861","name":"Super Piá","tags":"shop:supermarket","lat":-29.4513884,"lng":-51.2933397},{"id":"8444174862","name":"Centro de Compras Escadinhas Redefort","tags":"shop:supermarket","lat":-29.4858663,"lng":-51.3139207},{"id":"9309621493","name":"Escola Municipal de Ensino Fundamental Tiradentes","tags":"amenity:school","lat":-29.4042452,"lng":-51.2646093},{"id":"9309621494","name":"EMEF Cônego Alberto Schwade","tags":"amenity:school","lat":-29.4407891,"lng":-51.2474714},{"id":"9687018614","name":"Casa Sander","tags":"tourism:attraction","lat":-29.3888567,"lng":-51.004727},{"id":"9847217066","name":"Hospital Schlatter","tags":"amenity:hospital,healthcare:hospital","lat":-29.4471355,"lng":-51.3082475},{"id":"9847304457","name":"Banrisul","tags":"amenity:bank,brand:Banrisul,brand:wikidata:Q4857098","lat":-29.4519676,"lng":-51.3046268},{"id":"9847304458","name":"Bradesco","tags":"amenity:bank,brand:Bradesco,brand:wikidata:Q806181","lat":-29.4526054,"lng":-51.3044778},{"id":"9847310731","name":"Sicredi","tags":"amenity:bank,brand:Sicredi,brand:wikidata:Q3483060","lat":-29.4511997,"lng":-51.3011486},{"id":"9847310732","name":"Banco do Brasil","tags":"amenity:bank,brand:Banco do Brasil,brand:wikidata:Q610817","lat":-29.4525566,"lng":-51.3049278},{"id":"9847310733","name":"Sicredi","tags":"amenity:bank,brand:Sicredi,brand:wikidata:Q3483060","lat":-29.4534184,"lng":-51.304724},{"id":"9847340098","name":"Caixa Econômica Federal","tags":"amenity:bank,brand:Caixa Econômica Federal,brand:wikidata:Q835283","lat":-29.4516076,"lng":-51.3082647}]