[{"id":"4438422991","name":"Banco do Brasil","tags":"amenity:bank","lat":-28.3701115,"lng":-51.6358594},{"id":"4438422992","name":"Polícia Militar","tags":"amenity:police","lat":-28.3691957,"lng":-51.6343167},{"id":"4438432989","name":"Hospital Municipal São José","tags":"amenity:hospital,healthcare:hospital,healthcare:speciality:general,opening_hours:24/7","lat":-28.3700424,"lng":-51.6366991},{"id":"4438433089","name":"Escola Estadual de Ensino Médio Antônio Stella","tags":"amenity:school","lat":-28.3731811,"lng":-51.6390504},{"id":"4438433090","name":"Banrisul","tags":"amenity:bank","lat":-28.3699983,"lng":-51.6357909},{"id":"4438433092","name":"Escola Municipal João Dal Piva","tags":"amenity:school","lat":-28.3664899,"lng":-51.6321625},{"id":"4438433190","name":"Correios","tags":"amenity:post_office","lat":-28.371364,"lng":-51.6371329},{"id":"4438433191","name":"Estação Rodoviária","tags":"amenity:bus_station","lat":-28.3708555,"lng":-51.6362798},{"id":"4438433289","name":"Sicredi","tags":"amenity:bank","lat":-28.3699067,"lng":-51.6370763},{"id":"4438433291","name":"Cresol","tags":"amenity:bank","lat":-28.3679978,"lng":-51.635944},{"id":"4438433489","name":"Coopibi","tags":"shop:supermarket","lat":-28.3684121,"lng":-51.6391461},{"id":"4438433490","name":"Migliavacca","tags":"shop:supermarket","lat":-28.3690976,"lng":-51.6352569},{"id":"4438433589","name":"Bocchi","tags":"shop:supermarket","lat":-28.3696786,"lng":-51.6356044},{"id":"4873182021","name":"Agafarma","tags":"amenity:pharmacy","lat":-28.3693648,"lng":-51.635692},{"id":"5228196682","tags":"amenity:grave_yard,denomination:catholic,religion:christian","lat":-28.3727212,"lng":-51.6394918},{"id":"5228196688","name":"Creche Municipal","tags":"amenity:childcare","lat":-28.373649,"lng":-51.6350431},{"id":"5228196689","name":"Ginásio Municipal","tags":"leisure:stadium,sport:futsal;volei","lat":-28.3659941,"lng":-51.6381845},{"id":"5310634729","name":"AIF - Associação Ibiraiaras de Futebol","tags":"leisure:sports_centre,sport:soccer","lat":-28.3281487,"lng":-51.6323338},{"id":"5872533139","tags":"amenity:pharmacy,dispensing:yes,healthcare:pharmacy","lat":-28.3691395,"lng":-51.6366688},{"id":"5872533140","name":"Factory","tags":"amenity:nightclub","lat":-28.3681388,"lng":-51.6354208},{"id":"5872533155","name":"Bocchi","tags":"shop:supermarket","lat":-28.3705098,"lng":-51.6388545},{"id":"6219768613","name":"Rango´s Bar","tags":"amenity:restaurant","lat":-28.371203,"lng":-51.6365191}]