[{"id":"939905503","name":"Luzardo Restaurante e Lancheria","tags":"addr:housenumber:1190,addr:street:Lateral BR-101,amenity:restaurant,phone:+55 51 3663-2080","lat":-29.8776932,"lng":-50.2601661},{"id":"3145621065","name":"Caixa Eletrônico - Saque e Pague (Banrisul)","tags":"addr:city:Capão da Canoa,addr:housenumber:3164,addr:postcode:95555-000,addr:street:Avenida Paraguassu,addr:suburb:Rio Grande do Sul,amenity:bank,atm:yes,phone:+55 51 3625-1727","lat":-29.7591271,"lng":-50.0185141},{"id":"3145665949","name":"Brigada Militar","tags":"addr:city:Capão da Canoa,addr:housenumber:330,addr:postcode:95555-000,addr:street:Rua Brigada Militar,addr:suburb:Rio Grande do Sul,amenity:police,phone:+55 51 3625-2822","lat":-29.7555638,"lng":-50.020505},{"id":"3256187684","name":"Rampa Nordeste (Vôo Livre)","tags":"sport:free_flying,tourism:attraction","lat":-29.8350968,"lng":-50.2558713},{"id":"3348713504","name":"Lancheria e Restaurante Dois Irmãos","tags":"addr:street:BR-101,amenity:restaurant,cuisine:regional","lat":-29.8233154,"lng":-50.2490222},{"id":"3473414779","tags":"amenity:police","lat":-29.7715029,"lng":-50.0573346},{"id":"3494256442","name":"Doces Maquiné","tags":"addr:street:BR-101 Sul,amenity:restaurant,cuisine:regional","lat":-29.8287255,"lng":-50.2480787},{"id":"3513035986","name":"Nacional","tags":"shop:mall","lat":-29.7632104,"lng":-50.0199786},{"id":"3513048485","name":"Nacional","tags":"shop:supermarket","lat":-29.7640111,"lng":-50.0202925},{"id":"3513058371","name":"Farmácia São João","tags":"addr:street:Avenida Paraguassu,amenity:pharmacy,healthcare:pharmacy","lat":-29.7622471,"lng":-50.0194519},{"id":"3513058373","name":"Rede Polo Supermercados","tags":"shop:supermarket","lat":-29.7472348,"lng":-50.0113215},{"id":"4108562476","name":"Mercado Popular","tags":"shop:supermarket","lat":-29.784781,"lng":-50.0480516},{"id":"4108562477","name":"Polícia Rodoviária Estadual","tags":"amenity:police,police:traffic_police","lat":-29.7854976,"lng":-50.0470593},{"id":"4683350645","name":"Rancho Túlio","tags":"addr:street:BR-101 Norte,amenity:restaurant","lat":-29.7651453,"lng":-50.2169337},{"id":"4683350646","name":"Rancho Túlio","tags":"addr:street:BR-101 Sul,amenity:restaurant","lat":-29.7638971,"lng":-50.2185253},{"id":"4696595023","name":"EEEM Xangri-Lá","tags":"amenity:school","lat":-29.7874255,"lng":-50.0391948},{"id":"4844390022","name":"Dia","tags":"brand:Dia,brand:wikidata:Q925132,brand:wikipedia:es:Supermercados DIA,name:en:Dia,shop:supermarket","lat":-29.7485684,"lng":-50.0192246},{"id":"4844398821","name":"Supermercado Nacional","tags":"name:en:Nacional,shop:supermarket","lat":-29.7884281,"lng":-50.033948},{"id":"4957624621","name":"Dog Boianoviski","tags":"addr:housenumber:1435,addr:postcode:95555-000,addr:street:Rua Marabá,shop:convenience","lat":-29.7550712,"lng":-50.0148982},{"id":"5300211432","tags":"leisure:park","lat":-29.7120048,"lng":-49.9920894},{"id":"5946999661","name":"Mais Saladas","tags":"addr:housenumber:1859,addr:street:Rua Guaraci,amenity:restaurant,contact:facebook:https://www.facebook.com/MaisSaladas/,diet:gluten_free:yes,diet:vegan:yes,diet:vegetarian:yes,outdoor_seating:yes,phone:+55 51 2103-4724","lat":-29.7703523,"lng":-50.019838},{"id":"5946999662","name":"WISCO","tags":"addr:housenumber:744,addr:street:Avenida Água Marinha,amenity:restaurant,contact:facebook:https://www.facebook.com/wiscorestaurantecafe/,cuisine:pizza;regional,diet:vegan:yes,diet:vegetarian:yes,email:restaurante.wisco@hotmail.com,opening_hours:Tu-Th 11:00-15:00,18:00-22:00; Fr 11:00-15:00,18:00-23:00; Sa 11:00-23:45; Su 11:00-21:45,outdoor_seating:yes,phone:+55 51 3603-1684","lat":-29.8523721,"lng":-50.0656293},{"id":"6200748157","name":"Supermercado Unisuper","tags":"shop:supermarket","lat":-29.7934026,"lng":-50.0366203},{"id":"6200748158","name":"Shopping Xangri-Lá","tags":"shop:mall","lat":-29.7950981,"lng":-50.0368293},{"id":"6200748159","name":"Supermercado Avenida","tags":"shop:supermarket","lat":-29.7975272,"lng":-50.0388568},{"id":"6201197132","name":"Escola Municipal Naydes Emerim Pereira","tags":"amenity:school","lat":-29.7762565,"lng":-50.034832},{"id":"6201240802","name":"E.M.E.F. PETRONILHA MARIA ALVES DOS SANTOS","tags":"amenity:school","lat":-29.7698939,"lng":-50.0520017},{"id":"6382375701","name":"EMEF Prof. Moacyr de Araújo Pires","tags":"amenity:school","lat":-29.7220879,"lng":-50.0029498},{"id":"6382396998","name":"Escola Infantil Marieta Ferreira Lessa","tags":"amenity:school","lat":-29.7331827,"lng":-50.0087795},{"id":"6382422420","tags":"amenity:police","lat":-29.8659158,"lng":-50.0814035},{"id":"6382422421","name":"EMEI Matheus Closs Estrelinha do Mar","tags":"amenity:school","lat":-29.8656563,"lng":-50.0809687},{"id":"6382449325","name":"EMEF Ana Maria Bauer Felicio","tags":"amenity:school","lat":-29.7478222,"lng":-50.0242829},{"id":"6382449326","tags":"amenity:school","lat":-29.7483519,"lng":-50.0246712},{"id":"6382449327","tags":"amenity:school","lat":-29.7490046,"lng":-50.0249238},{"id":"6382449332","name":"EMEI Jardelino Valdemiro Novaski (Vovô Jorde)","tags":"amenity:school","lat":-29.7576634,"lng":-50.0426093},{"id":"6500045486","name":"Belíssima AZ","tags":"addr:housenumber:2222,addr:postcode:95555-000,addr:street:Rua Sepé,internet_access:wlan,opening_hours:Mo-Sa 10:00-19:00,phone:+55 51 98565-8990,shop:beauty,website:https://m.facebook.com/BelissimaAZestetica?ref=bookmarks","lat":-29.7622863,"lng":-50.0166195},{"id":"6861840171","name":"Bali Hai","tags":"amenity:restaurant,cuisine:seafood","lat":-29.7812573,"lng":-50.0236297},{"id":"6861922566","name":"Atacado Leve Mais","tags":"shop:supermarket","lat":-29.7689441,"lng":-50.024969},{"id":"6916277890","name":"Nostro Molino","tags":"amenity:restaurant","lat":-29.8027897,"lng":-50.0413796},{"id":"7297817860","name":"EMEI Rainha do Mar","tags":"amenity:school","lat":-29.8554384,"lng":-50.0746932},{"id":"8017630096","name":"EEEM Santa Teresinha","tags":"amenity:school","lat":-29.7775298,"lng":-50.1712916},{"id":"8038553904","name":"EMEI Figueirinha","tags":"amenity:school","lat":-29.7833649,"lng":-50.0491533},{"id":"8039440115","name":"Life Day Hospital e Centro Clínico (em construção)","tags":"amenity:hospital,healthcare:hospital","lat":-29.8011542,"lng":-50.055221},{"id":"8041128566","name":"Supermercado Super Certo","tags":"shop:supermarket","lat":-29.7387376,"lng":-50.0074963},{"id":"8041128567","name":"Sauna Red's","tags":"amenity:nightclub","lat":-29.7340845,"lng":-50.006238},{"id":"8041133007","name":"Stok Center","tags":"shop:supermarket","lat":-29.7437387,"lng":-50.0306091},{"id":"8041133008","name":"Maori Beach Club","tags":"amenity:nightclub","lat":-29.7855929,"lng":-50.049848},{"id":"8041186391","name":"Unidade de Isolamento no combate ao Covid-19","tags":"addr:housenumber:111,addr:street:Rua dos Escoteiros,amenity:hospital,healthcare:hospital","lat":-29.7499619,"lng":-50.0263817},{"id":"8041193762","name":"EMEI Carrossel","tags":"amenity:school","lat":-29.7495365,"lng":-50.027086},{"id":"8041193764","name":"APAE","tags":"amenity:school","lat":-29.7497554,"lng":-50.025246},{"id":"8151618924","name":"Cantina Pastasciutta","tags":"addr:street:Avenida Central,amenity:restaurant,cuisine:italian","lat":-29.774453,"lng":-50.0414775},{"id":"8191007485","tags":"amenity:pharmacy,dispensing:yes,healthcare:pharmacy","lat":-29.868005,"lng":-50.0766338},{"id":"8191525603","tags":"amenity:bus_station,bus:yes,public_transport:station","lat":-29.869737,"lng":-50.0766703},{"id":"8191550237","name":"Burger Social Club","tags":"amenity:restaurant,cuisine:italian","lat":-29.8698908,"lng":-50.0769424},{"id":"8191550257","tags":"shop:beauty","lat":-29.8706617,"lng":-50.0771208},{"id":"8191550294","name":"Farmafacil","tags":"amenity:pharmacy,dispensing:yes,healthcare:pharmacy","lat":-29.8689531,"lng":-50.0768233},{"id":"8353433647","name":"Luzardo Restaurante e Lancheria","tags":"amenity:restaurant","lat":-29.862431,"lng":-50.2485078},{"id":"8365791503","name":"EMEF Luiz Cláudio Magnante","tags":"amenity:school","lat":-29.7378354,"lng":-50.0073238},{"id":"8365791505","name":"Supermercado Super Certo","tags":"shop:supermarket","lat":-29.7342115,"lng":-50.0051673},{"id":"8365916048","name":"Escola Municipal de Ensino Fundamental Cícero da Silva Brogni","tags":"amenity:school","lat":-29.7569802,"lng":-50.0346985},{"id":"8365916049","name":"Escola Iracema Vizzotto","tags":"amenity:school","lat":-29.7675298,"lng":-50.0320259},{"id":"9173590139","name":"Brigada Militar","tags":"amenity:police","lat":-29.8085797,"lng":-50.0402692},{"id":"9311143377","name":"Unità Farmácia","tags":"amenity:pharmacy,healthcare:pharmacy","lat":-29.7585096,"lng":-50.014521},{"id":"9345008246","name":"Supermercados Andreazza","tags":"shop:supermarket","lat":-29.7477887,"lng":-50.0125267},{"id":"9913566555","name":"Asun Noiva do Mar","tags":"shop:supermarket","lat":-29.8390564,"lng":-50.0595528},{"id":"9913566556","name":"Farmácia São João","tags":"amenity:pharmacy,brand:Farmácia São João,brand:wikidata:Q65164556,dispensing:yes,healthcare:pharmacy","lat":-29.8390282,"lng":-50.0597235},{"id":"9964869016","name":"Live Atlântida","tags":"amenity:nightclub","lat":-29.7745588,"lng":-50.041869}]