[{"id":"2466108700","name":"Hospital São Sebastião","tags":"addr:city:Turvo,addr:housenumber:1200,addr:postcode:88930-000,addr:street:Rua Nereu Ramos,addr:suburb:Centro,amenity:hospital,healthcare:hospital","lat":-28.9308669,"lng":-49.6836318},{"id":"3650788644","name":"Clube Floresta","tags":"addr:city:Meleiro,addr:postcode:88930-000,addr:street:Estrada Geral Jundiá,amenity:nightclub","lat":-28.8939523,"lng":-49.6415457},{"id":"3826402165","name":"Agência dos Correios","tags":"amenity:post_office","lat":-28.9981431,"lng":-49.7611364},{"id":"3826403457","name":"Terminal Rodoviário","tags":"amenity:bus_station,bus:yes,public_transport:station","lat":-29.0001054,"lng":-49.7616401},{"id":"3826408657","tags":"amenity:police","lat":-29.0003211,"lng":-49.7628171},{"id":"3826409904","name":"Ginásio de Esportes Pedro Ivo Campos","tags":"leisure:sports_centre","lat":-29.000603,"lng":-49.760809},{"id":"3826413362","name":"Restaurante Bar Central","tags":"addr:city:Jacinto Machado,addr:postcode:88950-000,addr:street:Rua Irmãos Trevisol,addr:suburb:Centro,amenity:restaurant,capacity:Jacinto Machado","lat":-28.9988632,"lng":-49.7632146},{"id":"3826418027","name":"Salão de Beleza Andreia","tags":"addr:city:Jacinto Machado,addr:housenumber:37,addr:postcode:88950-000,addr:street:Rua Carlos Rovaris,addr:suburb:Paraguai,opening_hours:Mo-Sa 07:00-11:30,13:00-21:00,shop:beauty","lat":-28.9941386,"lng":-49.7617947},{"id":"3826421871","name":"Rodas Pizzaria","tags":"amenity:restaurant,cuisine:pizza","lat":-28.9968048,"lng":-49.7615146},{"id":"3826440871","name":"Hospital São Roque","tags":"addr:city:Jacinto Machado,addr:postcode:88950-000,addr:street:Rua Governador Jorge Lacerda,addr:suburb:Centro,amenity:hospital,healthcare:hospital","lat":-28.9989124,"lng":-49.7597198},{"id":"3826441754","name":"Biblioteca Pública Municipal Doutor Pedro Coelho","tags":"amenity:library","lat":-28.9996655,"lng":-49.7633626},{"id":"3826442754","name":"Museu Municipal","tags":"tourism:museum","lat":-28.9996299,"lng":-49.7632247},{"id":"3826443836","name":"Estádio Albino Zanatta","tags":"leisure:stadium","lat":-29.0013896,"lng":-49.7578583},{"id":"3826443965","name":"Escola Básica Jacinto Machado","tags":"amenity:school","lat":-29.0002744,"lng":-49.7593338},{"id":"3826451122","name":"Restaurante Katutas","tags":"amenity:restaurant","lat":-28.997672,"lng":-49.760054},{"id":"3860939993","name":"Ginásio de Esportes Bairro Figueira","tags":"leisure:sports_centre","lat":-28.9952672,"lng":-49.7497992},{"id":"4568712345","name":"Mercado Katoy","tags":"addr:housenumber:710,addr:postcode:88940-000,addr:street:Rua Antônio Savi,addr:suburb:Centro,opening_hours:08:00-12:00,13:30-19:00,shop:supermarket","lat":-28.8343999,"lng":-49.8388256},{"id":"6226170670","tags":"amenity:hospital,healthcare:hospital","lat":-28.8309437,"lng":-49.845082},{"id":"6733526686","name":"Escola Municipal de Educação Básica Figueira","tags":"amenity:school","lat":-28.9960037,"lng":-49.7512007},{"id":"7625645556","name":"Hospital São Judas Tadeu","tags":"addr:city:Meleiro,addr:housenumber:120,addr:postcode:88920-000,addr:street:Rua São Judas Tadeu,addr:suburb:Centro,amenity:hospital,email:administracao@hsjtmeleiro.com.br,emergency:yes,healthcare:hospital,healthcare:speciality:general;orthopaedics;surgery;plastic_surgery,operator:Associação Comunitária São Judas Tadeu de Meleiro,operator:type:community,phone:+55 48 3537 8600","lat":-28.8301976,"lng":-49.6367997},{"id":"8481395758","name":"EEF Francisco Molgero","tags":"amenity:school","lat":-28.9263567,"lng":-49.8307847},{"id":"8482408565","name":"EEF Imaculada Conceição","tags":"amenity:school","lat":-29.0010595,"lng":-49.8530691},{"id":"8626187063","tags":"amenity:grave_yard","lat":-28.8389169,"lng":-49.6607405},{"id":"8626187064","tags":"amenity:grave_yard","lat":-28.8686244,"lng":-49.6224136},{"id":"8626214039","tags":"amenity:grave_yard","lat":-28.9248578,"lng":-49.6318503},{"id":"8626214040","tags":"amenity:grave_yard","lat":-28.9484926,"lng":-49.6393128},{"id":"8636255784","name":"Biblioteca Pública Municipal Ângelo Rovaris","tags":"amenity:library","lat":-28.9291688,"lng":-49.6778982},{"id":"8636255786","name":"Biblioteca Pública Municipal Cruz e Souza","tags":"amenity:library","lat":-28.831766,"lng":-49.631923},{"id":"8636255789","name":"Biblioteca Pública Municipal Pedro Luiz Gonzaga","tags":"amenity:library","lat":-28.830219,"lng":-49.845387},{"id":"8636255790","name":"Biblioteca Pública Municipal de Ermo","tags":"amenity:library","lat":-28.984016,"lng":-49.643049},{"id":"8637862435","name":"Centro de Eventos Professora Íria Angeloni Carlessi","tags":"leisure:sports_centre","lat":-28.9167873,"lng":-49.6903092},{"id":"8637931691","name":"Museu Histórico Lourenço Manenti","tags":"tourism:museum","lat":-28.9253854,"lng":-49.6809659},{"id":"8637946592","name":"Centro de Tradições Gaúchas Vale da Amizade","tags":"leisure:sports_centre","lat":-28.911287,"lng":-49.668001}]