[{"id":"4818254540","name":"Mercado Warmeling","tags":"shop:convenience","lat":-28.3455715,"lng":-49.2245791},{"id":"4818254541","name":"Escola Taipa","tags":"amenity:school","lat":-28.3463008,"lng":-49.2248597},{"id":"4818254545","name":"Recanto das Colinas","tags":"amenity:restaurant","lat":-28.3457766,"lng":-49.2245685},{"id":"5008480121","name":"Café Alto da Serra","tags":"amenity:cafe,name:pt:Café Alto da Serra","lat":-28.4017397,"lng":-49.5518091},{"id":"5255666222","name":"Frigorífico Bruder","tags":"amenity:bank","lat":-28.4513902,"lng":-49.3297087},{"id":"5255716521","name":"Frigorífico duas meninas","tags":"amenity:bank","lat":-28.3460654,"lng":-49.2994567},{"id":"5476592879","name":"Cânion do Funil","tags":"alt_name:Canyon do Funil,natural:canyon,tourism:attraction","lat":-28.3413622,"lng":-49.5338586},{"id":"6178144723","name":"Lider Atacadista","tags":"phone:+55 48 3886 0300,shop:supermarket","lat":-28.3671439,"lng":-49.2862195},{"id":"6204741676","name":"Lá Toscana","tags":"amenity:restaurant","lat":-28.3506377,"lng":-49.2373216},{"id":"6708107941","name":"Bar dos Amigos","tags":"amenity:bar","lat":-28.3898576,"lng":-49.3924092},{"id":"6708117511","name":"Mercado Nazário","tags":"shop:supermarket","lat":-28.3901283,"lng":-49.392215},{"id":"7800826573","name":"Pesque-Pague Becker","tags":"amenity:restaurant","lat":-28.3376187,"lng":-49.2501882},{"id":"7800848951","tags":"amenity:hospital","lat":-28.35694,"lng":-49.2884928},{"id":"8065334495","tags":"amenity:parking","lat":-28.403016,"lng":-49.5493349},{"id":"8599067197","name":"Escola Getúlio Duligão","tags":"amenity:school","lat":-28.3400701,"lng":-49.3647165},{"id":"8599068234","name":"Biblioteca Pública Municipal Jaime Mason","tags":"amenity:library","lat":-28.3572583,"lng":-49.2882165},{"id":"8599070954","name":"Escola Costa Carneiro","tags":"amenity:school","lat":-28.3556834,"lng":-49.2905888},{"id":"8599077023","name":"Escola Tito Carvalho","tags":"amenity:school","lat":-28.3682149,"lng":-49.333837},{"id":"8599079089","name":"Escola de Educação Básica Samuel Sandrini","tags":"amenity:school","lat":-28.3646639,"lng":-49.2863599},{"id":"8626236458","tags":"amenity:grave_yard","lat":-28.3647561,"lng":-49.3317844},{"id":"8626236462","tags":"amenity:grave_yard","lat":-28.3241575,"lng":-49.4469331},{"id":"8626236463","tags":"amenity:grave_yard","lat":-28.3549382,"lng":-49.4216565},{"id":"8626236466","tags":"amenity:grave_yard","lat":-28.3147978,"lng":-49.3258189},{"id":"8626236467","tags":"amenity:grave_yard","lat":-28.3081069,"lng":-49.2617279},{"id":"8626238770","tags":"amenity:grave_yard","lat":-28.4670586,"lng":-49.2407278},{"id":"8626238772","tags":"amenity:grave_yard","lat":-28.4240447,"lng":-49.445301},{"id":"8626335413","name":"Hospital Herique Lage","tags":"amenity:hospital","lat":-28.3889715,"lng":-49.3991249},{"id":"8626335414","name":"Hospital Municipal Santa Otília","tags":"amenity:hospital","lat":-28.3569471,"lng":-49.2882654},{"id":"8636225441","name":"Biblioteca Pública Municipal Joacy Manoel da Silva","tags":"amenity:library","lat":-28.394213,"lng":-49.395075},{"id":"9808420217","name":"Cânion do Funil","tags":"tourism:attraction","lat":-28.3373901,"lng":-49.533832},{"id":"9808420218","name":"Cânion do Portal","tags":"tourism:attraction","lat":-28.3117424,"lng":-49.5281465}]