[{"id":"5321800177","name":"Usimed","tags":"amenity:pharmacy,healthcare:pharmacy","lat":-28.2757886,"lng":-49.1668469},{"id":"6127087514","name":"Vencedor Café","tags":"amenity:cafe","lat":-28.2804203,"lng":-49.1482052},{"id":"6204741726","name":"Churrascaria Castelinho","tags":"amenity:restaurant","lat":-28.2826264,"lng":-49.1592318},{"id":"6373782488","tags":"amenity:place_of_worship,building:church,denomination:catholic,religion:christian","lat":-28.1997396,"lng":-49.0829015},{"id":"6373893299","name":"Capela de Santa Cecília","tags":"amenity:place_of_worship,building:church,denomination:catholic,religion:christian","lat":-28.2054765,"lng":-49.0483949},{"id":"6381685758","name":"Academia","tags":"leisure:fitness_centre","lat":-28.2753784,"lng":-49.1709188},{"id":"6537771081","name":"Delegacia de Polícia Civil de Braço do Norte","tags":"amenity:police","lat":-28.2750725,"lng":-49.1573207},{"id":"6602256812","name":"Supermercado Vencedor","tags":"shop:supermarket","lat":-28.2822107,"lng":-49.1520408},{"id":"6637146604","name":"Salto do Rio Capivara","tags":"amenity:restaurant,website:http://www.saltodoriocapivara.com.br/","lat":-28.1456199,"lng":-48.9329124},{"id":"6637146698","name":"La Vista Tirolesa","tags":"leisure:sports_centre,payment:cash:yes","lat":-28.1527834,"lng":-48.9452022},{"id":"7741804179","tags":"amenity:parking","lat":-28.2491397,"lng":-49.1586418},{"id":"7741804180","tags":"amenity:parking","lat":-28.2477504,"lng":-49.1578692},{"id":"8626231648","tags":"amenity:grave_yard","lat":-28.1335773,"lng":-49.1036774},{"id":"8626231653","tags":"amenity:grave_yard","lat":-28.1668906,"lng":-49.1261598},{"id":"8626231654","tags":"amenity:grave_yard","lat":-28.1365948,"lng":-49.0314027},{"id":"8626236469","tags":"amenity:grave_yard","lat":-28.2178676,"lng":-49.1998235},{"id":"8626242717","tags":"amenity:grave_yard","lat":-28.2335794,"lng":-49.1237916},{"id":"8626242718","tags":"amenity:grave_yard","lat":-28.1399063,"lng":-48.9615103},{"id":"8626242719","tags":"amenity:grave_yard","lat":-28.2055471,"lng":-49.048805},{"id":"8626242720","tags":"amenity:grave_yard","lat":-28.1771984,"lng":-49.001709},{"id":"8626242721","tags":"amenity:grave_yard","lat":-28.2044767,"lng":-48.9737456},{"id":"8626242722","tags":"amenity:grave_yard","lat":-28.259265,"lng":-49.0920321},{"id":"8626242730","tags":"amenity:grave_yard","lat":-28.276299,"lng":-48.9824267},{"id":"8626242731","tags":"amenity:grave_yard","lat":-28.2325435,"lng":-48.9712159},{"id":"8626242732","tags":"amenity:grave_yard","lat":-28.20758,"lng":-49.0193151},{"id":"8626390666","name":"Hospital de Caridade São Roque","tags":"amenity:hospital","lat":-28.1675839,"lng":-48.978339},{"id":"8626532046","name":"Polícia Militar Braço do Norte","tags":"amenity:police","lat":-28.2666868,"lng":-49.1601751},{"id":"8636225439","name":"Biblioteca Pública Municipal de Grão Pará","tags":"amenity:library","lat":-28.184613,"lng":-49.217484},{"id":"8636225440","name":"Biblioteca Pública Municipal de Braço do Norte","tags":"amenity:library","lat":-28.272411,"lng":-49.164173},{"id":"8636267134","name":"Biblioteca Pública Municipal Professor Sebastião Willemann","tags":"amenity:library","lat":-28.1375245,"lng":-49.109325},{"id":"9175500909","name":"Brilho Lava Car Estética Automotiva","tags":"amenity:car_wash","lat":-28.2775126,"lng":-49.1630808},{"id":"9235127631","name":"Zato","tags":"amenity:restaurant","lat":-28.1530519,"lng":-49.1258374},{"id":"9235127632","tags":"amenity:parking","lat":-28.152864,"lng":-49.1255934},{"id":"9235127633","tags":"amenity:parking","lat":-28.1531193,"lng":-49.1253069},{"id":"9235127658","tags":"amenity:hospital,healthcare:hospital","lat":-28.1346587,"lng":-49.1041259},{"id":"9235127659","tags":"amenity:school","lat":-28.133565,"lng":-49.1014371},{"id":"9405036828","tags":"amenity:parking","lat":-28.3002763,"lng":-49.1021141},{"id":"9878685242","tags":"amenity:parking","lat":-28.2495697,"lng":-49.1583628},{"id":"9878685263","tags":"amenity:parking","lat":-28.2479488,"lng":-49.1603369},{"id":"8637910886","name":"Ginásio de Esportes Francisco Eing","tags":"leisure:sports_centre,sport:multi","lat":-28.1646836,"lng":-48.9768519}]