[{"id":"2538017964","name":"Armazém Souza Mar","tags":"shop:convenience","lat":-28.342272,"lng":-48.8208422},{"id":"5357977809","name":"Rogério","tags":"amenity:restaurant","lat":-28.4246194,"lng":-48.7442403},{"id":"5357977810","tags":"amenity:restaurant","lat":-28.4216681,"lng":-48.7441567},{"id":"5419341734","name":"Restaurante Bem Brasil","tags":"amenity:restaurant,brand:Pepsi","lat":-28.3723025,"lng":-48.7593842},{"id":"6181576547","name":"Pedra do Frade","tags":"tourism:attraction","lat":-28.4228939,"lng":-48.7385058},{"id":"6181684357","name":"Museu das Conchas de Itapirubá","tags":"tourism:museum","lat":-28.3287654,"lng":-48.7102836},{"id":"6185802913","name":"Praia das Cabeçudas","tags":"tourism:attraction","lat":-28.4401973,"lng":-48.8233387},{"id":"6185852880","tags":"amenity:parking","lat":-28.3609714,"lng":-48.7958327},{"id":"8626228980","tags":"amenity:grave_yard","lat":-28.4617205,"lng":-48.8570462},{"id":"8626228981","tags":"amenity:grave_yard","lat":-28.4491407,"lng":-48.8511408},{"id":"8626603806","name":"Estação Rodoviária de Imaruí","tags":"amenity:bus_station,public_transport:station","lat":-28.345605,"lng":-48.817047},{"id":"9678764721","name":"EEB Dr. Renato Ramos da Silva","tags":"amenity:school","lat":-28.4595844,"lng":-48.7908856},{"id":"9855098637","tags":"amenity:police","lat":-28.4557909,"lng":-48.7971558},{"id":"10158296725","name":"Líder Atacadista","tags":"shop:supermarket","lat":-28.4395297,"lng":-48.8137715},{"id":"10159940626","tags":"amenity:atm","lat":-28.4230318,"lng":-48.7984047},{"id":"10159940627","tags":"amenity:restaurant","lat":-28.4232988,"lng":-48.7979377}]