[{"id":"3011977864","name":"Escuela 324","tags":"addr:city:Colonia Aurora,addr:full:Pje Victoria Villa Fátima,addr:street:Pje Victoria Villa Fátima,amenity:school,description:CUISE: 324,isced:level:1,official_name:Escuela Provincial Nº 324,operator:type:public,ref:cue:540017300","lat":-27.3440892,"lng":-54.4935494},{"id":"3011978366","name":"Escuela 562","tags":"addr:city:25 de Mayo,addr:street:Paraje 20 De Mayo,amenity:school,official_name:Escuela Provincial Nº 562,operator:type:public,ref:cue:540004500,ref:cuise:562","lat":-27.388897,"lng":-54.711217},{"id":"3011978721","name":"Escuela 841Satélite 1","tags":"addr:city:25 de Mayo,addr:full:Ruta Prov. Nº 219 - Paraje Santa Teresa Municipio: 25 de Mayo,addr:postcode:3379,addr:street:Ruta Provincial 219,amenity:school,description:CUISE: 841,isced:level:1,official_name:Escuela Provincial Nº 841 - Satélite 1,old_name:Escuela 737,operator:type:public,ref:cue:540130001","lat":-27.3909548,"lng":-54.6367559},{"id":"3011979112","name":"Escuela 85","tags":"addr:city:Colonia Aurora,addr:full:Pje Villa Armonía Km.4,alt_name:Escuela Santa Rosa de Lima,amenity:school,description:CUISE: 85 ,isced:level:1,official_name:Escuela Provincial Nº 85 Santa Rosa de Lima,operator:type:public,ref:cue:540017200","lat":-27.4147613,"lng":-54.5320161},{"id":"3021158676","name":"Escuela para Adultos 34","tags":"addr:city:25 de Mayo,addr:street:Ruta Provincial 219,amenity:school,isced:level:0;1,operator:type:public,ref:cue:540003700,ref:cuise:1436","lat":-27.353479,"lng":-54.6403076},{"id":"4193791416","name":"Escuela 841","tags":"addr:city:25 de Mayo,addr:postcode:N3379,addr:street:Ruta Provincial 219,amenity:school,isced:level:0;1,official_name:Escuela Provincial Nº 841,operator:type:public,ref:cue:540130000,ref:cuise:841","lat":-27.3533275,"lng":-54.6403365},{"id":"6099733688","name":"Escuela 671","tags":"addr:city:Colonia Aurora,addr:full:Paraje El Palmital - A 7.4 km. de Ruta Prov. Nº 222,addr:postcode:3363,addr:street:Paraje El Palmital,amenity:school,description:CUISE: 671,isced:level:0;1,official_name:Escuela Provincial Nº 671,operator:type:public,ref:cue:540017400","lat":-27.2997124,"lng":-54.4997393}]