[{"id":"3011979065","name":"Escuela 784","tags":"addr:city:El Soberbio,addr:full:Paraje Lapacho - A 4.7 km. de Ruta Prov. Nº 13,addr:postcode:N3364,alt_name:Escuela Remedios de Escalada de San Martín,amenity:school,description:CUISE: 784,isced:level:0;1,official_name:Escuela Provincial Nº 784 Remedios de Escalada de San Martín,operator:type:public,ref:cue:540009300","lat":-27.2142094,"lng":-54.2756437},{"id":"3011979128","name":"Escuela 877","tags":"addr:city:El Sobervio,addr:full:Paraje San Ignacio (A 7 Kilometros De La Ruta Costera 2),addr:street:Paraje San Ignacio,amenity:school,isced:level:1,official_name:Escuela Provincial Nº 877,operator:type:public,ref:cue:540137200","lat":-27.2122295,"lng":-54.2089541},{"id":"4214598164","name":"Escuela 940","tags":"addr:city:El Soberbio,addr:full:Ruta Prov. Nº 15 - Paraje San Ramón - Colonia Primavera,addr:postcode:3338,addr:street:Ruta Provincial 15,amenity:school,description:CUISE: 940,isced:level:0;1,official_name:Escuela Provincial Nº 940,operator:type:public,ref:cue:540186300","lat":-27.1558848,"lng":-54.1415002},{"id":"4556456861","name":"Escuela 446","tags":"addr:city:El Soberbio,addr:full:Ruta Prov. Nº 13 Km. 18 - Paraje Sargento Cabral,addr:postcode:3338,addr:street:Ruta Provincial 13,alt_name:Escuela San José de Calasanz,amenity:school,description:CUISE: 446 ,isced:level:1,official_name:Escuela Provincial Nº 446 San José de Calasanz,operator:type:public,ref:cue:540067400","lat":-27.2181075,"lng":-54.3178015},{"id":"8422487088","name":"Despensa","tags":"addr:city:El Soberbio,addr:street:Ruta Provincial 2,shop:convenience","lat":-27.2122734,"lng":-54.1624695},{"id":"8422487090","tags":"addr:city:El Soberbio,addr:street:Ruta Provincial 2,shop:convenience","lat":-27.1929337,"lng":-54.1546857},{"id":"9169503347","name":"Escuela 856 Aula Satélite 2","tags":"addr:city:El Soberbio,addr:postcode:3338,addr:street:Paraje Naranjera Alta,amenity:school,isced:level:1,official_name:Escuela Provincial N° 856 - Satélite 2 Naranjera Alta,operator:type:public,ref:cue:540134901","lat":-27.2364437,"lng":-54.147791},{"id":"9308525960","name":"Núcleo Educativo de Nivel Inicial 119","tags":"addr:city:El Soberbio,addr:street:Paraje Lapacho,amenity:school,isced:level:0,official_name:Núcleo Educativo de Nivel Inicial Nº 119 - Sede 784,operator:type:public,ref:cuise:2119","lat":-27.2141786,"lng":-54.2757594}]