[{"id":"1650323909","name":"Pórtico de Vista Gaúcha","tags":"tourism:attraction","lat":-27.2993024,"lng":-53.7019946},{"id":"2102892542","tags":"amenity:bar","lat":-27.2994902,"lng":-53.5893815},{"id":"2102892556","tags":"amenity:school","lat":-27.2985273,"lng":-53.5892205},{"id":"2102892586","tags":"shop:convenience","lat":-27.2994759,"lng":-53.5892796},{"id":"2103186291","tags":"amenity:police","lat":-27.3568925,"lng":-53.5558355},{"id":"2103186448","name":"Supermercado Cotrifred","tags":"shop:supermarket","lat":-27.3564822,"lng":-53.5523685},{"id":"2103186527","name":"Hospital Santa Terezinha","tags":"amenity:hospital,healthcare:hospital","lat":-27.3565563,"lng":-53.5566017},{"id":"2116049488","name":"Ponto de Venda de Passagens Palmitinho","tags":"DER:RS:categoria_rodoviaria:quarta,DER:RS:zona_de_fiscalizacao:17,alt_name:Rodoviária de Palmitinho,amenity:bus_station,contact:email:m.espanhol@bol.com.br,contact:phone:+55 55 3791-1195,network:BR:RS,official_name:Palmitinho,operator:Zancan & Espanhol Ltda ME,public_transport:station,ref:vatin:BR4215244000142","lat":-27.355603,"lng":-53.5548797},{"id":"3739664733","name":"Escola Municipal do Ensino Fundamental Sadi Fortes","tags":"amenity:school,phone:+55 55 3551-1310","lat":-27.3677102,"lng":-53.772492},{"id":"3739664734","name":"EEEF Tenente Portela","tags":"amenity:school","lat":-27.3680019,"lng":-53.7659706},{"id":"3739664736","name":"EMEF Airton Senna","tags":"amenity:school","lat":-27.3681127,"lng":-53.7611016},{"id":"3739664737","name":"Brigada Militar","tags":"amenity:police","lat":-27.3677728,"lng":-53.759438},{"id":"3739664741","name":"Escola Municipal Ensino Fundamental Arcelino Soares Bueno","tags":"addr:housenumber:203,addr:street:Rua Benjamin Constant,amenity:school,phone:+55 55 3551-3280","lat":-27.3731187,"lng":-53.7480652},{"id":"3746141846","name":"Banrisul","tags":"amenity:bank,brand:Banrisul,brand:wikidata:Q4857098,brand:wikipedia:en:Banrisul","lat":-27.3701857,"lng":-53.7591342},{"id":"5445765201","name":"Escola Estadual de 1º e 2º Graus José Zanatta","tags":"amenity:school","lat":-27.398962,"lng":-53.465343},{"id":"5445765203","tags":"amenity:school","lat":-27.3994004,"lng":-53.4719497},{"id":"5445765322","name":"Hospital São Roque","tags":"amenity:hospital,healthcare:hospital","lat":-27.4017117,"lng":-53.4679095},{"id":"5445765323","tags":"amenity:school","lat":-27.4010425,"lng":-53.4682792},{"id":"5445765325","tags":"amenity:police","lat":-27.4009146,"lng":-53.4691147},{"id":"5523744285","name":"Pórtico de Tenente Portela","tags":"tourism:attraction","lat":-27.3689741,"lng":-53.7747067},{"id":"5873872242","name":"Rodoviária de Tenente Portela","tags":"DER:RS:categoria_rodoviaria:terceira,DER:RS:zona_de_fiscalizacao:14,addr:housenumber:74,addr:postcode:98500-000,addr:street:Rua Tupis,addr:suburb:Centro,amenity:bus_station,bus:yes,contact:email:tportela@gmail.com,contact:phone:+55 55 3551-1590;+55 55 3551-1590,network:BR:RS,official_name:Tenente Portela,operator:Alcides Juraci Parzianello,public_transport:station,ref:vatin:BR97883151000339","lat":-27.3716619,"lng":-53.755107},{"id":"6152527236","name":"Parque da Amizade","tags":"tourism:attraction","lat":-27.2947857,"lng":-53.7333477},{"id":"6287524937","tags":"amenity:cafe","lat":-27.372544,"lng":-53.7560446},{"id":"6287524940","name":"Agafarma","tags":"amenity:pharmacy,dispensing:yes,healthcare:pharmacy","lat":-27.3722355,"lng":-53.7560249},{"id":"6287524942","name":"Associadas","tags":"amenity:pharmacy,dispensing:yes,healthcare:pharmacy","lat":-27.3719549,"lng":-53.7558483},{"id":"6287524945","name":"Vida","tags":"amenity:pharmacy,dispensing:yes,healthcare:pharmacy","lat":-27.3711306,"lng":-53.7560735},{"id":"7650726847","name":"Pórtico de Tenente Portela","tags":"tourism:attraction","lat":-27.3565982,"lng":-53.7471034},{"id":"7650727164","name":"Capelari & Cia","tags":"shop:supermarket","lat":-27.3713062,"lng":-53.7563635},{"id":"7650727166","name":"MB Farmácias","tags":"amenity:pharmacy,dispensing:yes,healthcare:pharmacy","lat":-27.3718045,"lng":-53.7565549},{"id":"7650727168","name":"Bradesco","tags":"amenity:bank,atm:yes,brand:Bradesco,brand:wikidata:Q806181,brand:wikipedia:en:Banco Bradesco","lat":-27.3718557,"lng":-53.756476},{"id":"7745636935","name":"Ponto Grill","tags":"addr:housenumber:182,amenity:restaurant,email:lurdes.beluzak@hotmail.com,opening_hours:Mo-Sa 11:00-13:30,phone:+55 55 99616-3121","lat":-27.37075,"lng":-53.757958},{"id":"7745636941","name":"Santo Antônio","tags":"amenity:pharmacy,dispensing:yes,healthcare:pharmacy","lat":-27.3697417,"lng":-53.7582711},{"id":"7818204305","name":"Popular","tags":"shop:supermarket","lat":-27.384517,"lng":-53.7502011},{"id":"7818262212","name":"Garibom","tags":"addr:housenumber:497,phone:+55 55 3551-1648,shop:supermarket","lat":-27.3746804,"lng":-53.7478621},{"id":"7818262219","name":"Escola de Educação Especial Recanto da Alegria APAE","tags":"addr:housenumber:536,amenity:school,email:apaetp@redemeganet.com.br,phone:+55 55 3551-2010","lat":-27.3722312,"lng":-53.7497496},{"id":"7818324036","name":"Safra","tags":"shop:supermarket","lat":-27.3752492,"lng":-53.7525442},{"id":"7818324047","name":"Casa Felice","tags":"addr:housenumber:65,amenity:restaurant,email:casa.felice@hotmail.com,opening_hours:Mo-Sa 07:15-19:00; Su 08:00-10:00,16:30-19:00,phone:+55 55 9646-0415","lat":-27.3700561,"lng":-53.7588335},{"id":"7818380705","name":"Freese","tags":"addr:housenumber:1349,addr:street:Rua Coroados,operator:Redefort,phone:+55 55 3551-1304,shop:supermarket","lat":-27.3677539,"lng":-53.7652738},{"id":"7818380709","name":"Moleta","tags":"shop:convenience","lat":-27.3653422,"lng":-53.7684441},{"id":"7967184831","name":"Hospital Municipal","tags":"amenity:hospital,healthcare:hospital","lat":-27.2900533,"lng":-53.7022581},{"id":"7967184832","name":"Banco do Brasil","tags":"amenity:bank,brand:Banco do Brasil,brand:wikidata:Q610817,brand:wikipedia:en:Banco do Brasil","lat":-27.2902346,"lng":-53.7024759},{"id":"7967184834","tags":"amenity:pharmacy,dispensing:yes,healthcare:pharmacy","lat":-27.2897041,"lng":-53.7025766},{"id":"7990119297","name":"Nostra Casa","tags":"amenity:restaurant","lat":-27.3710973,"lng":-53.7587219},{"id":"7990258670","name":"Magrão","tags":"amenity:restaurant","lat":-27.3607606,"lng":-53.7499184},{"id":"7990260556","name":"Mercado do Povo","tags":"shop:supermarket","lat":-27.3737555,"lng":-53.7511175},{"id":"7990277159","name":"Banco do Brasil","tags":"amenity:bank,brand:Banco do Brasil,brand:wikidata:Q610817,brand:wikipedia:en:Banco do Brasil","lat":-27.373302,"lng":-53.7558815},{"id":"7990277161","name":"Sicredi","tags":"amenity:bank,brand:Sicredi,brand:wikidata:Q3483060,brand:wikipedia:pt:Sistema de Crédito Cooperativo","lat":-27.3737513,"lng":-53.7558913},{"id":"7990322380","name":"Tarzan","tags":"amenity:restaurant,email:restaurantedotarzantp@hotmail.com,opening_hours:Tu-Su 11:30-13:30,phone:+55 55 99994-1385","lat":-27.3766168,"lng":-53.7516363},{"id":"8377015957","name":"Livraria Stein","tags":"addr:housenumber:147,addr:street:Rua Tapuias,shop:books","lat":-27.3713927,"lng":-53.7575057},{"id":"9072235288","name":"Escola Professor Nelson Picinini","tags":"amenity:school","lat":-27.2918126,"lng":-53.7041646}]