[{"id":"3764735903","name":"Farmácia Santa Inês","tags":"amenity:pharmacy,dispensing:yes,healthcare:pharmacy","lat":-26.9878151,"lng":-53.5345714},{"id":"3766502219","name":"Althernativo","tags":"amenity:restaurant,delivery:yes,outdoor_seating:yes,smoking:outside","lat":-26.9930867,"lng":-53.5343817},{"id":"3766502232","name":"Farmavida","tags":"amenity:pharmacy,dispensing:yes,drive_through:no,healthcare:pharmacy,opening_hours:sunrise-sunset","lat":-26.9893304,"lng":-53.5343053},{"id":"3819442213","name":"Mercado Francescon","tags":"addr:street:Avenida Brasília,shop:supermarket","lat":-26.9391535,"lng":-53.6196239},{"id":"4140877841","name":"Polícia Militar Rodoviária","tags":"addr:street:Avenida Gustavo Fetter,alt_name:Polícia Rodoviária Estadual;PRE,amenity:police,contact:website:http://www.pmrv.sc.gov.br/,emergency:phone:198,official_name:7ª Companhia de Polícia Militar Rodoviária,operator:Governo do Estado de Santa Catarina,operator:type:public,operator:wikidata:Q67536979,ownership:state,police:traffic_police,short_name:PMRv","lat":-26.9795409,"lng":-53.5337873},{"id":"4216699413","tags":"leisure:sports_centre","lat":-26.9202356,"lng":-53.5039253},{"id":"5026874815","name":"Pizzaria Eventos Tropical","tags":"amenity:restaurant,cuisine:pizza","lat":-26.9083274,"lng":-53.5918263},{"id":"5387482087","name":"Cooper A1","tags":"addr:street:Avenida Cerro Largo,shop:supermarket","lat":-26.9722825,"lng":-53.6397865},{"id":"5387482089","name":"Supermercado Spies","tags":"shop:supermarket","lat":-26.9706952,"lng":-53.6393573},{"id":"5729687795","name":"Mercado Jundiá","tags":"shop:supermarket","lat":-26.9874047,"lng":-53.5386225},{"id":"5729735832","name":"Bar e Mercearia Neumann","tags":"amenity:bar","lat":-26.9879036,"lng":-53.5405876},{"id":"7524734238","name":"Polícia Militar do Estado de Santa Catarina","tags":"amenity:police","lat":-26.9868912,"lng":-53.5335561},{"id":"8547238496","name":"Escola São Lourenço","tags":"amenity:school,short_name:EEB São Lourenço","lat":-27.0334155,"lng":-53.5086032},{"id":"8626275291","tags":"amenity:grave_yard","lat":-27.0004215,"lng":-53.7211558},{"id":"8626275292","tags":"amenity:grave_yard","lat":-26.9760809,"lng":-53.7099603},{"id":"8626275293","tags":"amenity:grave_yard","lat":-26.9410344,"lng":-53.6562},{"id":"8626275294","tags":"amenity:grave_yard","lat":-26.9655033,"lng":-53.6869657},{"id":"8626275295","tags":"amenity:grave_yard","lat":-27.0105254,"lng":-53.6269695},{"id":"8626275297","tags":"amenity:grave_yard","lat":-26.9975405,"lng":-53.6916727},{"id":"8626275298","tags":"amenity:grave_yard","lat":-26.9970445,"lng":-53.5843043},{"id":"8626278844","tags":"amenity:grave_yard","lat":-27.0270029,"lng":-53.6098964},{"id":"8626278854","tags":"amenity:grave_yard","lat":-27.0368307,"lng":-53.5796104},{"id":"8626278855","tags":"amenity:grave_yard","lat":-27.0521136,"lng":-53.6192826},{"id":"8626278858","tags":"amenity:grave_yard","lat":-27.0680403,"lng":-53.4945824},{"id":"8626278859","tags":"amenity:grave_yard","lat":-27.0188521,"lng":-53.4764318},{"id":"8626278860","tags":"amenity:grave_yard","lat":-27.0372098,"lng":-53.5276265},{"id":"8626278861","tags":"amenity:grave_yard","lat":-27.0146725,"lng":-53.4839447},{"id":"8626278863","tags":"amenity:grave_yard","lat":-27.0192007,"lng":-53.5435293},{"id":"8626278871","tags":"amenity:grave_yard","lat":-27.0625544,"lng":-53.7013555},{"id":"8626278873","tags":"amenity:grave_yard","lat":-27.0330645,"lng":-53.7176289},{"id":"8626278874","tags":"amenity:grave_yard","lat":-27.0349109,"lng":-53.6798832},{"id":"8626278879","tags":"amenity:grave_yard","lat":-27.055278,"lng":-53.757002},{"id":"8626278880","tags":"amenity:grave_yard","lat":-27.068619,"lng":-53.4422725},{"id":"8626278881","tags":"amenity:grave_yard","lat":-27.0060426,"lng":-53.4543776},{"id":"8626278882","tags":"amenity:grave_yard","lat":-27.0471417,"lng":-53.6533184},{"id":"8626278884","tags":"amenity:grave_yard","lat":-27.058327,"lng":-53.4806346},{"id":"8626282059","tags":"amenity:grave_yard","lat":-26.9083266,"lng":-53.4629505},{"id":"8626282063","tags":"amenity:grave_yard","lat":-26.9464431,"lng":-53.5329685},{"id":"8626282064","tags":"amenity:grave_yard","lat":-26.9523302,"lng":-53.4873337},{"id":"8626282072","tags":"amenity:grave_yard","lat":-26.9142968,"lng":-53.5731025},{"id":"8626282076","tags":"amenity:grave_yard","lat":-26.920596,"lng":-53.5054648},{"id":"8626282077","tags":"amenity:grave_yard","lat":-26.9698821,"lng":-53.475469},{"id":"8626282078","tags":"amenity:grave_yard","lat":-26.9449585,"lng":-53.5040684},{"id":"8626282080","tags":"amenity:grave_yard","lat":-26.9059994,"lng":-53.5487227},{"id":"8626282081","tags":"amenity:grave_yard","lat":-26.9235786,"lng":-53.5463705},{"id":"8636263037","name":"Biblioteca Pública Municipal Egon Berger","tags":"amenity:library","lat":-26.9696692,"lng":-53.6399205},{"id":"8636263044","name":"Biblioteca Pública Municipal Portal do Saber","tags":"amenity:library","lat":-26.938358,"lng":-53.620708},{"id":"9998445493","name":"ESCOLA MUNICIPAL MINISTRO LUIZ GALLOTTI","tags":"amenity:school","lat":-27.0507363,"lng":-53.618747},{"id":"9998495320","name":"Supermercado Acácia","tags":"shop:supermarket","lat":-26.9896166,"lng":-53.5334255},{"id":"10290127607","name":"Marlene Padaria","tags":"addr:street:SC-163,craft:bakery","lat":-27.0359611,"lng":-53.5777782},{"id":"10705160789","name":"Posto Cooper Fronteira Sul","tags":"addr:street:SC-163,amenity:fuel,brand:Ipiranga,operator:Cooperativa de Transportes de Cargas da Fronteira Sul,shop:convenience","lat":-27.0105639,"lng":-53.5360702},{"id":"10719117147","name":"Cooper A1","tags":"email:cristorei@coopera1.com.br,operator:Cooperativa A1,phone:+55-49-3637-0035,shop:supermarket,website:https://www.coopera1.com.br","lat":-27.0359812,"lng":-53.5835348},{"id":"10721971976","name":"Empório Lac Lélo","tags":"amenity:restaurant,cuisine:burger;pizza,delivery:no,phone:+55-49-99991-1012,reservation:Mo-Th 10:00-18:00; Fr 10:00-22:00; Sa 17:00-22:00; Su off,website:https://instagram.com/emporiolaclelo/","lat":-27.0542147,"lng":-53.6037487}]