[{"id":"528600766","name":"Comando Radioeléctrico - Unidad Regional V","tags":"addr:city:Puerto Iguazú,addr:postcode:3370,addr:street:Avenida Victoria Aguirre,amenity:police,contact:centrex:6024,operator:Policía de la Provincia de Misiones,phone:+54 3757 528485; +54 3757 421224","lat":-25.6107319,"lng":-54.5637022},{"id":"528607543","name":"Banco Nación","tags":"addr:city:Puerto Iguazú,addr:housenumber:436,addr:street:Avenida Victoria Aguirre,amenity:bank,atm:yes,brand:Banco Nación,brand:en:Nation Bank,brand:es:Banco Nación,brand:wikidata:Q2883376,brand:wikipedia:en:Banco de la Nación Argentina,contact:website:http://www.bna.com.ar/,name:en:Nation Bank,name:es:Banco Nación,official_name:Banco de la Nación Argentina,official_name:en:Bank of the Argentine Nation,official_name:es:Banco de la Nación Argentina,phone:+54 (03757)-42000,short_name:BNA,website:https://www.bna.com.ar/","lat":-25.600233,"lng":-54.5743379},{"id":"528608954","name":"OCA","tags":"addr:city:Puerto Iguazú,addr:street:Gustavo Eppens,amenity:post_office,brand:OCA,brand:wikidata:Q5172887,brand:wikipedia:es:Correo OCA,operator:Organización Coordinadora Argentina,operator:type:private,website:http://www.oca.com.ar/","lat":-25.5987915,"lng":-54.5744131},{"id":"528609928","name":"Macro","tags":"addr:city:Puerto Iguazú,addr:housenumber:203,addr:postcode:3370,addr:street:Bonpland,amenity:bank,atm:yes,brand:Macro,brand:wikidata:Q2335199,brand:wikipedia:en:Banco Macro","lat":-25.5970597,"lng":-54.5731368},{"id":"528687611","name":"Tío Juan","tags":"addr:city:Puerto Iguazú,addr:housenumber:1258,addr:postcode:3370,addr:street:Avenida Victoria Aguirre,phone:+54 3757 421519,shop:supermarket,website:https://www.supermercadotiojuan.com/","lat":-25.6082559,"lng":-54.5660085},{"id":"532563270","name":"Farma Util","tags":"amenity:pharmacy,healthcare:pharmacy","lat":-25.5427163,"lng":-54.5863751},{"id":"534134230","name":"Gendarmería","tags":"addr:city:Puerto Iguazú,addr:postcode:3370,addr:street:Avenida Victoria Aguirre,amenity:police","lat":-25.6037956,"lng":-54.5707268},{"id":"534134231","name":"La Liga","tags":"leisure:sports_centre","lat":-25.6070682,"lng":-54.5664106},{"id":"534157918","name":"Pago Fácil","tags":"amenity:bank,atm:yes","lat":-25.5982985,"lng":-54.5739774},{"id":"534172002","name":"Ruta 12","tags":"addr:city:Puerto Iguazú,addr:postcode:3370,addr:street:Avenida Victoria Aguirre,shop:supermarket","lat":-25.6075644,"lng":-54.5666901},{"id":"1200867105","name":"Hospital Ministro Costa Cavalcante","tags":"addr:housenumber:580,addr:postcode:85860-460,addr:street:Avenida Gramado,addr:suburb:Vila \\A\\,amenity:hospital,contact:phone:+55 45 3576-8000,emergency:yes,healthcare:speciality:general","lat":-25.497776,"lng":-54.5681313},{"id":"1234515939","name":"La Lata","tags":"addr:city:Puerto Iguazú,addr:street:Avenida Victoria Aguirre,amenity:restaurant","lat":-25.5989264,"lng":-54.5751993},{"id":"1234613244","name":"El Quincho del Tío Querido","tags":"addr:city:Puerto Iguazú,addr:housenumber:119,addr:postcode:3370,addr:street:Avenida Presidente Perón,amenity:restaurant,contact:facebook:https://www.facebook.com/quinchotioquerido/,phone:+54 3757 420151,website:http://www.eltioquerido.com.ar/","lat":-25.6060839,"lng":-54.5656491},{"id":"1234620207","name":"Fatto in Casa","tags":"amenity:restaurant","lat":-25.5961055,"lng":-54.5749702},{"id":"1234634346","name":"Casa Museo El Ángel de la Selva","tags":"addr:city:Puerto Iguazú,addr:postcode:3370,tourism:museum","lat":-25.6003543,"lng":-54.5736525},{"id":"1398624729","name":"Academia Boa Forma","tags":"addr:city:Foz do Iguaçu,addr:housenumber:1736,addr:street:Avenida Garibaldi,addr:suburb:Jardim Lancaster,leisure:fitness_centre","lat":-25.4952302,"lng":-54.5570443},{"id":"1471276262","tags":"amenity:restaurant","lat":-25.520016,"lng":-54.5626871},{"id":"1471276274","tags":"amenity:restaurant","lat":-25.5213618,"lng":-54.5629124},{"id":"1472540144","name":"El Andariego","tags":"amenity:restaurant,cuisine:steak_house","lat":-25.5981341,"lng":-54.5743865},{"id":"1473637654","name":"Vó Bertila","tags":"addr:city:Foz do Iguaçu,addr:housenumber:1116,addr:street:Rua Bartolomeu de Gusmão,addr:suburb:Centro,amenity:restaurant,cuisine:italian,phone:+55 45 3028 0170","lat":-25.5398061,"lng":-54.581654},{"id":"1473637657","name":"Colégio Cooperativa","tags":"amenity:school","lat":-25.522934,"lng":-54.5623471},{"id":"1474185889","name":"Muffato - Republica Argentina","tags":"addr:street:Avenida Republica Argentina,internet_access:wlan,opening_hours:Mo-Su 08:00-21:00,shop:supermarket","lat":-25.5369775,"lng":-54.5431045},{"id":"1474197985","name":"Centro Escola Bairro Érico Veríssimo","tags":"addr:city:Foz do Iguaçu,addr:housenumber:4375,addr:postcode:85.856-230,addr:street:Rua Jorge Sanwais,addr:suburb:Jardim São Paulo II,amenity:school","lat":-25.5418599,"lng":-54.5478607},{"id":"1480136870","name":"La Frontera","tags":"amenity:restaurant","lat":-25.5963176,"lng":-54.5748085},{"id":"1493817254","name":"Cancha del Club Nanawa","tags":"leisure:sports_centre,sport:soccer","lat":-25.5640259,"lng":-54.6023529},{"id":"1493827763","name":"Club Primero de Mayo","tags":"leisure:sports_centre","lat":-25.5574782,"lng":-54.6094608},{"id":"1493827765","name":"Club Presidente Stroessner","tags":"leisure:sports_centre,sport:soccer","lat":-25.5629178,"lng":-54.6034526},{"id":"1493827766","name":"Club Tupi Guarani","tags":"leisure:sports_centre","lat":-25.5563361,"lng":-54.6080231},{"id":"1493827767","name":"Colegio Nacional San Roque","tags":"amenity:school","lat":-25.5669246,"lng":-54.6023154},{"id":"1515916347","name":"Churrascaria Patussi Grill","tags":"amenity:restaurant","lat":-25.5162021,"lng":-54.6134857},{"id":"1516285454","name":"Farmacia Denisse","tags":"addr:city:Ciudad del Este,addr:street:Avenida Adrián Jara,amenity:pharmacy,healthcare:pharmacy","lat":-25.5107357,"lng":-54.612541},{"id":"1565168961","name":"Cooperativa Ayacape","tags":"amenity:bank","lat":-25.5621277,"lng":-54.6047059},{"id":"1565211613","tags":"amenity:hospital,emergency:yes,healthcare:hospital","lat":-25.5601435,"lng":-54.6145335},{"id":"1565469230","name":"IPS Pdte. Franco","tags":"amenity:hospital,emergency:yes,healthcare:hospital","lat":-25.5580722,"lng":-54.6017555},{"id":"1610374586","name":"Parrilla Pizza Color","tags":"addr:city:Puerto Iguazú,addr:housenumber:135,addr:postcode:3370,addr:street:Avenida Córdoba,amenity:restaurant,opening_hours:Mo-Su 12:00-00:30,phone:+54 (3757) 42-0206","lat":-25.5992521,"lng":-54.5712205},{"id":"1610374600","name":"La Rueda","tags":"addr:city:Puerto Iguazú,addr:housenumber:28,addr:postcode:3370,addr:street:Avenida Córdoba,amenity:restaurant","lat":-25.6011866,"lng":-54.5719186},{"id":"1610374605","tags":"internet_access:terminal,shop:convenience","lat":-25.5980144,"lng":-54.5691105},{"id":"1610374617","name":"Aqva","tags":"addr:city:Puerto Iguazú,addr:housenumber:105,addr:postcode:3370,addr:street:Avenida Córdoba,amenity:restaurant,opening_hours:Mo-Su 12:00-23:30,phone:+54 3757 422064; +54 3757 671939,website:https://aqvarestaurant.com/","lat":-25.599651,"lng":-54.5714138},{"id":"1652137329","name":"Escola Municipal Frederico Engel","tags":"addr:city:Foz do Iguaçu,addr:housenumber:2245,addr:postcode:85.856-482,addr:street:Avenida Ayrton Senna,addr:suburb:Jardim Copacabana,amenity:school","lat":-25.5470426,"lng":-54.5419134},{"id":"1698297545","name":"Dagú","tags":"opening_hours:Mo-Sa 07:00-22:00,phone:+54 3757 42-5881,shop:supermarket,website:https://www.facebook.com/dagusupermercado/","lat":-25.5967966,"lng":-54.5746631},{"id":"1976909657","name":"Colegio Betta","tags":"amenity:school","lat":-25.4940692,"lng":-54.5801648},{"id":"2020817650","name":"City Beer","tags":"amenity:restaurant,cuisine:regional,wheelchair:yes","lat":-25.543094,"lng":-54.581898},{"id":"2109891092","name":"Quita Penas","tags":"amenity:bar,food:yes,internet_access:wlan,outdoor_seating:yes,smoking:outside","lat":-25.596179,"lng":-54.574728},{"id":"2109947050","name":"Te Amaré Maitena","tags":"amenity:restaurant,internet_access:wlan,outdoor_seating:yes","lat":-25.5963099,"lng":-54.5750964},{"id":"2109965954","name":"Fox","tags":"addr:street:Avenida Brasil,shop:supermarket","lat":-25.5953734,"lng":-54.5743967},{"id":"2130667659","name":"Sushi Hokkai","tags":"amenity:restaurant,contact:email:contato@sushihokkai.com.br,contact:phone:+55 45 3574-6666;+55 45 99921-6917,contact:website:http://www.sushihokkai.com.br/,cuisine:japanese,opening_hours:Mo-Fr 17:30-24:00; Su 12:00-15:00, 18:00-23:00","lat":-25.5467801,"lng":-54.5821388},{"id":"2131674791","name":"Beduíno's","tags":"amenity:restaurant,cuisine:arab,phone:+55-45-30281910","lat":-25.5457608,"lng":-54.5825045},{"id":"2135413009","name":"Ruta 17","tags":"addr:city:Puerto Iguazú,addr:housenumber:696,addr:postcode:3370,addr:street:Avenida Victoria Aguirre,email:distribuciones@ruta17.com,shop:supermarket,website:http://ruta17.com/24a-Quienes-somos","lat":-25.6022772,"lng":-54.5721862},{"id":"2371355455","name":"La Toscana","tags":"addr:city:Puerto Iguazú,addr:housenumber:454,addr:postcode:3370,addr:street:Avenida Córdoba,amenity:restaurant,cuisine:italian,website:https://www.lasorgentehotel.com/en/restaurante.html","lat":-25.5944257,"lng":-54.570976},{"id":"2375074627","tags":"amenity:atm,operator:Banco 24 horas","lat":-25.5465825,"lng":-54.5781499},{"id":"2431370361","name":"Delegacia de Polícia Rodoviária Federal","tags":"amenity:police,operator:Polícia Rodoviária Federal,owner:Ministério da Justiça","lat":-25.5128298,"lng":-54.5576154},{"id":"2431380452","name":"Colégio Semeador","tags":"addr:housenumber:123,addr:postcode:85856-375,amenity:school","lat":-25.5547193,"lng":-54.5496921},{"id":"2451160351","name":"Café Angelo Resto Bar","tags":"addr:city:Puerto Iguazú,addr:housenumber:7,addr:street:Avenida Brasil,amenity:restaurant","lat":-25.598177,"lng":-54.5758942},{"id":"2451164167","name":"Bocamora","tags":"addr:city:Puerto Iguazú,addr:housenumber:20,addr:street:Avenida Costanera Eduardo Arrabal,amenity:restaurant,cuisine:regional,opening_hours:12:00-23:30,phone:+54 3757 42-0550,website:http://www.bocamora.com","lat":-25.5946173,"lng":-54.5890513},{"id":"2454919494","name":"Eos","tags":"addr:city:Puerto Iguazú,addr:housenumber:1246,addr:street:Avenida Victoria Aguirre,phone:+54 (3757) 42-4444,shop:supermarket","lat":-25.6051803,"lng":-54.568501},{"id":"2454919497","name":"EOS","tags":"addr:city:Puerto Iguazú,addr:street:Avenida República Argentina,phone:+54 (3757) 42-2333,shop:supermarket","lat":-25.6027771,"lng":-54.5737785},{"id":"2455701281","name":"Cataratas del Iguazú","tags":"addr:city:Puerto Iguazú,addr:housenumber:558,addr:street:Avenida Victoria Aguirre,amenity:pharmacy,healthcare:pharmacy,opening_hours:Mo-Su 00:00-24:00","lat":-25.6013527,"lng":-54.5731128},{"id":"2455807607","name":"Santander Río","tags":"addr:city:Puerto Iguazú,addr:housenumber:45,addr:postcode:3370,addr:street:Avenida República Argentina,amenity:bank,atm:yes,brand:Santander Río,brand:wikidata:Q3385268,brand:wikipedia:es:Banco Santander (Argentina)","lat":-25.6024513,"lng":-54.5730392},{"id":"2458567638","name":"Estación Sabores","tags":"amenity:restaurant","lat":-25.5986783,"lng":-54.5709901},{"id":"2628594103","name":"Biblioteca Municipal","tags":"amenity:library,internet_access:WiFi,internet_access:fee:no","lat":-25.5198508,"lng":-54.6123595},{"id":"2628594112","tags":"amenity:atm,operator:Sudameris Bank","lat":-25.5166141,"lng":-54.6137398},{"id":"2628694345","tags":"amenity:pharmacy,healthcare:pharmacy","lat":-25.5121114,"lng":-54.6138828},{"id":"2628694346","name":"Gran Vía","tags":"addr:city:Ciudad del Este,addr:street:Avenida Pa'i Perez,shop:supermarket","lat":-25.5127013,"lng":-54.610699},{"id":"2629926134","name":"Don Demetrio","tags":"addr:housename:Grand Crucero Iguazu Hotel,addr:street:Avenida Victoria Aguirre,amenity:restaurant,cuisine:regional","lat":-25.611657,"lng":-54.5628339},{"id":"2683311396","tags":"amenity:ferry_terminal,ferry:yes,public_transport:station","lat":-25.5921853,"lng":-54.5959273},{"id":"2891434310","name":"Cuba Libre Disco Dance Club","tags":"addr:city:Puerto Iguazú,addr:postcode:3370,addr:street:Paraguay,amenity:nightclub","lat":-25.595629,"lng":-54.5743003},{"id":"2891434311","name":"Jackie Brown Bar","tags":"addr:housenumber:180,addr:street:Avenida Brasil,amenity:bar","lat":-25.5957226,"lng":-54.5748057},{"id":"3011976854","name":"Bachillerato Orientado 23","tags":"addr:city:Puerto Iguazú,addr:full:Chacho Peñaloza Nº 150 (Entre Cristo Redentor y Félix Bogado),addr:housenumber:150,addr:postcode:N3370,addr:street:Chacho Peñaloza,amenity:school,description:CUISE: 1801 ,isced:level:2,official_name:Bachillerato Orientado Provincial Nº 23,operator:type:public,ref:cue:540065400,short_name:BOP 23","lat":-25.6130576,"lng":-54.5733749},{"id":"3011976893","name":"Bachillerato Orientado 89","tags":"addr:city:Puerto Iguazú,addr:postcode:3370,addr:street:Las Margaritas y Las Petunias,alt_name:ex Ciclo Básico 5,amenity:school,isced:level:2,official_name:Bachillerato Orientado Provincial Nº 89 (ex Ciclo Básico Nº 5),operator:type:public,ref:cue:540148900,ref:cuise:1882,short_name:BOP 89","lat":-25.6197863,"lng":-54.5894638},{"id":"3011976906","name":"Bachillerato Orientado 111","tags":"addr:city:Iguazú,addr:full:Comunidad Tekoa Fortín Mbororé,addr:postcode:3370,addr:street:Aldea Tekoa Fortín Mbororé,alt_name:ex Edificio Escuela 807,amenity:school,description:CUISE: 2595 ,isced:level:2,official_name:Bachillerato Orientado Provincial Nº 111,ref:cue:540181400,short_name:BOP 111","lat":-25.6296524,"lng":-54.5662797},{"id":"3011977437","name":"Centro de Formación Profesional 11","tags":"addr:city:Puerto Iguazú,addr:full:Av Victoria Aguirre 369,addr:housenumber:369,addr:street:Avenida Victoria Aguirre,amenity:school,description:CUISE: 2585,isced:level:2,official_name:Centro de Formación Profesional Nº 11,operator:type:public,ref:cue:540177400,short_name:CFP 11","lat":-25.6100968,"lng":-54.5641489},{"id":"3011977448","name":"Escuela 867","tags":"addr:city:Puerto Iguazú,addr:full:Reserva Selva Yryapú - Comunidad Aborigen Iryapú,addr:postcode:3370,addr:street:Comunidad Aborigen Yryapú,amenity:school,description:CUISE: 867,isced:level:0;1,official_name:Escuela Provincial Aborigen de Frontera Jornada Completa Nº 867,operator:type:public,ref:cue:540135200","lat":-25.6155642,"lng":-54.5525441},{"id":"3011977478","name":"Escuela Normal Superior 8","tags":"addr:city:Puerto Iguazú,addr:postcode:3370,addr:street:Colibrí y Las Calandrias,amenity:school,isced:level:1,2,3,official_name:Escuela Normal Superior Nº 8,operator:type:public,phone:0357-425664,ref:cue:540065700,ref:cuise:1608","lat":-25.6115402,"lng":-54.5664937},{"id":"3011977533","name":"Escuela 164","tags":"addr:city:Puerto Iguazú,addr:housenumber:710,addr:postcode:3370,addr:street:25 de Mayo,amenity:school,official_name:Escuela Provincial Nº 164,operator:type:public,ref:cue:540065800,ref:cuise:164","lat":-25.6013388,"lng":-54.5879744},{"id":"3011977562","name":"Escuela 200","tags":"addr:city:Puerto Iguazú,addr:housenumber:191,addr:postcode:3370,addr:street:San Ignacio de Loyola,alt_name:Escuela San Ignacio de Loyola,amenity:school,isced:level:1,official_name:Escuela Provincial Nº 200 San Ignacio de Loyola,operator:type:public,ref:cue:540008000,ref:cuise:200","lat":-25.6071297,"lng":-54.5793031},{"id":"3011978707","name":"Escuela 722","tags":"addr:city:Puerto Iguazú,addr:country:AR,addr:full:Apóstoles S/N casi Oberá,addr:postcode:3370,addr:street:Apóstoles,alt_name:Escuela Eduardo Horacio Arrabal,amenity:school,description:CUISE: 722,isced:level:0;1,official_name:Escuela Provincial Nº 722 Eduardo Horacio Arrabal,operator:type:public,ref:cue:540065100","lat":-25.6213399,"lng":-54.5608738},{"id":"3011978730","name":"Escuela 746","tags":"addr:city:Puerto Iguazu,addr:postcode:3370,addr:street:Las Calandrias,alt_name:Escuela Sud América,amenity:school,isced:level:1,official_name:Escuela Provincial Nº 746 Sud América,operator:type:public,ref:cue:540008600,ref:cuise:746","lat":-25.6124676,"lng":-54.566278},{"id":"3011979059","name":"Escuela 778","tags":"addr:city:Puerto Iguazú,addr:full:Avda. Antártida Argentina S/N y Las Camelias - Barrio Belén Santa Rosa,addr:postcode:3370,addr:street:Avenida Antártida Argentina,alt_name:Escuela Pablo Areguati,amenity:school,isced:level:1,official_name:Escuela Provincial Nº 778 Pablo Areguati,operator:type:public,ref:cue:540065500","lat":-25.6211298,"lng":-54.5901707},{"id":"3011979090","name":"Escuela 818","tags":"addr:city:Puerto Iguazú,addr:full:Av. Nestor Kirchner (ex Av. República Argentina) y Salto los Tres Mosqueteros- Bº Primavera,addr:postcode:3370,addr:street:Avenida Nestor Kirchner,alt_name:Escuela Cataratas del Iguazú,amenity:school,description:CUISE: 818,isced:level:0;1,official_name:Escuela Provincial Nº 818 Cataratas del Iguazú,operator:type:public,ref:cue:540123900","lat":-25.6207507,"lng":-54.576592},{"id":"3011979120","name":"Escuela 862","tags":"addr:city:Iguazú,addr:postcode:N3370,addr:street:Paraje 2000 Hectáreas,amenity:school,isced:level:1,official_name:Escuela Provincial Nº 862,operator:type:public,ref:cue:540135100","lat":-25.6568193,"lng":-54.5634533},{"id":"3011979277","name":"Escuela de Educación Técnica 4","tags":"addr:city:Puerto Iguazú,addr:housenumber:369,addr:postcode:3370,addr:street:Avenida Victoria Aguirre,alt_name:Escuela OEA,amenity:school,isced:level:2,official_name:Escuela Provincial de Educación Técnica Nº 4 OEA,operator:type:public,ref:cue:540064700,ref:cuise:4006,short_name:EPET 4","lat":-25.5982024,"lng":-54.5766883},{"id":"3011979286","name":"Escuela de Comercio 16","tags":"addr:city:Puerto Iguazú,addr:full:Chacho Peñaloza Nº 150 (Entre Cristo Redentor y Félix Bogado),addr:housenumber:150,addr:postcode:N3370,addr:street:Chacho Peñaloza,amenity:school,description:CUISE: 1761,isced:level:2,official_name:Escuela de Comercio Nº 16,operator:type:public,ref:cue:540065600","lat":-25.6129804,"lng":-54.5728829},{"id":"3011979306","name":"Escuela para Adultos 40","tags":"addr:city:Puerto Iguazú,addr:full:25 de Mayo Nº 710 (Entre Formosa y Corrientes),addr:housenumber:710,addr:street:25 de Mayo,amenity:school,isced:level:1,official_name:Escuela para Adultos Nº 40,operator:type:public,ref:cue:540128100","lat":-25.6013652,"lng":-54.5876943},{"id":"3015506133","name":"Restaurante Tirol","tags":"addr:city:Foz Do Iguazu,addr:country:BR,addr:housenumber:1033,addr:street:Rua Marechal Deodoro,amenity:restaurant,cuisine:german","lat":-25.5430298,"lng":-54.5822071},{"id":"3017258958","name":"La Strega","tags":"addr:city:Foz Do Iguazu,addr:country:BR,addr:housenumber:458,addr:street:Rua Marechal Deodoro,amenity:restaurant","lat":-25.5450172,"lng":-54.5821121},{"id":"3017258959","name":"Churrascaria do Gaucho","tags":"addr:city:Foz Do Iguazu,addr:country:BR,addr:housenumber:644,addr:street:Rua Marechal Deodoro,amenity:restaurant,operator:Churrascaria do Gaucho 644,website:https://churrascariadogaucho.com.br/","lat":-25.5456516,"lng":-54.5821697},{"id":"3021158661","name":"Escuela 875","tags":"addr:city:Puerto Iguazú,addr:postcode:N3370,addr:street:Esteban Echeverría,alt_name:Escuela Doña Mercedes Garcia de Taratuty,amenity:school,isced:level:0;1,official_name:Escuela Provincial Nº 875 Doña Mercedes Garcia de Taratuty,operator:type:public,ref:cue:540136900,ref:cuise:875","lat":-25.6291648,"lng":-54.5842362},{"id":"3102849670","name":"Mundial","tags":"amenity:pharmacy,healthcare:pharmacy","lat":-25.5585495,"lng":-54.6052283},{"id":"3111859969","name":"Destacamento de Gendarmerìa Nacional","tags":"amenity:police","lat":-25.598456,"lng":-54.570999},{"id":"3131166057","name":"Locanda","tags":"amenity:restaurant","lat":-25.5383252,"lng":-54.5889482},{"id":"3131166058","name":"Delícia's","tags":"amenity:restaurant","lat":-25.5406906,"lng":-54.5878763},{"id":"3131166059","name":"Globão","tags":"amenity:pharmacy","lat":-25.5367753,"lng":-54.5870051},{"id":"3131166065","name":"Bradesco","tags":"amenity:bank","lat":-25.5156897,"lng":-54.5854972},{"id":"3133620724","name":"Cheiro Verde","tags":"amenity:restaurant,cuisine:asian,diet:vegetarian:only","lat":-25.5375403,"lng":-54.5884742},{"id":"3133620725","name":"Centro Educacional Meu Jardim","tags":"amenity:school","lat":-25.5376904,"lng":-54.5884742},{"id":"3133621228","name":"Terra das Cataratas","tags":"amenity:parking,fee:yes,parking:multi-storey","lat":-25.505585,"lng":-54.5881737},{"id":"3133624407","name":"Preço Justo","tags":"amenity:pharmacy","lat":-25.5233161,"lng":-54.5860521},{"id":"3133624409","name":"Farmavida","tags":"amenity:pharmacy","lat":-25.5220236,"lng":-54.5859824},{"id":"3133624818","name":"Cantina Dona Maria","tags":"amenity:restaurant","lat":-25.5064057,"lng":-54.5856981},{"id":"3133624831","name":"Hokila","tags":"amenity:restaurant,cuisine:chinese","lat":-25.5379372,"lng":-54.5874496},{"id":"3133624833","name":"Farmácia Preço Justo","tags":"addr:city:Foz do Iguaçu,addr:housenumber:3705,addr:street:Avenida Juscelino Kubitschek,amenity:pharmacy,contact:phone:+55 45 3028-5077,healthcare:pharmacy","lat":-25.5149929,"lng":-54.5854757},{"id":"3133625179","name":"Drogafoz","tags":"amenity:pharmacy","lat":-25.5098528,"lng":-54.5956437},{"id":"3133625263","tags":"amenity:post_office,operator:Correios","lat":-25.5144313,"lng":-54.5853873},{"id":"3133625417","name":"Búfalo Branco","tags":"amenity:restaurant,cuisine:barbecue","lat":-25.5359478,"lng":-54.5883991},{"id":"3134313010","name":"Victoria","tags":"amenity:restaurant,cuisine:pizza","lat":-25.5477419,"lng":-54.5777298},{"id":"3134313011","tags":"amenity:car_wash","lat":-25.553401,"lng":-54.5677622},{"id":"3134316106","name":"Cantina Catedral","tags":"amenity:restaurant,contact:phone:+55 45 99126-1015","lat":-25.5467777,"lng":-54.580852},{"id":"3134316109","name":"Ouvidoria","tags":"amenity:bar","lat":-25.5494574,"lng":-54.5745029},{"id":"3134316110","name":"Bioética","tags":"amenity:pharmacy","lat":-25.5511312,"lng":-54.5719464},{"id":"3134316111","name":"Tchula","tags":"amenity:restaurant,cuisine:arab","lat":-25.5512737,"lng":-54.5717509},{"id":"3134316112","name":"Biosfarma","tags":"amenity:pharmacy,old_name:Preço Justo","lat":-25.5518571,"lng":-54.5707609},{"id":"3134316118","name":"Tavolo Churrascaria & Petiscaria","tags":"addr:city:Foz do Iguaçu,addr:housenumber:1327,addr:street:Avenida das Cataratas,amenity:restaurant,cuisine:barbecue;pizza","lat":-25.5538463,"lng":-54.5677461},{"id":"3134316121","name":"Bier Garten","tags":"amenity:restaurant","lat":-25.5472465,"lng":-54.5821798},{"id":"3134318272","name":"Água de coco","tags":"amenity:restaurant","lat":-25.5405968,"lng":-54.5870874},{"id":"3134362612","tags":"amenity:atm,operator:Banco 24 Horas","lat":-25.530858,"lng":-54.5873557},{"id":"3136114780","name":"Assim Sim","tags":"amenity:school","lat":-25.5341396,"lng":-54.5869303},{"id":"3136115176","name":"Perfect Clean","tags":"amenity:car_wash","lat":-25.5384466,"lng":-54.5759571},{"id":"3136115181","name":"Cooperfarma","tags":"amenity:pharmacy","lat":-25.5514192,"lng":-54.5722073},{"id":"3136115183","name":"Jet Chicken","tags":"amenity:restaurant","lat":-25.551594,"lng":-54.5711814},{"id":"3136115184","name":"Santander","tags":"amenity:bank,brand:Santander,brand:wikidata:Q5835668,brand:wikipedia:en:Santander Bank","lat":-25.5426292,"lng":-54.5872506},{"id":"3136115185","name":"Antonio","tags":"amenity:restaurant","lat":-25.5345706,"lng":-54.5866264},{"id":"3136115374","name":"Shawarmania - Casa da Esfiha","tags":"addr:city:Foz do Iguaçu,addr:housenumber:409,addr:street:Avenida Juscelino Kubitschek,addr:suburb:Centro,amenity:restaurant,cuisine:arabic","lat":-25.5390452,"lng":-54.5874867},{"id":"3136115375","tags":"shop:convenience","lat":-25.5381316,"lng":-54.5876405},{"id":"3136115376","name":"Farmácia Americana","tags":"amenity:pharmacy,contact:phone:+55 45 3523-4003","lat":-25.5383543,"lng":-54.5869825},{"id":"3136115377","name":"Pizza Peroni","tags":"amenity:restaurant,cuisine:pizza","lat":-25.5344128,"lng":-54.5865874},{"id":"3136115529","name":"New Wave","tags":"amenity:school,training:language","lat":-25.5365042,"lng":-54.5883333},{"id":"3136115530","name":"Casa da Esfiha Beirut","tags":"addr:city:Foz do Iguaçu,addr:housenumber:453,addr:street:Avenida Juscelino Kubitschek,amenity:restaurant,cuisine:arab","lat":-25.5386963,"lng":-54.5874761},{"id":"3136115531","tags":"shop:beauty","lat":-25.5380754,"lng":-54.5877964},{"id":"3136115534","name":"Plena Forma","tags":"leisure:sports_centre","lat":-25.5343047,"lng":-54.5870082},{"id":"3136115865","name":"Farmácia Minipreço","tags":"amenity:pharmacy","lat":-25.5517876,"lng":-54.5715361},{"id":"3136115866","name":"Restaurante China","tags":"amenity:restaurant,cuisine:chinese","lat":-25.5538436,"lng":-54.568598},{"id":"3139250114","name":"Castelo Libanês","tags":"addr:housenumber:520,addr:street:Rua Vinícius de Morais,amenity:restaurant,phone:+55 45 35261218","lat":-25.5178889,"lng":-54.5798257},{"id":"3218617092","name":"Restaurante Oriental","tags":"addr:city:Ciudad del Este,addr:street:Avenida Adrián Jara,amenity:restaurant,capacity:150,cuisine:chinese,opening_hours:10:00-21:00","lat":-25.5110442,"lng":-54.6112931},{"id":"3595285199","name":"Vô Luiz Pizzeria e Cucina","tags":"addr:city:Foz do Iguaçu,addr:housenumber:1089,addr:street:Rua Bartolomeu de Gusmão,addr:suburb:Centro,amenity:restaurant,cuisine:pizza","lat":-25.5395907,"lng":-54.5813233},{"id":"3595285201","name":"Buffet Marias","tags":"addr:city:Foz do Iguaçu,addr:housenumber:1285,addr:street:Avenida Brasil,addr:suburb:Centro,amenity:restaurant,cuisine:buffet,website:https://www.facebook.com/BuffetMariasFoz/","lat":-25.5455455,"lng":-54.5863005},{"id":"3658899355","name":"Terra","tags":"amenity:bar","lat":-25.5983143,"lng":-54.5720406},{"id":"3659255545","name":"The Living Room","tags":"amenity:bar","lat":-25.5960371,"lng":-54.5749149},{"id":"3674792889","name":"Avenida Pizza","tags":"amenity:restaurant,capacity:25,cuisine:pizza,delivery:yes,smoking:outside,takeaway:yes","lat":-25.6068466,"lng":-54.5669569},{"id":"3674792891","name":"Kiosk Clemento","tags":"shop:convenience","lat":-25.607317,"lng":-54.5669609},{"id":"3674792892","name":"Convenience Store","tags":"shop:convenience","lat":-25.6071417,"lng":-54.5671527},{"id":"3674849379","name":"Chin-Chulin Parrilla","tags":"amenity:restaurant,capacity:100,cuisine:regional;grill;empanada,smoking:no,takeaway:yes","lat":-25.6036862,"lng":-54.5714982},{"id":"3674849380","name":"Bravo","tags":"addr:city:Puerto Iguazú,addr:housenumber:1033,addr:postcode:3370,addr:street:Avenida Victoria Aguirre,amenity:pharmacy,drive_through:no,healthcare:pharmacy,phone:+54 3757 420479","lat":-25.6049817,"lng":-54.5690259},{"id":"3738236672","name":"Escuela 837","tags":"addr:city:Puerto Iguazu,addr:full:Pancho Ramírez S/N entre San Luis y Salto Rivadavia - Barrio Belén,addr:postcode:3370,addr:street:Pancho Ramírez,alt_name:Escuela Daniel Eytan,amenity:school,isced:level:0;1,official_name:Escuela Provincial Nº 837 Daniel Eytan,operator:type:public,ref:cue:540129700","lat":-25.6145644,"lng":-54.5847536},{"id":"3740797978","name":"Escuela 711","tags":"addr:city:Puerto Iguazú,addr:postcode:3370,addr:street:Claudia Galeano,amenity:school,isced:level:0;1,operator:type:public,ref:cue:540001700","lat":-25.6280179,"lng":-54.5603692},{"id":"3784073866","name":"Escuela 807","tags":"addr:city:Puerto Iguazú,addr:street:Comunidad Aborigen Fortín Mbororé,amenity:school,description:CUISE: 807 ,isced:level:1,official_name:Escuela Intercultural Bilingüe de Frontera y J. Completa N° 807,operator:type:public,ref:cue:540121500","lat":-25.6276338,"lng":-54.5692272},{"id":"3871050969","name":"Correios","tags":"addr:housenumber:1643,addr:street:Rua Santos Dumont,amenity:post_office,opening_hours:Mo-Fr 09:00-12:00,13:00-17:00","lat":-25.534946,"lng":-54.5802096},{"id":"3914644462","name":"Sub Zero","tags":"addr:city:Ciudad del Este,addr:street:Avenida Doctor José Gaspar Rodriguez de Francia,shop:convenience","lat":-25.5129115,"lng":-54.6070317},{"id":"3924692171","name":"Pizza Pop","tags":"amenity:restaurant,cuisine:pizza,delivery:yes,takeaway:yes","lat":-25.538293,"lng":-54.5829723},{"id":"3924692182","name":"Shopping Mercosul","tags":"addr:housenumber:1032,addr:street:Rua Rui Barbosa,opening_hours:Mo-Fr 07:00-23:00; Sa 07:00-21:00,shop:mall","lat":-25.5386272,"lng":-54.5824361},{"id":"3924692183","name":"Macarrão In Box","tags":"addr:city:Foz do Iguaçu,addr:housenumber:1009,addr:street:Rua Bartolomeu de Gusmão,addr:suburb:Centro,amenity:restaurant","lat":-25.539542,"lng":-54.5830852},{"id":"3924692185","name":"Fisk","tags":"amenity:school","lat":-25.5390967,"lng":-54.5806068},{"id":"3924692194","name":"Universidade da Cerveja","tags":"amenity:restaurant","lat":-25.5408698,"lng":-54.5806173},{"id":"3924692195","name":"Churrasquito","tags":"addr:housenumber:1146,addr:postcode:85851-030,addr:street:Rua Marechal Deodoro,addr:suburb:Centro,amenity:restaurant","lat":-25.541073,"lng":-54.5817626},{"id":"3924692218","name":"Fundação Cultural de Foz do Iguaçu","tags":"amenity:library","lat":-25.5473552,"lng":-54.588469},{"id":"3953624851","name":"Eos","tags":"addr:city:Puerto Iguazú,addr:postcode:3370,addr:street:Avenida Tres Fronteras,contact:facebook:https://www.facebook.com/supermercadoseos,shop:supermarket","lat":-25.5967268,"lng":-54.5814544},{"id":"3953624852","tags":"amenity:atm,network:Banelco,operator:Banco Macro,website:https://www.macro.com.ar/","lat":-25.5971062,"lng":-54.5801077},{"id":"3953624855","name":"Macrofarma Iguazú","tags":"addr:city:Puerto Iguazú,addr:postcode:3370,addr:street:Avenida Victoria Aguirre,amenity:pharmacy,contact:facebook:https://www.facebook.com/macrofarmaiguazu/,healthcare:pharmacy","lat":-25.5991559,"lng":-54.5753039},{"id":"3954349003","name":"Nino - Parrilla y Restaurante","tags":"addr:housenumber:50,addr:street:Avenida Córdoba,amenity:restaurant,opening_hours:Mo-Su 11:30-00:00,phone:+54 3757 42-0316","lat":-25.6009226,"lng":-54.5718085},{"id":"3954349004","name":"Macrofarma","tags":"addr:city:Puerto Iguazú,addr:postcode:3370,addr:street:Avenida Córdoba,amenity:pharmacy,healthcare:pharmacy","lat":-25.5983775,"lng":-54.5706459},{"id":"4057295846","tags":"amenity:bus_station,bus:yes,public_transport:station","lat":-25.6053589,"lng":-54.5688116},{"id":"4057298704","name":"Casa de las botellas","tags":"tourism:museum","lat":-25.6246129,"lng":-54.5541161},{"id":"4057298705","tags":"amenity:bus_station,bus:yes,public_transport:station","lat":-25.6119244,"lng":-54.5661635},{"id":"4057298706","tags":"amenity:bus_station,bus:yes,public_transport:station","lat":-25.6150065,"lng":-54.5674831},{"id":"4057298707","tags":"amenity:bus_station,bus:yes,public_transport:station","lat":-25.6026628,"lng":-54.5715373},{"id":"4057298709","tags":"amenity:bank","lat":-25.5115977,"lng":-54.6121488},{"id":"4057298997","tags":"amenity:bus_station,bus:yes,public_transport:station","lat":-25.6133656,"lng":-54.5657937},{"id":"4057298998","tags":"amenity:bus_station,bus:yes,public_transport:station","lat":-25.6072251,"lng":-54.5668898},{"id":"4057299479","name":"Banco Continental","tags":"amenity:bank","lat":-25.5101995,"lng":-54.6119983},{"id":"4074528346","name":"Doña Ana","tags":"addr:city:Puerto Iguazú,addr:housenumber:529,addr:street:Avenida Tres Fronteras,amenity:restaurant,description:Rotisería y venta de comidas rápidas,opening_hours:Mo-Su 9:00-16:00, 20:00-23:00,shop:food","lat":-25.5966094,"lng":-54.5849925},{"id":"4093323591","name":"Imágenes de la selva","tags":"addr:full:Ruta Nacional 12 - Km 5,description:https://www.welcomeargentina.com/puertoiguazu/museo-imagenes-selva.htmlestá ubicado en el kilometro 5 justo en el ingreso al santuario Virgen del Carmen en Iguazú,phone:+54 3757 515591,tourism:museum","lat":-25.6253481,"lng":-54.5478024},{"id":"4097660491","name":"Escuela 615","tags":"addr:city:Puerto Iguazú,addr:postcode:3370,addr:street:Aurelia Pennon,alt_name:Escuela Mariano Moreno,amenity:school,description:Es una Escuela de Frontera y Jornada Completa, siendo la primera de la localidad, alberga a mas 300 alumnos que diariamente almuerzan en la escuela.,isced:level:1,official_name:Escuela N° 615 Mariano Moreno,operator:type:public,ref:cue:540008100,ref:cuise:615","lat":-25.5963458,"lng":-54.5780125},{"id":"4102501083","name":"Bachillerato Orientado 106","tags":"addr:city:Puerto Iguazú,addr:postcode:N3370,addr:street:Esteban Echeverría,alt_name:ex Ciclo Básico 22,amenity:school,isced:level:2,official_name:Bachillerato Orientado Provincial Nº 106 (ex Ciclo Básico Nº 22),operator:type:public,ref:cue:540158600,ref:cuise:2527,short_name:BOP 106","lat":-25.6271304,"lng":-54.583532},{"id":"4138511489","name":"Escuela para Adultos 11","tags":"addr:city:Puerto Iguazú,addr:housenumber:846,addr:postcode:3370,addr:street:Avenida San Martín,amenity:school,description:CUISE: 1411 ,isced:level:0.1,official_name:Escuela para Adultos Nº 11,operator:type:public,ref:cue:540066100","lat":-25.5963348,"lng":-54.5775648},{"id":"4162207621","name":"Escuela 694","tags":"addr:city:Iguazú,addr:postcode:3370,addr:street:N. Ramón,alt_name:Escuela Eduardo Roberto Bassi,amenity:school,description:Fundada un 12 de mayo de 1986. Su actual edificio fue inaugurado en el año 2009 . Cuenta con 24 secciones de grado de nivel primario y 5 de Nivel Inicial.Concurren aproximadamente 700 alumnos,isced:level:0;1,official_name:Escuela Provincial N° 694 \\Eduardo Roberto Bassi\\,operator:Consejo Gral. de Educación,operator:type:public,ref:cue:540064900,ref:cuise:694","lat":-25.6152752,"lng":-54.5805913},{"id":"4165903633","name":"Destacamento Barrio Hermoso - Seccional Segunda - UR V","tags":"addr:city:Puerto Iguazú,addr:postcode:3370,addr:street:Claudia Galeano,amenity:police,operator:Policía de la Provincia de Misiones","lat":-25.6278485,"lng":-54.5606142},{"id":"4176988663","name":"Escuela Intercultural Bilingüe 2","tags":"addr:city:Puerto Iguazú,addr:full:Eduardo Reinoso S/N (Entre Avda. República Argentina y Avda. Libertad) - Barrio Las Leñas,addr:postcode:3370,addr:street:Eduardo Reinoso,amenity:school,description:CUISE: 8001 ,isced:level:1,official_name:Escuela Intercultural Bilingüe Nº 2,operator:type:public,ref:cue:540153600","lat":-25.6229514,"lng":-54.5737723},{"id":"4177039240","name":"Escuela Especial 27","tags":"addr:city:Puerto Iguazú,addr:postcode:3370,addr:street:Avenida Antártida Argentina,amenity:school,isced:level:0;1,official_name:Escuela Especial Nº 27,operator:type:public,ref:cue:540121400,ref:cuise:1727","lat":-25.620249,"lng":-54.5892457},{"id":"4177039274","name":"Escuela para Adultos 38","tags":"addr:city:Puerto Iguazú,addr:full:Av. Antártida Argentina S/N entre Las Camelias y Los Jazmines  Barrio Belén Santa Rosa (Anexo FF.AA),addr:postcode:3370,addr:street:Avenida Antártida Argentina,amenity:school,description:CUISE: 1441,isced:level:1,official_name:Escuela para Adultos Nº 38,operator:type:public,ref:cue:540112400","lat":-25.6212583,"lng":-54.5906319},{"id":"4189373150","name":"Correo de Paraguay","tags":"amenity:post_office,opening_hours:Mo-Fr 07:00-17:00, Sa 07:00-12:00","lat":-25.5215931,"lng":-54.6111189},{"id":"4189373151","name":"Buffet Super 6","tags":"amenity:restaurant,opening_hours:7:00 - 21:00","lat":-25.5255495,"lng":-54.6126867},{"id":"4202746891","name":"Itaú","tags":"amenity:bank","lat":-25.5418336,"lng":-54.5864083},{"id":"4202746893","name":"Cooperfarma","tags":"amenity:pharmacy","lat":-25.5405759,"lng":-54.5862464},{"id":"4202759490","name":"Droga Raia","tags":"amenity:pharmacy","lat":-25.5417585,"lng":-54.5863971},{"id":"4202766790","name":"Cooperfarma","tags":"amenity:pharmacy","lat":-25.5358941,"lng":-54.5872926},{"id":"4202789489","name":"Amarantha","tags":"amenity:bar","lat":-25.5363138,"lng":-54.5868142},{"id":"4206035789","tags":"amenity:atm","lat":-25.5419355,"lng":-54.5863195},{"id":"4218536799","name":"Saltos del Monday","tags":"alt_name:Saltos Monday,height:40,operator:Escuela Deportiva Raider Guaraní,reservation:required,tourism:attraction,waterway:waterfall,wikidata:Q880046,wikipedia:es:Saltos del Monday","lat":-25.5627515,"lng":-54.6323698},{"id":"4218536800","name":"Capicua","tags":"addr:city:Puerto Iguazú,addr:housenumber:50,addr:postcode:3370,addr:street:Avenida Misiones,shop:supermarket","lat":-25.597584,"lng":-54.5717694},{"id":"4222699339","name":"Bettu","tags":"shop:supermarket","lat":-25.5826434,"lng":-54.5392955},{"id":"4222699340","name":"Vivir más","tags":"addr:street:Rua Indianópolis,amenity:pharmacy","lat":-25.5826763,"lng":-54.5393303},{"id":"4225849089","name":"Punto y Coma","tags":"addr:city:Ciudad del Este,addr:street:Avenida Adrián Jara,shop:books","lat":-25.5110108,"lng":-54.6143216},{"id":"4231056003","name":"Correios - Agência Naipi","tags":"addr:housenumber:1318,addr:street:Avenida Brasil,amenity:post_office,opening_hours:Mo-Fr 09:00-17:00","lat":-25.5459153,"lng":-54.586682},{"id":"4236642889","name":"Correo Argentino","tags":"addr:city:Puerto Iguazú,addr:housenumber:384,addr:postcode:3370,addr:street:Avenida San Martín,amenity:post_office,brand:Correo Argentino,brand:wikidata:Q4036566,brand:wikipedia:en:Correo Argentino,check_date:opening_hours:2022-05-24,official_name:Correo Oficial de la República Argentina,opening_hours:Mo-Fr 08:00-12:30,16:00-19:00,operator:Correo Oficial de la República Argentina Sociedad Anónima,operator:type:public,wheelchair:limited","lat":-25.5962814,"lng":-54.5762992},{"id":"4241354192","name":"Ña Morocha","tags":"amenity:restaurant","lat":-25.5318609,"lng":-54.6277194},{"id":"4241381091","name":"Policia Caminera - Km 4","tags":"amenity:police","lat":-25.5074703,"lng":-54.6384985},{"id":"4241381093","name":"Wunderli","tags":"amenity:cafe","lat":-25.5127618,"lng":-54.6304672},{"id":"4241796405","name":"Jardín de los Picaflores","tags":"name:en:Hummingbird Garden,tourism:attraction","lat":-25.6001567,"lng":-54.5686094},{"id":"4242049790","name":"Regional de Ciudad del Este","tags":"amenity:hospital,healthcare:hospital","lat":-25.5332698,"lng":-54.634189},{"id":"4243209739","tags":"amenity:restaurant","lat":-25.535514,"lng":-54.6297248},{"id":"4243387394","name":"Cantinho da Brasil","tags":"amenity:restaurant","lat":-25.5356882,"lng":-54.5859225},{"id":"4329820297","name":"Boa Constrictor","tags":"tourism:attraction","lat":-25.5326386,"lng":-54.5894471},{"id":"4329919691","name":"Arara azul","tags":"name:en:Blue Macaw,tourism:attraction","lat":-25.532635,"lng":-54.5893266},{"id":"4367756850","name":"Bachillerato Orientado 117","tags":"addr:city:Puerto Iguazú,addr:full:Reserva Selva Yryapú - Comunidad Aborigen Iryapú - Funciona en Escuela Prov. Nº 867,addr:postcode:3370,addr:street:Comunidad Aborigen Yryapú,amenity:school,description:CUISE: 2599,isced:level:2,official_name:Bachillerato Orientado Provincial Nº 117,operator:type:public,ref:cue:540190900,short_name:BOP 117","lat":-25.6155381,"lng":-54.5527885},{"id":"4368073889","name":"Escuela Básica Nº 30 Dr. Moisés Santiago Bertoni","tags":"amenity:school","lat":-25.5682918,"lng":-54.6106141},{"id":"4373829790","name":"Fronteras","tags":"addr:city:Puerto Iguazú,addr:postcode:3370,addr:street:Jujuy,shop:convenience","lat":-25.5975387,"lng":-54.587892},{"id":"4373888994","name":"Despensa Elu","tags":"addr:city:Puerto Iguazú,addr:housenumber:800,addr:postcode:3370,addr:street:Primero de Mayo,opening_hours:Mo-Su 08:00-22:00,shop:convenience","lat":-25.5977407,"lng":-54.5897663},{"id":"4381766797","name":"La Dama Juana","tags":"addr:city:Puerto Iguazú,addr:housenumber:42,addr:street:Avenida Córdoba,amenity:restaurant,contact:facebook:https://www.facebook.com/ladamajuanaiguazu/,opening_hours:Mo-Su 11:30-00:00","lat":-25.6010342,"lng":-54.5718798},{"id":"4381766798","name":"Charo","tags":"addr:city:Puerto Iguazú,addr:housenumber:106,addr:postcode:3370,addr:street:Avenida Córdoba,amenity:restaurant","lat":-25.5996952,"lng":-54.5710688},{"id":"4381766799","name":"A Piacere","tags":"addr:city:Puerto Iguazú,addr:housenumber:125,addr:postcode:3370,addr:street:Avenida Córdoba,amenity:restaurant,cuisine:diner;steak_house;argentinian,email:gerencia@apiacererestaurant.com,opening_hours:Mo-Su 12:00-23:45,phone:+54 3757 424190,website:http://www.apiacererestaurant.com","lat":-25.5993839,"lng":-54.5713081},{"id":"4382093388","name":"Principal","tags":"addr:city:Puerto Iguazú,addr:housenumber:210,addr:postcode:3370,addr:street:Avenida Victoria Aguirre,amenity:pharmacy,healthcare:pharmacy,phone:+54 3757 424100","lat":-25.5994755,"lng":-54.5746829},{"id":"4387055218","name":"Romántica","tags":"amenity:restaurant","lat":-25.5943918,"lng":-54.5655115},{"id":"4397177803","name":"Zeppelin Old Bar","tags":"amenity:bar,name:pt:Zeppelin Old Bar","lat":-25.5493241,"lng":-54.5742399},{"id":"4397192495","name":"Imperador dos Camarões","tags":"addr:city:Foz do Iguaçu,addr:housenumber:1441,addr:street:Avenida Brasil,addr:suburb:Centro,amenity:restaurant","lat":-25.5471296,"lng":-54.5864096},{"id":"4397231868","name":"Escuela de Educación Técnica 51","tags":"addr:city:Puerto Iguazú,addr:postcode:3370,addr:street:Paraje 2000 Hectáreas,amenity:school,isced:level:2,official_name:Escuela Provincial de Educación Técnica Nº 51,operator:type:public,ref:cue:540188300,short_name:EPET 51","lat":-25.6564911,"lng":-54.5636594},{"id":"4400505690","name":"Fundación Tesai","tags":"amenity:hospital,healthcare:hospital,name:es:Fundación Tesai","lat":-25.5261428,"lng":-54.610763},{"id":"4404104642","name":"Sudacas Bar","tags":"addr:housenumber:1106,addr:street:Avenida República Argentina,amenity:bar,description:O ponto de encontro dos amantes da cultura Sul-Americana no centro de Foz de Iguaçu.,opening_hours:We-Fr 20:00-02:00; Sa 21:00-04:00,phone:+554530273994,website:https://m.facebook.com/Sudacas-Bar-800002543410382/","lat":-25.5343486,"lng":-54.5830998},{"id":"4421212954","name":"Comisaría Seccional Primera de Puerto Iguazú - UR V","tags":"addr:city:Puerto Iguazú,addr:postcode:3370,addr:street:Avenida Victoria Aguirre,amenity:police,contact:centrex:6016,operator:Policía de la Provincia de Misiones,phone:+54 3757 528620","lat":-25.5967953,"lng":-54.5765524},{"id":"4421212959","name":"Unidad Regional V","tags":"addr:city:Puerto Iguazú,addr:postcode:3370,addr:street:Avenida Victoria Aguirre,amenity:police,contact:centrex:5060;6041,email:sec.unidadregional5@policiamisiones.gob.ar,email_1:unidadregional5@policiamisiones.gob.ar,operator:Policía de la Provincia de Misiones,phone:+54 3757 421114","lat":-25.5971521,"lng":-54.5766395},{"id":"4421217967","name":"Comisaría Seccional Segunda de Puerto Iguazú - UR V","tags":"addr:city:Puerto Iguazú,addr:postcode:3370,addr:street:Avenida República Argentina,amenity:police,contact:centrex:6013,operator:Policía de la Provincia de Misiones,phone:+54 3757 528755; +54 3757 421213; +54 3757 462360","lat":-25.6116641,"lng":-54.5774753},{"id":"4421730091","name":"IceBar Iguazú","tags":"addr:housename:Km 5,addr:street:Ruta Nacional 12,amenity:bar,email:reservas@icebariguazu.com,phone:+54 3757 494047,website:http://www.icebariguazu.com","lat":-25.6223841,"lng":-54.5510363},{"id":"4424509850","name":"Hospital S.A.M.I.C. \"Doctora. Marta Schwartz\"","tags":"addr:housenumber:142,addr:street:Avenida Victoria Aguirre,ambulance:5,amenity:hospital,emergency:yes,healthcare:hospital,phone:+54 3757 420626,ref:ZonaSanitaria:Norte Paraná,ref:cuie_codigo:N03169,ref:nivel:III,ref:sisa_codigo:10540632164444","lat":-25.601183,"lng":-54.5736932},{"id":"4429990907","name":"Casa da Picanha Mocellin","tags":"addr:city:Foz do Iguaçu,addr:housenumber:1142,addr:street:Avenida Garibaldi,addr:suburb:Jardim Lancaster II,amenity:restaurant","lat":-25.5005859,"lng":-54.5566437},{"id":"4439744191","name":"Bar do Sebastião","tags":"amenity:bar,cuisine:argentinian","lat":-25.5945912,"lng":-54.57383},{"id":"4439780793","name":"Fabrica","tags":"tourism:attraction","lat":-25.5945623,"lng":-54.5739683},{"id":"4441158891","name":"Gran Parilla Restaurant Charro","tags":"amenity:restaurant,cuisine:argentinian;pizza;seafood;grill","lat":-25.5997296,"lng":-54.5710875},{"id":"4441599590","name":"Tatu Carreta","tags":"addr:city:Puerto Iguazú,addr:housenumber:773,addr:postcode:3370,addr:street:Avenida Victoria Aguirre,amenity:restaurant,cuisine:argentinian;grill;pasta;seafood,opening_hours:Mo-Su 11:00-23:00,phone:3757423214","lat":-25.6024534,"lng":-54.5715505},{"id":"4441599791","name":"Barraca da Sonia","tags":"amenity:bar,cuisine:argentinian;deli","lat":-25.594569,"lng":-54.5743104},{"id":"4442895100","name":"O Salame Maluco","tags":"name:en:O Salame Maluco,name:es:O Salame Maluco,shop:convenience","lat":-25.5976126,"lng":-54.5752507},{"id":"4443776789","name":"Local 30","tags":"amenity:cafe,cuisine:tea;burger;sausage;sandwich;breakfast;coffee_shop","lat":-25.5986037,"lng":-54.5714302},{"id":"4495766989","name":"Chinchulin","tags":"addr:city:Puerto Iguazú,addr:postcode:3370,addr:street:Avenida Victoria Aguirre,amenity:restaurant","lat":-25.6050515,"lng":-54.5689112},{"id":"4500262132","name":"Escuela 947","tags":"addr:city:Puerto Iguazú,addr:postcode:3370,addr:street:Estanislao del Campo,amenity:school,isced:level:1,official_name:Escuela Provincial Nº 947,operator:type:public,ref:cue:540191100,ref:cuise:947","lat":-25.6329078,"lng":-54.5843663},{"id":"4526129989","name":"San Expedito","tags":"addr:city:Puerto Iguazú,shop:convenience","lat":-25.6211859,"lng":-54.5821277},{"id":"4526130389","name":"22 de Octubre","tags":"addr:city:Puerto Iguazú,addr:street:Mendoza,shop:convenience","lat":-25.6174389,"lng":-54.5858058},{"id":"4526133891","name":"El Polaco","tags":"addr:street:Avenida de los Trabajadores,amenity:restaurant,cuisine:regional;meat","lat":-25.6183199,"lng":-54.5726723},{"id":"4526135089","name":"Sol","tags":"addr:city:Puerto Iguazú,addr:housenumber:138,addr:street:Martín Miguel de Güemes,shop:convenience","lat":-25.6141819,"lng":-54.5805903},{"id":"4526207189","name":"Guadalupe","tags":"addr:city:Puerto Iguazú,shop:convenience","lat":-25.6371198,"lng":-54.5786926},{"id":"4526216389","name":"Lety","tags":"addr:city:Puerto Iguazú,addr:street:Paseo Panambí,shop:convenience","lat":-25.623993,"lng":-54.5791479},{"id":"4526254290","name":"Jost","tags":"addr:city:Puerto Iguazú,addr:street:Estanislao del Campo,shop:convenience","lat":-25.6301435,"lng":-54.5832345},{"id":"4534603409","name":"Colegio Redentor","tags":"amenity:school","lat":-25.5155391,"lng":-54.6237697},{"id":"4534639131","name":"Millenium","tags":"addr:city:Ciudad del este,leisure:fitness_centre,opening_hours:09:00-22:00","lat":-25.5151759,"lng":-54.6098188},{"id":"4534655431","name":"Colegio Inmaculada Concpecion","tags":"amenity:school","lat":-25.519603,"lng":-54.6149143},{"id":"4534671893","name":"Empanadas Santa Fe","tags":"amenity:restaurant","lat":-25.516442,"lng":-54.6230911},{"id":"4534708577","name":"El Lector","tags":"shop:books","lat":-25.5176644,"lng":-54.6236171},{"id":"4534737602","name":"La Rotonda","tags":"addr:city:Ciudad del este,amenity:restaurant,delivery:yes,smoking:outside,takeaway:yes","lat":-25.5116666,"lng":-54.6100801},{"id":"4534795120","name":"Colegio Profesor Luis María Argaña","tags":"amenity:school","lat":-25.4886083,"lng":-54.6359628},{"id":"4539359434","name":"Colegio del Sol","tags":"amenity:school","lat":-25.5243754,"lng":-54.6239448},{"id":"4539390830","name":"Mitai","tags":"amenity:restaurant","lat":-25.5214965,"lng":-54.6171319},{"id":"4539397725","name":"Colegio Bautista","tags":"amenity:school","lat":-25.5208475,"lng":-54.6147805},{"id":"4539462516","name":"Flipper","tags":"leisure:sports_centre,sport:swimming","lat":-25.5354013,"lng":-54.6324396},{"id":"4539504757","tags":"shop:supermarket","lat":-25.5166658,"lng":-54.6428451},{"id":"4539518068","name":"Deleite","tags":"amenity:restaurant","lat":-25.5241753,"lng":-54.6231562},{"id":"4539567053","name":"Vitalmed","tags":"amenity:pharmacy,drive_through:yes,healthcare:pharmacy","lat":-25.5317626,"lng":-54.6271556},{"id":"4539593452","name":"Pettit Cafe","tags":"amenity:bar,description:Exclusivo para fumar Arguile, tomar tragos, etc,smoking:dedicated","lat":-25.5254247,"lng":-54.6232451},{"id":"4539600411","name":"Quiero Fruta","tags":"addr:city:ciudad del este,amenity:cafe,description:Lugar perfecto para disfrutar de ensaladas de frutas, Açai, jugos, helados, etc","lat":-25.5245099,"lng":-54.6256483},{"id":"4539600930","name":"D' la negra","tags":"amenity:cafe,internet_access:wlan","lat":-25.5180181,"lng":-54.6237315},{"id":"4539719032","name":"Bonanza","tags":"addr:city:Ciudad del Este,addr:street:Avenida Adrián Jara,amenity:bank","lat":-25.5110072,"lng":-54.6122741},{"id":"4539719044","name":"La Familia","tags":"opening_hours:07:00-21:00,shop:supermarket","lat":-25.5151494,"lng":-54.6096078},{"id":"4539719064","name":"Moneda","tags":"addr:city:Ciudad del Este,addr:street:Avenida Adrián Jara,amenity:bank","lat":-25.5110117,"lng":-54.614419},{"id":"4539719077","name":"Banco Itapua","tags":"amenity:bank","lat":-25.5124466,"lng":-54.6103966},{"id":"4539719078","name":"Mister Burguer","tags":"addr:city:Ciudad del Este,addr:street:Avenida Adrián Jara,amenity:restaurant","lat":-25.510784,"lng":-54.6107193},{"id":"4539719084","name":"Selia Restaurante","tags":"amenity:restaurant","lat":-25.5111258,"lng":-54.6093151},{"id":"4539719088","name":"Vision Banco","tags":"amenity:bank","lat":-25.5114752,"lng":-54.6119281},{"id":"4539719389","name":"Restaurante Sakura","tags":"amenity:restaurant","lat":-25.5112593,"lng":-54.6112118},{"id":"4539738559","name":"Club Social Área 4","tags":"leisure:sports_centre","lat":-25.5369699,"lng":-54.6297299},{"id":"4540009980","name":"Casa China","tags":"addr:city:Ciudad del Este,addr:street:Coronel Toledo,shop:mall","lat":-25.5089672,"lng":-54.6101426},{"id":"4540009982","name":"Charme Perfumes","tags":"shop:mall","lat":-25.5098556,"lng":-54.6099086},{"id":"4540009988","name":"Solar Ahorro y Finanzas","tags":"amenity:bank","lat":-25.5123657,"lng":-54.6119291},{"id":"4540010989","name":"Bovolo","tags":"amenity:restaurant","lat":-25.5122006,"lng":-54.6121356},{"id":"4540010990","name":"Gugu's Bar Taiwanese Cuisine","tags":"amenity:restaurant","lat":-25.5118466,"lng":-54.6121496},{"id":"4540180298","name":"Dinamica","tags":"amenity:school","lat":-25.5134411,"lng":-54.6139031},{"id":"4540187724","name":"6548 (449) Jardin De La Paz","tags":"amenity:school","lat":-25.5052025,"lng":-54.6351606},{"id":"4541080132","name":"A.P.A.M.A.P","tags":"amenity:school","lat":-25.5277012,"lng":-54.635988},{"id":"4541080133","name":"Prviado Del Este","tags":"amenity:school","lat":-25.5082981,"lng":-54.6145419},{"id":"4541080135","name":"10-85","tags":"amenity:school","lat":-25.5221864,"lng":-54.6172017},{"id":"4541080136","name":"5974 Despertar","tags":"amenity:school","lat":-25.5176982,"lng":-54.6398891},{"id":"4541080138","name":"6209 Niño Salvador","tags":"amenity:school","lat":-25.5244833,"lng":-54.6297094},{"id":"4541080144","name":"14941 Baustista Del Alto Parana","tags":"amenity:school","lat":-25.5206158,"lng":-54.6155317},{"id":"4541080146","name":"6277 Centro Educativo Internacional","tags":"amenity:school","lat":-25.5216328,"lng":-54.6170136},{"id":"4541080152","name":"C.E. Y Rehabilitacion","tags":"amenity:school","lat":-25.5180381,"lng":-54.6162989},{"id":"4541080153","name":"4036 Santo Domingo","tags":"amenity:school","lat":-25.5263303,"lng":-54.6412519},{"id":"4541080157","name":"7502 Manuel Ortiz Guerrero","tags":"amenity:school","lat":-25.5356904,"lng":-54.6027866},{"id":"4541080159","name":"Marta","tags":"amenity:school","lat":-25.5249325,"lng":-54.6407619},{"id":"4541080160","name":"1632","tags":"amenity:school","lat":-25.5161561,"lng":-54.6360597},{"id":"4541108837","name":"5407 (13565) Centro Educacional Cristiano","tags":"amenity:school","lat":-25.5185561,"lng":-54.6298756},{"id":"4541108838","name":"Dany","tags":"amenity:school","lat":-25.5277997,"lng":-54.6182744},{"id":"4541108840","name":"5425 (15213) El Redentor","tags":"amenity:school","lat":-25.5170853,"lng":-54.6121103},{"id":"4541119793","name":"Rajuce","tags":"amenity:school","lat":-25.5096878,"lng":-54.6368033},{"id":"4541143196","name":"Atanasio Riera","tags":"amenity:school","lat":-25.5165908,"lng":-54.6361481},{"id":"4541143204","name":"Espiritu Santo","tags":"amenity:school","lat":-25.5362453,"lng":-54.6297926},{"id":"4541143205","name":"Instituto Antonio Provolo","tags":"amenity:school","lat":-25.5263291,"lng":-54.6368306},{"id":"4541143207","name":"Luis Urunga Gonzalez","tags":"amenity:school","lat":-25.5243144,"lng":-54.6427336},{"id":"4541143213","name":"San Antonio - km 4 1/2","tags":"amenity:school","lat":-25.5083269,"lng":-54.6436625},{"id":"4541165312","name":"Colegio Gimnasio Del Saber","tags":"amenity:school","lat":-25.5199366,"lng":-54.6147298},{"id":"4541180587","name":"San Agustin","tags":"amenity:school","lat":-25.5048214,"lng":-54.6133178},{"id":"4541180989","name":"Colegio San Rafael","tags":"amenity:school","lat":-25.5047139,"lng":-54.6100478},{"id":"4541180990","name":"Santa Teresa de Jesus","tags":"amenity:school","lat":-25.5022883,"lng":-54.6124031},{"id":"4541213414","name":"Centro Internacional de Educación Santa Teresa","tags":"amenity:school","lat":-25.530655,"lng":-54.6090564},{"id":"4541213415","name":"General Bernandino Caballero","tags":"amenity:school","lat":-25.5368078,"lng":-54.6111031},{"id":"4541213416","name":"I.P.I Informatica","tags":"amenity:school","lat":-25.5323291,"lng":-54.61054},{"id":"4541213417","name":"Jardin de la Alegria","tags":"amenity:school","lat":-25.5386194,"lng":-54.6109575},{"id":"4541213418","name":"Manuel Ortiz Guerrero","tags":"amenity:school","lat":-25.5356875,"lng":-54.6027589},{"id":"4541213420","name":"Niño Feliz","tags":"amenity:school","lat":-25.5338722,"lng":-54.59993},{"id":"4541213421","name":"San Antonio de Padua","tags":"amenity:school","lat":-25.5392861,"lng":-54.6053533},{"id":"4541213422","name":"San Fernando","tags":"amenity:school","lat":-25.5330672,"lng":-54.6009308},{"id":"4541213423","name":"San Miguel Arcangel","tags":"amenity:school","lat":-25.534635,"lng":-54.6013175},{"id":"4541213424","name":"Santa Elena","tags":"amenity:school","lat":-25.5358219,"lng":-54.6054619},{"id":"4541213425","name":"Santa Lucia","tags":"amenity:school","lat":-25.5357661,"lng":-54.6031553},{"id":"4541213426","name":"Virgen de Lujan","tags":"amenity:school","lat":-25.5397456,"lng":-54.6108258},{"id":"4541220651","name":"15419 Las Carmelitas","tags":"amenity:school","lat":-25.5484275,"lng":-54.6294371},{"id":"4541235897","name":"Escuela Graduada Nº. 2979 San Agustin","tags":"amenity:school","lat":-25.5048174,"lng":-54.613288},{"id":"4541296784","name":"Din Donuts","tags":"addr:city:Ciudad del Este,addr:street:Avenida Los Yerbales,amenity:cafe","lat":-25.5175049,"lng":-54.6246171},{"id":"4541335885","name":"2982 San Miguel","tags":"amenity:school","lat":-25.5346357,"lng":-54.6012947},{"id":"4541336069","name":"La Rotonda","tags":"amenity:restaurant","lat":-25.5143514,"lng":-54.6427004},{"id":"4541384962","name":"Colegio La Paz","tags":"amenity:school,denomination:presbyterian_La_Paz","lat":-25.5052873,"lng":-54.6352716},{"id":"4541391393","name":"San Carlos (Facultad de Agronomia)","tags":"amenity:university","lat":-25.5108271,"lng":-54.6287452},{"id":"4541894943","name":"Daniel Santa Cruz","tags":"amenity:school","lat":-25.5537108,"lng":-54.6060317},{"id":"4541894944","name":"Doctor Moises Santiago Bertoni","tags":"amenity:school","lat":-25.5694769,"lng":-54.6109225},{"id":"4541894945","name":"E.M.D Doctor Raul Peña","tags":"amenity:school","lat":-25.5544822,"lng":-54.6134886},{"id":"4541894946","name":"Eco Manantial Arandu","tags":"amenity:school","lat":-25.5586756,"lng":-54.6210169},{"id":"4541894947","name":"La Amistad","tags":"amenity:school","lat":-25.5643108,"lng":-54.6212342},{"id":"4541894948","name":"Las Carmelitas","tags":"amenity:school","lat":-25.5448622,"lng":-54.6229811},{"id":"4541894950","name":"3684 Mariano Bobadilla","tags":"amenity:school","lat":-25.5571797,"lng":-54.6211758},{"id":"4541894951","name":"Melquisedec","tags":"amenity:school","lat":-25.5636789,"lng":-54.6062814},{"id":"4541894952","name":"4763 Onorio Takachi (Ex San Blas)","tags":"amenity:school","lat":-25.5485369,"lng":-54.6336439},{"id":"4541894953","name":"Paraguay - Brasil","tags":"amenity:school","lat":-25.5562,"lng":-54.6009678},{"id":"4541894954","name":"Sagrados Corazones","tags":"amenity:school","lat":-25.5579119,"lng":-54.6046447},{"id":"4541894955","name":"1512 Salto Del Monday","tags":"amenity:school","lat":-25.5568642,"lng":-54.6245253},{"id":"4541894957","name":"San Francisco de Asis","tags":"amenity:school","lat":-25.5720044,"lng":-54.6015681},{"id":"4541894958","name":"5426 (13352) San Francisco","tags":"amenity:school","lat":-25.5421889,"lng":-54.63737},{"id":"4541894959","name":"3591 (13844) San Lorenzo","tags":"amenity:school","lat":-25.5500567,"lng":-54.6321811},{"id":"4541894960","name":"San Pedro Apostol","tags":"amenity:school","lat":-25.5517283,"lng":-54.6134039},{"id":"4541894961","name":"San Rafael","tags":"amenity:school","lat":-25.5664597,"lng":-54.6201667},{"id":"4541894962","name":"San Roque Gonzalez de Santa Cruz","tags":"amenity:school","lat":-25.5672431,"lng":-54.6023694},{"id":"4541894963","name":"Santa Cecilia","tags":"amenity:school","lat":-25.5458044,"lng":-54.63322},{"id":"4541894965","name":"Santa Teresa","tags":"amenity:school","lat":-25.542545,"lng":-54.6259119},{"id":"4541894966","name":"Santo Rosman Apostol","tags":"amenity:school","lat":-25.5467467,"lng":-54.6256403},{"id":"4541894967","name":"Tres Fronteras","tags":"amenity:school","lat":-25.5867897,"lng":-54.6022286},{"id":"4541894968","name":"Venus la Coiffure","tags":"amenity:school","lat":-25.5650939,"lng":-54.6061636},{"id":"4541894969","name":"Virgen de Fatima","tags":"amenity:school","lat":-25.5395525,"lng":-54.6189175},{"id":"4542975915","name":"Instituto Profesional de Informatica","tags":"amenity:school","lat":-25.5323217,"lng":-54.6105253},{"id":"4542975916","name":"6356 Centro Educativo Sagrada Familia","tags":"amenity:school","lat":-25.5532739,"lng":-54.6318892},{"id":"4542975921","name":"1531 San Francisco De Asis","tags":"amenity:school","lat":-25.5452258,"lng":-54.6010172},{"id":"4542975922","name":"5448 (15204) Jardin De La Alegria","tags":"amenity:school","lat":-25.5386155,"lng":-54.6109367},{"id":"4542986561","name":"1515 Tres Fronteras","tags":"amenity:school","lat":-25.5867764,"lng":-54.6022766},{"id":"4547290532","name":"Mr. Chu","tags":"amenity:cafe","lat":-25.5226508,"lng":-54.6242518},{"id":"4547305622","name":"Lomi Bar","tags":"amenity:bar","lat":-25.5248986,"lng":-54.6219614},{"id":"4547305634","name":"Be Beauty","tags":"shop:beauty","lat":-25.5249099,"lng":-54.6213517},{"id":"4547320912","name":"El Foro S.A.","tags":"shop:books","lat":-25.5249892,"lng":-54.6197771},{"id":"4547320932","name":"Puntofarma","tags":"amenity:pharmacy,dispensing:yes,healthcare:pharmacy","lat":-25.5250341,"lng":-54.6184257},{"id":"4547320933","name":"Todo Stylo","tags":"shop:beauty","lat":-25.5250243,"lng":-54.6185031},{"id":"4547438961","name":"FarmaUrbana","tags":"addr:street:Guido Spano,amenity:pharmacy,healthcare:pharmacy","lat":-25.5140333,"lng":-54.6452916},{"id":"4549221590","tags":"amenity:bus_station,bus:yes,name:en:Terminal bus urbano,public_transport:station","lat":-25.5101215,"lng":-54.6161551},{"id":"4551350022","name":"Minimarket Moderna","tags":"shop:convenience","lat":-25.522518,"lng":-54.6225338},{"id":"4551350031","name":"Farmacia Corazon","tags":"amenity:pharmacy,healthcare:pharmacy","lat":-25.5215626,"lng":-54.6222755},{"id":"4551360501","name":"4707 Profesor Luis Maria Argaña","tags":"amenity:school","lat":-25.4886154,"lng":-54.6359356},{"id":"4551360509","name":"5423 (12707) San Dionisio","tags":"amenity:school","lat":-25.4993219,"lng":-54.6387664},{"id":"4551404082","name":"Ana's","tags":"shop:beauty","lat":-25.5249962,"lng":-54.625592},{"id":"4551404110","name":"Olivo","tags":"amenity:cafe","lat":-25.5252991,"lng":-54.6232546},{"id":"4551404127","name":"Ali Savio Lanches II","tags":"amenity:restaurant","lat":-25.5252144,"lng":-54.619208},{"id":"4551404128","name":"Vitalmed","tags":"amenity:pharmacy,healthcare:pharmacy","lat":-25.5252187,"lng":-54.6190601},{"id":"4551405790","name":"Comedor Vy'a Renda","tags":"amenity:restaurant,name:en:Mercado Central,shop:supermarket","lat":-25.5340355,"lng":-54.610855},{"id":"4551421372","name":"Distribuidora Central","tags":"addr:street:Avenida Campo Vía,amenity:pharmacy,healthcare:pharmacy","lat":-25.5264548,"lng":-54.6247092},{"id":"4551433229","name":"Conceito Carioca","tags":"phone:0993 294 770,shop:beauty","lat":-25.5242511,"lng":-54.6204493},{"id":"4551439202","name":"K'Mi Libreria","tags":"addr:street:Avenida Campo Vía,shop:books","lat":-25.5312605,"lng":-54.6271053},{"id":"4552264328","name":"Osvaldo","tags":"amenity:school","lat":-25.5364147,"lng":-54.6402983},{"id":"4552264335","name":"15136 Privada San Jorge","tags":"amenity:school","lat":-25.5496936,"lng":-54.6437992},{"id":"4552264339","name":"1633 Espiritu Santo","tags":"amenity:school","lat":-25.5362269,"lng":-54.6297869},{"id":"4552264346","name":"3227 Privada Arandura","tags":"amenity:school","lat":-25.5395156,"lng":-54.631105},{"id":"4552264362","name":"4324 (11697) Santa Ines","tags":"amenity:school","lat":-25.567765,"lng":-54.6506797},{"id":"4552264367","name":"5427 (13549) Paz y Esperanza","tags":"amenity:school","lat":-25.5379122,"lng":-54.6447458},{"id":"4552264369","name":"5431 (13435) Agua y Arena","tags":"amenity:school","lat":-25.5402483,"lng":-54.6351197},{"id":"4552264381","name":"6812 (15347) Puerto Flores","tags":"amenity:school","lat":-25.5970383,"lng":-54.6447031},{"id":"4552264383","name":"6985 17 de Julio","tags":"amenity:school","lat":-25.5583239,"lng":-54.6529036},{"id":"4553039336","name":"El Jardin","tags":"addr:street:Avenida Capitan del Puerto,amenity:restaurant","lat":-25.5278885,"lng":-54.615812},{"id":"4553039347","tags":"amenity:pharmacy,healthcare:pharmacy","lat":-25.5273619,"lng":-54.6173629},{"id":"4553064153","name":"Recanto Tropical","tags":"amenity:restaurant","lat":-25.5202547,"lng":-54.610746},{"id":"4554245330","name":"Vitalmed","tags":"addr:street:Supercarretera Mcal. F. Solano Lopez,amenity:pharmacy,healthcare:pharmacy","lat":-25.5192157,"lng":-54.6405696},{"id":"4554245339","name":"Vital Pharma","tags":"addr:street:Supercarretera Mcal. F. Solano Lopez,amenity:pharmacy,healthcare:pharmacy","lat":-25.5330328,"lng":-54.6339091},{"id":"4554245344","name":"Farmacia Amada","tags":"addr:street:Supercarretera Mcal. F. Solano Lopez,amenity:pharmacy,delivery:yes,healthcare:pharmacy","lat":-25.5333584,"lng":-54.6337469},{"id":"4554358392","name":"Principe de las Masas","tags":"amenity:restaurant","lat":-25.5118804,"lng":-54.6095442},{"id":"4554358395","name":"Western Union","tags":"amenity:bank,brand:Western Union,brand:wikidata:Q861042,brand:wikipedia:en:Western Union","lat":-25.5117506,"lng":-54.6095273},{"id":"4554438631","name":"Farmacenter","tags":"addr:city:Ciudad del Este,addr:street:Avenida Adrián Jara,amenity:pharmacy,delivery:yes,healthcare:pharmacy,phone:021 438 8000","lat":-25.5107217,"lng":-54.6150534},{"id":"4554438638","name":"Interfisa","tags":"addr:city:Ciudad del Este,addr:street:Avenida Adrián Jara,amenity:bank","lat":-25.5107328,"lng":-54.6143234},{"id":"4554438668","name":"Banco Familiar","tags":"addr:city:Ciudad del Este,addr:street:Avenida Adrián Jara,amenity:bank","lat":-25.5107358,"lng":-54.6123003},{"id":"4554473621","name":"Farmatitu","tags":"addr:city:Ciudad del Este,addr:street:Avenida Adrián Jara,amenity:pharmacy,healthcare:pharmacy","lat":-25.5107814,"lng":-54.6110831},{"id":"4554473626","name":"Farma-Vit","tags":"addr:city:Ciudad del Este,addr:street:Avenida Adrián Jara,amenity:pharmacy,healthcare:pharmacy","lat":-25.5107804,"lng":-54.6109123},{"id":"4554544568","name":"Maniba Bar","tags":"amenity:bar","lat":-25.512724,"lng":-54.6121041},{"id":"4554554040","name":"Western Union","tags":"addr:city:Ciudad del Este,addr:street:Avenida Adrián Jara,amenity:bank,brand:Western Union,brand:wikidata:Q861042,brand:wikipedia:en:Western Union","lat":-25.5107447,"lng":-54.6131652},{"id":"4554568013","name":"Peniel Cosméticos","tags":"addr:city:Ciudad del Este,addr:street:Avenida Adrián Jara,shop:beauty","lat":-25.5107325,"lng":-54.6142481},{"id":"4554608666","name":"한인회관식당","tags":"amenity:restaurant,name:en:Korean Hall Restaurant","lat":-25.5123094,"lng":-54.6136836},{"id":"4555617420","tags":"amenity:ferry_terminal,ferry:yes,public_transport:station","lat":-25.5934536,"lng":-54.5803545},{"id":"4556143459","name":"Farma-Vit","tags":"amenity:pharmacy,healthcare:pharmacy","lat":-25.5117344,"lng":-54.6150742},{"id":"4556143460","name":"Capos Bar","tags":"amenity:restaurant,opening_hours:Mo-Sa 07:00-18:00","lat":-25.5116175,"lng":-54.615066},{"id":"4556143481","name":"Fio Farma","tags":"amenity:pharmacy,healthcare:pharmacy","lat":-25.5100383,"lng":-54.6150386},{"id":"4556186141","name":"Farma VIP","tags":"amenity:pharmacy,healthcare:pharmacy","lat":-25.5112519,"lng":-54.6084274},{"id":"4556186144","name":"San Martin","tags":"amenity:pharmacy,healthcare:pharmacy","lat":-25.5114895,"lng":-54.6079221},{"id":"4556220318","name":"Farmacentro","tags":"addr:street:Supercarretera Mcal. F. Solano Lopez,amenity:pharmacy,healthcare:pharmacy","lat":-25.517038,"lng":-54.6419824},{"id":"4556220330","name":"Pizza & Cia","tags":"addr:street:Supercarretera Mcal. F. Solano Lopez,amenity:restaurant","lat":-25.5175331,"lng":-54.6417462},{"id":"4556220331","name":"Aldcor Pan","tags":"addr:street:Supercarretera Mcal. F. Solano Lopez,amenity:restaurant","lat":-25.5176759,"lng":-54.6416935},{"id":"4556220336","tags":"amenity:pharmacy,healthcare:pharmacy","lat":-25.5178561,"lng":-54.6415817},{"id":"4557897716","name":"Banco Atlas","tags":"addr:city:ciudad del Este,addr:street:Monseñor Rodríguez,amenity:bank","lat":-25.5092201,"lng":-54.634005},{"id":"4557897724","name":"Pharma Botick","tags":"addr:city:ciudad del Este,addr:street:Monseñor Rodríguez,amenity:pharmacy,healthcare:pharmacy","lat":-25.5087772,"lng":-54.6351785},{"id":"4562087307","name":"Todo Mascotas","tags":"addr:street:Supercarretera Mcal. F. Solano Lopez,phone:(0973)879576,shop:pet","lat":-25.5269928,"lng":-54.6371789},{"id":"4562138838","name":"Tia Chela","tags":"addr:street:Avenida América,amenity:restaurant","lat":-25.5357447,"lng":-54.6312574},{"id":"4562138872","name":"Vitalmed","tags":"addr:street:Avenida Capitan del Puerto,amenity:pharmacy,delivery:yes,healthcare:pharmacy","lat":-25.5360068,"lng":-54.6238763},{"id":"4562138875","name":"Meneghetti Alimentos","tags":"addr:street:Avenida Capitan del Puerto,amenity:restaurant","lat":-25.535836,"lng":-54.6238674},{"id":"4562138883","name":"Farma & Cia","tags":"addr:street:Avenida Capitan del Puerto,amenity:pharmacy,healthcare:pharmacy","lat":-25.5354957,"lng":-54.623841},{"id":"4562141798","name":"Leofarma","tags":"addr:street:Avenida Capitan del Puerto,amenity:pharmacy,healthcare:pharmacy","lat":-25.5348708,"lng":-54.6238176},{"id":"4562369501","name":"Sanatorio Central","tags":"addr:city:Ciudad del Este,addr:street:Avenida San Blás,amenity:pharmacy,healthcare:pharmacy","lat":-25.5088861,"lng":-54.6309996},{"id":"4562369557","tags":"addr:city:Ciudad del Este,addr:street:Avenida San Blás,amenity:pharmacy,healthcare:pharmacy","lat":-25.507028,"lng":-54.6372188},{"id":"4562416816","name":"Mundo Exotico","tags":"addr:street:Avenida Capitan del Puerto,shop:pet","lat":-25.5306919,"lng":-54.6239173},{"id":"4562459660","name":"Hamburguesas & Bebidas","tags":"addr:street:Avenida Capitan del Puerto,amenity:restaurant","lat":-25.5283228,"lng":-54.614093},{"id":"4562477406","name":"Mister Burger","tags":"amenity:restaurant","lat":-25.5080576,"lng":-54.6153831},{"id":"4562477434","name":"Milano","tags":"amenity:cafe","lat":-25.5075434,"lng":-54.613796},{"id":"4562477439","name":"Mila","tags":"shop:beauty","lat":-25.5075827,"lng":-54.6124882},{"id":"4562477454","name":"Dulce Lar","tags":"phone:061 506 062,shop:convenience","lat":-25.5075348,"lng":-54.6113963},{"id":"4562477461","name":"Restaurant La Amistad","tags":"amenity:restaurant","lat":-25.5075806,"lng":-54.6116802},{"id":"4562477490","name":"Farmacias Amada","tags":"amenity:pharmacy,delivery:yes,healthcare:pharmacy,phone:061 509 447","lat":-25.5075939,"lng":-54.6098831},{"id":"4562657772","name":"OMG","tags":"shop:beauty","lat":-25.5075905,"lng":-54.6097288},{"id":"4564095889","name":"Feirinha Puerto Iguazú","tags":"addr:city:Puerto Iguazú,addr:postcode:3370,addr:street:Avenida Brasil,name:pt:Feirinha Porto Iguazu,tourism:attraction","lat":-25.5941044,"lng":-54.5740464},{"id":"4564155145","name":"Farmacia San Diego","tags":"amenity:pharmacy,healthcare:pharmacy","lat":-25.5082248,"lng":-54.6151922},{"id":"4564155178","name":"El Sol","tags":"shop:pet","lat":-25.5077483,"lng":-54.6125473},{"id":"4564208263","name":"Comercial Choco Mix","tags":"shop:convenience","lat":-25.5082452,"lng":-54.6137824},{"id":"4564234339","tags":"addr:city:Ciudad del Este,addr:street:Felix P. Cardozo,amenity:cafe,cuisine:burger","lat":-25.5388968,"lng":-54.6041958},{"id":"4564236020","name":"Farmacia Acaray","tags":"addr:street:Avenida San Blás,amenity:pharmacy,healthcare:pharmacy","lat":-25.5090487,"lng":-54.6305917},{"id":"4564271838","name":"Leo Farma","tags":"addr:city:Ciudad del Este,amenity:pharmacy,healthcare:pharmacy","lat":-25.5341428,"lng":-54.6129986},{"id":"4564281711","name":"Mara","tags":"amenity:restaurant","lat":-25.5053714,"lng":-54.6355647},{"id":"4564281728","name":"Cantina Guille","tags":"addr:street:General José J. Sánchez,amenity:restaurant","lat":-25.506302,"lng":-54.6359318},{"id":"4564304224","name":"Despensa Dieguito","tags":"addr:city:Ciudad del Este,shop:convenience","lat":-25.5341631,"lng":-54.6115283},{"id":"4564304260","name":"Lourdes","tags":"addr:city:Ciudad del Este,shop:beauty","lat":-25.5348415,"lng":-54.6112066},{"id":"4564336228","name":"Comercial","tags":"addr:city:Ciudad del Este,shop:convenience","lat":-25.5347544,"lng":-54.6105699},{"id":"4564336244","name":"Farmacia YSI","tags":"addr:city:Ciudad del Este,amenity:pharmacy,healthcare:pharmacy","lat":-25.5343543,"lng":-54.6106239},{"id":"4564336250","name":"Farmacia Vital","tags":"addr:city:Ciudad del Este,amenity:pharmacy,healthcare:pharmacy","lat":-25.5340445,"lng":-54.610643},{"id":"4564336264","name":"comercial Super Ventajas","tags":"addr:city:Ciudad del Este,shop:convenience","lat":-25.5337975,"lng":-54.6106721},{"id":"4564336265","name":"Fortaleza Comercial","tags":"addr:city:Ciudad del Este,shop:convenience","lat":-25.5337753,"lng":-54.6106746},{"id":"4564369698","name":"Comercial Niño Jesus","tags":"addr:city:Ciudad del Este,shop:convenience","lat":-25.5342814,"lng":-54.6128093},{"id":"4564369699","name":"Comercial Ovelar","tags":"addr:city:Ciudad del Este,shop:convenience","lat":-25.5342295,"lng":-54.6127633},{"id":"4565260322","name":"Cuatro Ases","tags":"addr:city:Ciudad del Este,shop:books","lat":-25.5342027,"lng":-54.6118581},{"id":"4565287996","name":"Comercial Sagrado Corazon","tags":"addr:city:Ciudad del Este,shop:convenience","lat":-25.5344298,"lng":-54.6104624},{"id":"4565383819","tags":"addr:city:Ciudad del Este,amenity:restaurant","lat":-25.5334494,"lng":-54.6103842},{"id":"4565534358","name":"Farmacia Orquideas","tags":"addr:city:Ciudad del Este,addr:street:Avenida General Bernardino Caballero,amenity:pharmacy,healthcare:pharmacy","lat":-25.5309549,"lng":-54.6102979},{"id":"4565534994","name":"Erne Coifare","tags":"addr:city:Ciudad del Este,addr:street:Avenida General Bernardino Caballero,shop:beauty","lat":-25.5326046,"lng":-54.6101182},{"id":"4565535005","name":"Farmacia Marina","tags":"addr:city:Ciudad del Este,addr:street:Avenida General Bernardino Caballero,amenity:pharmacy,healthcare:pharmacy","lat":-25.5331191,"lng":-54.6100705},{"id":"4565535024","tags":"addr:city:Ciudad del Este,addr:street:Avenida General Bernardino Caballero,amenity:restaurant,cuisine:pizza","lat":-25.5342323,"lng":-54.6099473},{"id":"4565779280","name":"Farmacia Boqueron","tags":"addr:city:Ciudad del Este,addr:street:Avenida General Bernardino Caballero,amenity:pharmacy,healthcare:pharmacy","lat":-25.535191,"lng":-54.6098409},{"id":"4565927545","name":"Susy","tags":"addr:city:Ciudad del Este,addr:street:Avenida General Bernardino Caballero,shop:beauty","lat":-25.5311099,"lng":-54.6106282},{"id":"4565945350","name":"Farmacia Don Pedro","tags":"addr:city:Ciudad del Este,addr:street:Avenida General Bernardino Caballero,amenity:pharmacy,healthcare:pharmacy","lat":-25.5320564,"lng":-54.6105274},{"id":"4567086775","name":"Erme","tags":"addr:city:Ciudad del Este,addr:street:Avenida General Bernardino Caballero,shop:beauty","lat":-25.532356,"lng":-54.6104917},{"id":"4567087897","name":"Juan Fernando Libreria","tags":"addr:city:Ciudad del Este,addr:street:Avenida General Bernardino Caballero,shop:books","lat":-25.5336836,"lng":-54.6103138},{"id":"4567140971","name":"Liz Burger","tags":"addr:city:Ciudad del Este,addr:street:Avenida General Bernardino Caballero,amenity:restaurant","lat":-25.5356488,"lng":-54.6100609},{"id":"4567153081","name":"Banco Continental","tags":"amenity:bank","lat":-25.5089802,"lng":-54.6347619},{"id":"4567153082","name":"Banco de Brasil","tags":"amenity:bank,atm:yes,drive_through:no","lat":-25.5090473,"lng":-54.6345531},{"id":"4567507437","tags":"leisure:fitness_centre,sport:yoga","lat":-25.507833,"lng":-54.6300329},{"id":"4576040998","name":"Empório com Arte","tags":"addr:housenumber:569,addr:street:Avenida das Cataratas,amenity:restaurant,email:emporiocomarte@hotmail.com,name:pt:Empório com Arte","lat":-25.5499711,"lng":-54.5738279},{"id":"4581732589","name":"Banco do Brasil","tags":"amenity:bank","lat":-25.5162504,"lng":-54.5855281},{"id":"4583782590","name":"Colégio Adventista","tags":"amenity:school,name:pt:Colégio Adventista","lat":-25.5340338,"lng":-54.5891938},{"id":"4585274989","name":"Vila Iguassu Restaurante","tags":"addr:housenumber:106,addr:street:Avenida Brasil,amenity:restaurant,name:pt:Vila Iguassu Restaurante","lat":-25.5351566,"lng":-54.5857614},{"id":"4587921691","name":"Buffet Grill Super Muffato","tags":"addr:city:Foz do Iguaçu,addr:housenumber:386,addr:street:Rua 24 de Março,addr:suburb:Boicy,amenity:restaurant","lat":-25.5467991,"lng":-54.5781967},{"id":"4587954789","name":"Ponto Certo Churrascaria","tags":"addr:city:Foz do Iguaçu,addr:housenumber:60,addr:street:Avenida Paraná,addr:suburb:Centro,amenity:restaurant","lat":-25.5474024,"lng":-54.577392},{"id":"4589402300","name":"Super Muffato - Cataratas JL Shopping","tags":"addr:city:Foz do Iguaçu,addr:housenumber:185,addr:street:Avenida Costa e Silva,addr:suburb:Polo Centro,amenity:supermarket,shop:supermarket","lat":-25.5332399,"lng":-54.5749206},{"id":"4598487959","name":"Vitalmed","tags":"addr:street:Supercarretera Mcal. F. Solano Lopez,amenity:pharmacy,delivery:yes,healthcare:pharmacy,phone:061 571 660,phone_1:0994 378 048","lat":-25.5079057,"lng":-54.6392381},{"id":"4598487960","name":"Western Union","tags":"addr:street:Supercarretera Mcal. F. Solano Lopez,amenity:bank,brand:Western Union,brand:wikidata:Q861042,brand:wikipedia:en:Western Union","lat":-25.5079909,"lng":-54.6392617},{"id":"4598487970","name":"Puntofarma","tags":"addr:street:Supercarretera Mcal. F. Solano Lopez,amenity:pharmacy,healthcare:pharmacy","lat":-25.5084624,"lng":-54.6394159},{"id":"4598487975","name":"Tu Financiera","tags":"amenity:bank","lat":-25.5085646,"lng":-54.639471},{"id":"4598510102","name":"Dig-Robert","tags":"amenity:pharmacy,healthcare:pharmacy","lat":-25.5110441,"lng":-54.6405236},{"id":"4598513265","tags":"addr:street:Supercarretera Mcal. F. Solano Lopez,amenity:pharmacy,healthcare:pharmacy","lat":-25.5114417,"lng":-54.640692},{"id":"4598716272","name":"Birra Manía Shop","tags":"addr:street:Supercarretera Mcal. F. Solano Lopez,shop:convenience","lat":-25.5155044,"lng":-54.6423567},{"id":"4598760560","name":"Farmacenter","tags":"addr:street:Supercarretera Mcal. F. Solano Lopez,amenity:pharmacy,healthcare:pharmacy","lat":-25.5087819,"lng":-54.6391598},{"id":"4598765972","name":"Pizza Hut","tags":"addr:street:Supercarretera Mcal. F. Solano Lopez,amenity:restaurant,brand:Pizza Hut,brand:wikidata:Q191615,brand:wikipedia:en:Pizza Hut,cuisine:pizza","lat":-25.5104491,"lng":-54.6398633},{"id":"4598765986","name":"Banco Continental","tags":"addr:street:Supercarretera Mcal. F. Solano Lopez,amenity:bank","lat":-25.5120497,"lng":-54.6405433},{"id":"4598787275","name":"Autoservice \"Tio Mateo\"","tags":"addr:street:Amado Benítez Gamarra,shop:convenience","lat":-25.53533,"lng":-54.6494441},{"id":"4598979639","name":"Farmacia Integral","tags":"addr:street:Avenida Monday,amenity:pharmacy,healthcare:pharmacy","lat":-25.5557552,"lng":-54.6521158},{"id":"4600005069","name":"Rafa","tags":"addr:city:Presidente Franco,shop:convenience","lat":-25.5708845,"lng":-54.6145329},{"id":"4600454764","name":"Farma Gold","tags":"addr:street:Amambay,amenity:pharmacy,healthcare:pharmacy","lat":-25.5359499,"lng":-54.6338413},{"id":"4600484187","name":"Estética Mely","tags":"shop:beauty","lat":-25.5397078,"lng":-54.6333955},{"id":"4600493060","name":"Ruth","tags":"addr:street:Supercarretera Mcal. F. Solano Lopez,shop:beauty","lat":-25.5403825,"lng":-54.6334259},{"id":"4600594434","name":"Dos Ángeles","tags":"addr:street:Calle General Bernardino Caballero,amenity:cafe","lat":-25.5503377,"lng":-54.608197},{"id":"4602174935","name":"Farmacia Geovanni","tags":"amenity:pharmacy,healthcare:pharmacy","lat":-25.5517312,"lng":-54.6065247},{"id":"4602352062","name":"Gladiator","tags":"addr:city:Presidente Franco,addr:street:Avenida Monday,leisure:fitness_centre","lat":-25.5618332,"lng":-54.6155716},{"id":"4602386827","name":"Polleria 1 de Mayo","tags":"addr:city:Presidente Franco,addr:street:Avenida Monday,amenity:restaurant","lat":-25.5563398,"lng":-54.6256647},{"id":"4602434980","name":"Farmacia Nitro","tags":"addr:city:Presidente Franco,addr:street:Avenida Guarani,amenity:pharmacy,healthcare:pharmacy","lat":-25.552637,"lng":-54.6286121},{"id":"4602435118","name":"San Roque","tags":"addr:city:Presidente Franco,addr:street:Avenida Monday,amenity:pharmacy,healthcare:pharmacy","lat":-25.5540028,"lng":-54.6300235},{"id":"4602497642","name":"Belén","tags":"addr:street:Avenida Monday,amenity:pharmacy,healthcare:pharmacy","lat":-25.5536466,"lng":-54.6423079},{"id":"4602643166","name":"Da Gusto","tags":"addr:street:Calle General Bernardino Caballero,amenity:restaurant,cuisine:pizza","lat":-25.5557965,"lng":-54.6067639},{"id":"4602643167","name":"Mini Mercado Totit","tags":"addr:street:Calle General Bernardino Caballero,shop:convenience","lat":-25.5563807,"lng":-54.6066036},{"id":"4602681355","name":"Cat Show","tags":"addr:city:Presidente Franco,addr:street:Avenida Monday,shop:pet","lat":-25.5609098,"lng":-54.6169292},{"id":"4602682799","name":"Casa del Shawarma","tags":"addr:street:Calle General Bernardino Caballero,amenity:restaurant","lat":-25.5578215,"lng":-54.6061307},{"id":"4602682800","name":"World Training","tags":"addr:street:Calle General Bernardino Caballero,leisure:fitness_centre","lat":-25.5578633,"lng":-54.6061211},{"id":"4602682801","name":"VitalMed","tags":"addr:street:Calle General Bernardino Caballero,amenity:pharmacy,healthcare:pharmacy","lat":-25.5579186,"lng":-54.6060979},{"id":"4602682908","name":"Salón Belleza","tags":"addr:city:Presidente Franco,addr:street:Avenida Monday,shop:beauty","lat":-25.5583492,"lng":-54.6216319},{"id":"4602685150","name":"Despensa Junior","tags":"addr:street:Calle General Bernardino Caballero,shop:convenience","lat":-25.5605856,"lng":-54.6050752},{"id":"4602685151","name":"Super Farma","tags":"amenity:pharmacy,healthcare:pharmacy","lat":-25.560545,"lng":-54.6051052},{"id":"4604160957","tags":"addr:city:Ciudad del Este,addr:street:Avenida Itaipú Oeste,amenity:pharmacy,healthcare:pharmacy","lat":-25.5107159,"lng":-54.6340134},{"id":"4604161004","name":"Farmacia Virgen de Luján","tags":"addr:city:Ciudad del Este,addr:street:Monseñor Rodríguez,amenity:pharmacy,healthcare:pharmacy","lat":-25.511424,"lng":-54.6248227},{"id":"4604293906","name":"Farma VIP","tags":"addr:city:Ciudad del Este,addr:street:Supercarretera Mcal. F. Solano Lopez,amenity:pharmacy,healthcare:pharmacy","lat":-25.5039583,"lng":-54.637177},{"id":"4604369272","name":"Capitâo Bar","tags":"addr:city:Ciudad del Este,addr:street:Los Lapachos,amenity:bar","lat":-25.5121552,"lng":-54.640249},{"id":"4604634027","name":"Montse Minimarket","tags":"addr:city:Ciudad del Este,addr:street:Supercarretera Mcal. F. Solano Lopez,shop:convenience","lat":-25.5148843,"lng":-54.6421343},{"id":"4604782076","name":"Vital Med","tags":"addr:city:Ciudad del Este,addr:street:Avenida Los Yerbales,amenity:pharmacy,healthcare:pharmacy","lat":-25.5173413,"lng":-54.6253012},{"id":"4606091390","name":"Buffet Livre","tags":"amenity:restaurant,name:pt:Buffet Livre","lat":-25.5493594,"lng":-54.5751671},{"id":"4628643690","name":"Verificación del automotor","tags":"amenity:police,name:es:Verificación del automotor","lat":-25.5241409,"lng":-54.6222263},{"id":"4672933149","name":"Banco Sudameris","tags":"amenity:atm","lat":-25.5081495,"lng":-54.6379944},{"id":"4680723432","name":"Escuela 412","tags":"addr:city:Puerto Iguazú,addr:housenumber:506,addr:street:Avenida Victoria Aguirre,alt_name:Escuela Doctor Ezequiel Bustillo,amenity:school,official_name:Escuela Provincial Nº 412 Doctor Ezequiel Bustillo,operator:type:public,ref:cue:540065200,ref:cuise:412","lat":-25.6062063,"lng":-54.5683018},{"id":"4690737159","name":"Bookafé Centro","tags":"addr:street:Rua Marechal Floriano Peixoto,amenity:cafe,internet_access:wlan","lat":-25.5443717,"lng":-54.5834152},{"id":"4702457660","name":"Banco24Horas","tags":"amenity:atm","lat":-25.5209128,"lng":-54.5638338},{"id":"4702461578","tags":"amenity:atm,level:-1","lat":-25.5334748,"lng":-54.5755618},{"id":"4750172506","name":"Farmaoliva","tags":"addr:street:Avenida General Bernardino Caballero,amenity:pharmacy,healthcare:pharmacy,opening_hours:Mo-Sa 06:00-22:00, Su,PH 08:00-20:00,wheelchair:no","lat":-25.5278421,"lng":-54.6100126},{"id":"4762076071","name":"Restaurante JK","tags":"amenity:restaurant","lat":-25.5185092,"lng":-54.5862061},{"id":"4765129456","name":"Ambrosia","tags":"amenity:restaurant,name:es:Ambrosia","lat":-25.5082387,"lng":-54.6173107},{"id":"4815901847","name":"Museo Moises Bertoni","tags":"country:PY,tourism:museum","lat":-25.659671,"lng":-54.5843017},{"id":"4838426282","name":"Entrada al Estacionamiento de Arena Shops","tags":"amenity:parking","lat":-25.5103219,"lng":-54.6342691},{"id":"4838427208","name":"Mascotas & Cia.","tags":"addr:city:Ciudad del Este,addr:postcode:7000,addr:street:Avenida Itaipú Oeste,level:-1,shop:pet,website:https://www.facebook.com/mascotasycia","lat":-25.5106275,"lng":-54.6345035},{"id":"4838429093","name":"UM Coffee Co","tags":"addr:city:Ciudad del Este,addr:postcode:7000,addr:street:Avenida Itaipú Oeste,amenity:cafe,internet_access:yes,level:0,opening_hours:11:30-22:00,phone:+595986665597,website:https://www.facebook.com/UmCoffeeCopy","lat":-25.5103351,"lng":-54.6344205},{"id":"4838431169","name":"Bellini","tags":"addr:city:Ciudad del Este,addr:postcode:7000,addr:street:Avenida Itaipú Oeste,amenity:restaurant,cuisine:italian,email:bellinicde@hotmail.com,level:0,opening_hours:11:00-23:00,phone:+595991950222,website:https://www.facebook.com/bellinicde/","lat":-25.5121413,"lng":-54.6345278},{"id":"4838432576","name":"La Nieta de Ña Morocha","tags":"addr:city:Ciudad del Este,addr:postcode:7000,addr:street:Avenida Itaipú Oeste,amenity:restaurant,cuisine:regional,level:0,phone:+595994477163","lat":-25.5103101,"lng":-54.6351077},{"id":"4838656939","name":"Toscana","tags":"amenity:restaurant,cuisine:italian","lat":-25.5101809,"lng":-54.6350683},{"id":"4849531255","name":"Comisaría Seccional Tercera - UR V","tags":"addr:city:Puerto Iguazú,addr:postcode:3370,addr:street:Avenida Libertad,amenity:police,description:Zona 2000 héctareas,operator:Policía de la Provincia de Misiones,phone:+54 3757 528706","lat":-25.6379042,"lng":-54.5717127},{"id":"4884424524","name":"Ítalo Supermercados","tags":"shop:supermarket,wheelchair:yes","lat":-25.5444816,"lng":-54.5831507},{"id":"4890747421","name":"The Van Burger","tags":"amenity:restaurant,name:en:The Van Burger","lat":-25.5999545,"lng":-54.5713218},{"id":"4901402221","name":"Mahatta Hookan Bar","tags":"addr:housenumber:1984,addr:street:Avenida Garibaldi,amenity:bar,cuisine:fish;regional;ice_cream;grill;seafood;friture;local;beef_bowl;fine_dining;fish_and_chips;diner;chicken;brazilian,internet_access:wlan,name:en:Mahatta Hookan Bar,name:pt:Mahatta Hookan Bar,opening_hours:Tu-Su 17:00-00:00","lat":-25.500102,"lng":-54.5567316},{"id":"4939435662","name":"Farmácia Dal Di","tags":"amenity:pharmacy,contact:phone:+55 45 3574-2504","lat":-25.5472982,"lng":-54.5786299},{"id":"4943227326","name":"Nissei","tags":"amenity:pharmacy","lat":-25.5393498,"lng":-54.5869714},{"id":"4947966800","name":"Sicoob","tags":"amenity:bank","lat":-25.5369066,"lng":-54.584595},{"id":"4947966810","name":"Boka Loka","tags":"amenity:restaurant","lat":-25.5281283,"lng":-54.5858207},{"id":"4955175438","name":"Colegio Nacional","tags":"amenity:school","lat":-25.5172693,"lng":-54.635525},{"id":"4966199622","name":"Grupo Escoteiro Cataratas - Escoteiros do Brasil","tags":"addr:housenumber:250,addr:postcode:85866-010,addr:street:Avenida Araucária,amenity:school,email:gecat079@gmail.com,name:en:Cataratas Scout Group - Scouts of Brasil,name:es:Grupo Scout Cataratas - Scouts de Brasil,opening_hours:Sa 14:00-17:00,phone:+55 45 99969-1645,website:https://facebook.com/grupoescoteirocataratas","lat":-25.5043084,"lng":-54.5804539},{"id":"4993558521","name":"Restaurante Barracão","tags":"addr:city:Foz do Iguaçu,addr:housenumber:1010,addr:street:Avenida Anhembi,addr:suburb:Jardim Santa Rosa,amenity:restaurant,cuisine:brazilian","lat":-25.4952647,"lng":-54.5712296},{"id":"5009373121","name":"San francisco","tags":"name:es:San francisco,shop:supermarket","lat":-25.5410469,"lng":-54.5977236},{"id":"5051562421","name":"Mercadito En lo de Ale","tags":"addr:street:Calle Caahuasú,name:es:Mercadito En lo de Ale,opening_hours:Mo-Su 08:00-22:00,shop:supermarket","lat":-25.5545938,"lng":-54.6167492},{"id":"5072585322","name":"RESTAURANTE ROYAL-GARDEN","tags":"addr:postcode:7000,addr:street:Calle Abay,amenity:restaurant,cuisine:chinese,email:53945404@qq.com,internet_access:wlan,name:en:RESTAURANTE ROYAL-GARDEN,name:es:RESTAURANTE ROYAL-GARDEN,name:zh:食香阁餐厅,opening_hours:Mo-Sa 10:30-22:00,operator:太平盛世集团,phone:061-509682","lat":-25.5121089,"lng":-54.6109497},{"id":"5076271189","tags":"addr:city:Puerto Iguazú,addr:postcode:3370,addr:street:Avenida República Argentina,amenity:atm,network:Banelco,operator:Banco Macro","lat":-25.6113535,"lng":-54.5774882},{"id":"5076271200","name":"Cataratas II","tags":"addr:city:Puerto Iguazú,addr:housenumber:86,addr:postcode:3370,addr:street:Avenida República Argentina,amenity:pharmacy,dispensing:yes,healthcare:pharmacy","lat":-25.6025636,"lng":-54.5735352},{"id":"5078009194","name":"Complejo Educativo Sagrada Familia","tags":"addr:city:Puerto Iguazú,addr:housenumber:102,addr:postcode:3370,addr:street:Julio Paulino Amarante,amenity:school,email:caliguazu@yahoo.com.ar,isced:level:2,official_name:Complejo Educativo Sagrada Familia Nº 906,operator:type:private,phone:+54 3757 422254,ref:cue:540064800,ref:cuise:109006,ref:spepm:0906,website:https://institutosagradafamilia.edu.ar/","lat":-25.5992083,"lng":-54.5677902},{"id":"5079265355","name":"Policía Federal Delegación Puerto Iguazú","tags":"addr:city:Puerto Iguazú,addr:housenumber:25,addr:postcode:3370,addr:street:Avenida San Martín,amenity:police","lat":-25.5948952,"lng":-54.5713633},{"id":"5079698145","name":"La Terraza Parrilla Grill","tags":"addr:city:Puerto Iguazù,addr:postcode:3370,addr:street:Avenida Hipólito Yrigoyen,amenity:restaurant","lat":-25.6037429,"lng":-54.5657216},{"id":"5081352156","name":"Comisaría de la Mujer Puerto Iguazú - UR V","tags":"addr:city:Puerto Iguazú,addr:housenumber:95,addr:postcode:3370,addr:street:Las Calandrias,amenity:police,contact:centrex:6038/6039,email:criamujer_2013@hotmail.com,operator:Policía de la Provincia de Misiones,phone:+54 3757 528301","lat":-25.6111511,"lng":-54.5651025},{"id":"5085683122","tags":"amenity:atm,network:Banelco,operator:Macro Base24","lat":-25.5971049,"lng":-54.5799732},{"id":"5105346424","name":"Comida Oriental","tags":"amenity:restaurant","lat":-25.5506249,"lng":-54.5732902},{"id":"5105346425","name":"Ubud Cafe","tags":"amenity:restaurant","lat":-25.5208886,"lng":-54.5636278},{"id":"5105388324","name":"Subway","tags":"amenity:restaurant","lat":-25.5207402,"lng":-54.5634687},{"id":"5105388325","name":"Doce Delicia","tags":"amenity:restaurant","lat":-25.5208093,"lng":-54.5635486},{"id":"5105390521","name":"Santa Maria","tags":"amenity:pharmacy","lat":-25.5209721,"lng":-54.5637024},{"id":"5141862522","name":"Sabbor saude","tags":"addr:street:Rua Marechal Floriano Peixoto,amenity:restaurant,cuisine:brazilian,opening_hours:Mo-Sa 09:00-15:00","lat":-25.5374165,"lng":-54.5829395},{"id":"5145480467","name":"Churrascaria Premium","tags":"addr:city:Foz do Iguaçú,addr:housenumber:963,addr:street:Rua Quintino Bocaiuva,addr:suburb:Centro,amenity:restaurant,capacity:300,email:churrascariapremium@gmail.com,phone:+55 45 3028-2823,source:date:2017-09-24,website:http://www.churrascariapremium.com.br/","lat":-25.5427524,"lng":-54.5830983},{"id":"5145998050","name":"Markito","tags":"addr:city:Foz do Iguaçú,addr:street:Rua Barão do Rio Branco,addr:suburb:Centro,amenity:restaurant,source:date:2017-09-23","lat":-25.5457327,"lng":-54.5869392},{"id":"5166446346","name":"UNIVERSIDAD PRIVADA DEL ESTE","tags":"amenity:university","lat":-25.5520485,"lng":-54.6161559},{"id":"5189185275","name":"Patrulla Caminera","tags":"amenity:police","lat":-25.5076025,"lng":-54.6384666},{"id":"5208825509","name":"Atacadão","tags":"addr:city:Foz do Iguaçu,addr:housenumber:350,addr:postcode:85865-228,addr:street:Rua Nelson da Cunha Júnior,addr:suburb:Vila Perola,opening_hours:Mo-Sa 07:00-22:00,phone:+55 45 21053200,shop:supermarket,website:https://www.atacadao.com.br/","lat":-25.5105348,"lng":-54.5777799},{"id":"5216169045","name":"Shopping Box Outlet","tags":"addr:city:Ciudad del Este,shop:mall","lat":-25.5100234,"lng":-54.606612},{"id":"5218302538","name":"Giva Restaurantes","tags":"addr:city:Foz do Iguaçu,addr:street:Avenida Brodoski,addr:suburb:Jd Santa Rosa,amenity:restaurant,capacity:20,cuisine:regional,delivery:yes,opening_hours:Mo-Fr 09:00-18:00,smoking:outside,takeaway:yes","lat":-25.4944556,"lng":-54.5673904},{"id":"5253023353","tags":"amenity:parking","lat":-25.593021,"lng":-54.596665},{"id":"5253225921","name":"Bettos pizza","tags":"amenity:restaurant,cuisine:pizza","lat":-25.4898903,"lng":-54.5711715},{"id":"5287806145","name":"Companhia do Churrasco","tags":"amenity:restaurant,cuisine:barbecue","lat":-25.5332939,"lng":-54.5753447},{"id":"5287806147","name":"Jinjin Culinária Asiática","tags":"amenity:restaurant,cuisine:asian","lat":-25.5333235,"lng":-54.5753065},{"id":"5287806148","name":"Griletto","tags":"amenity:restaurant","lat":-25.5333598,"lng":-54.5752837},{"id":"5287806150","name":"Piatto","tags":"amenity:restaurant","lat":-25.5334433,"lng":-54.575273},{"id":"5287806152","name":"Ponto Mineiro","tags":"amenity:restaurant,cuisine:regional","lat":-25.5335292,"lng":-54.5753306},{"id":"5299265256","name":"Escuela Básica Nº.5420 Inmaculada Concepción","tags":"addr:city:Ciudad del Este,amenity:school","lat":-25.5028724,"lng":-54.6060647},{"id":"5299733569","name":"Shopping Jardin","tags":"addr:city:Ciudad del Este,shop:mall","lat":-25.5086388,"lng":-54.6174745},{"id":"5299808012","name":"Comisaría Pablo Rojas","tags":"addr:city:Ciudad del Este,amenity:police","lat":-25.500194,"lng":-54.6306264},{"id":"5299810127","name":"Cruz Roja Paraguaya - Filial Alto Paraguay","tags":"amenity:hospital,healthcare:hospital","lat":-25.5019396,"lng":-54.6282352},{"id":"5299829054","name":"UNINTER - Sede Central","tags":"amenity:university,internet_access:yes","lat":-25.5028227,"lng":-54.634173},{"id":"5301463921","tags":"amenity:cafe","lat":-25.5250471,"lng":-54.6199438},{"id":"5303217157","name":"Centro Municipal de Educação Infantil Pingo de Gente","tags":"addr:city:Foz do Iguaçu,addr:housenumber:6445,addr:postcode:85.858-512,addr:street:Avenida Republica Argentina,addr:suburb:Cohapar II,amenity:school","lat":-25.5365008,"lng":-54.5310903},{"id":"5303217158","name":"Caixa Econômica Federal","tags":"addr:street:Avenida República Argentina,amenity:bank","lat":-25.5354409,"lng":-54.5540928},{"id":"5303217160","name":"Bradesco","tags":"amenity:bank","lat":-25.5357232,"lng":-54.5538406},{"id":"5303217176","name":"Itaú","tags":"amenity:bank","lat":-25.5354536,"lng":-54.5594814},{"id":"5304596932","name":"Banco Itaú","tags":"addr:city:Ciudad del Este,addr:street:Supercarretera Mariscal Francisco Solano López,amenity:bank,atm:yes,drive_through:yes,opening_hours:Mo-Fr 08:00-17:00","lat":-25.4974946,"lng":-54.6343072},{"id":"5304603351","name":"Kuatiapo S.A","tags":"shop:convenience","lat":-25.4994628,"lng":-54.6340221},{"id":"5304609338","name":"Grupo Ybapyta","tags":"shop:mall","lat":-25.4989842,"lng":-54.631865},{"id":"5304629381","name":"Botica Magistral","tags":"amenity:pharmacy,healthcare:pharmacy","lat":-25.5037041,"lng":-54.6369851},{"id":"5304631878","name":"Artpel","tags":"shop:books","lat":-25.5043195,"lng":-54.6371504},{"id":"5304705178","name":"Restaurante Paraná","tags":"amenity:restaurant","lat":-25.5069526,"lng":-54.6339089},{"id":"5304708480","name":"Universidad Tres Fronteras - UNINTER","tags":"amenity:university","lat":-25.5051288,"lng":-54.633592},{"id":"5304717435","name":"ISPA","tags":"amenity:school","lat":-25.5062178,"lng":-54.6319446},{"id":"5304720742","name":"IMAP S.A.","tags":"amenity:hospital,healthcare:hospital","lat":-25.5076017,"lng":-54.6304307},{"id":"5304740942","name":"Colegio Bertoni","tags":"amenity:school","lat":-25.5036496,"lng":-54.6310849},{"id":"5304752629","name":"Colegio Primer Intendente Municipal","tags":"addr:street:Calle Teniente Adolfo Rojas Silva,amenity:school","lat":-25.5037891,"lng":-54.6291795},{"id":"5304775073","name":"Farmacia San Miguel","tags":"amenity:pharmacy,healthcare:pharmacy","lat":-25.4989155,"lng":-54.6260456},{"id":"5304780877","name":"Link Sevice S.A.","tags":"shop:mall","lat":-25.4975769,"lng":-54.6278791},{"id":"5304786104","name":"Ecuela Nacional San Antonio","tags":"amenity:school","lat":-25.4964534,"lng":-54.6265101},{"id":"5353549747","name":"Colegio Angloamericano Argentino","tags":"addr:city:Puerto Iguazú,addr:postcode:3370,addr:street:Avenida Victoria Aguirre,amenity:school,email:argentinoamericano@arnetbiz.com.ar,official_name:Colegio Angloamericano Argentino SRL 0910,operator:type:private,phone:+54 3757 424150,ref:cue:540115300,ref:cuise:109010","lat":-25.6032374,"lng":-54.5705787},{"id":"5353549810","name":"Crecer","tags":"addr:city:Puerto Iguazú,addr:full:Av San Lorenzo 86 Villa 14 Entre Beltran Y Cordoba,addr:housenumber:86,addr:postcode:3370,addr:street:Avenida San Lorenzo,amenity:school,isced:level:0;1;2,official_name:Crecer Nº 0908,operator:type:private,phone:+54 3757 420669,ref:cue:540115200,ref:cuise:109008,ref:spepm:0908","lat":-25.5950306,"lng":-54.5687036},{"id":"5353549811","name":"Instituto Argentino De Estudios Superiores","tags":"addr:city:Puerto Iguazú,addr:housenumber:138,addr:postcode:3370,addr:street:Avenida Guaraní,amenity:school,email:iaesiguazu@gmail.com;iaesiguazu@hotmail.com,isced:level:5,operator:type:private,phone:+54 3757 423186,ref:cue:540121900,ref:cuise:109014,ref:spepm:0914","lat":-25.5982742,"lng":-54.5678812},{"id":"5375634222","name":"Rys","tags":"addr:city:Puerto Iguazù,addr:country:AR,addr:housenumber:189,addr:street:Avenida República Argentina,amenity:pharmacy,healthcare:pharmacy","lat":-25.6039026,"lng":-54.5747714},{"id":"5378595105","name":"Supercito Glacial","tags":"shop:supermarket","lat":-25.5308038,"lng":-54.6263594},{"id":"5381014891","name":"Gimnasio Fitness Life","tags":"leisure:fitness_centre,sport:fitness","lat":-25.5285722,"lng":-54.6225681},{"id":"5381203598","tags":"amenity:restaurant","lat":-25.5183563,"lng":-54.643827},{"id":"5389876702","name":"Plaza Canindeyu","tags":"leisure:park","lat":-25.5189426,"lng":-54.6386311},{"id":"5389945315","name":"Parque Salto del Guaira","tags":"leisure:park","lat":-25.5147834,"lng":-54.6389674},{"id":"5401368622","name":"Salto Mbocay","tags":"addr:city:Puerto Iguazú,is_in:river:Arroyo Mbocay,name:en:Mbocay Waterfall,natural:cliff,tourism:attraction,waterway:waterfall,wikidata:Q21208410,wikipedia:es:Saltos del Arroyo Mbocay","lat":-25.6467617,"lng":-54.5795694},{"id":"5405800321","name":"La Vaca Enamorada","tags":"addr:housenumber:79,addr:street:Avenida República Argentina,amenity:restaurant","lat":-25.6025937,"lng":-54.5733647},{"id":"5423859024","name":"Full wash Limpieza de automóviles","tags":"addr:housenumber:M20 L28,addr:postcode:7000,addr:street:Ńucunday Norte,amenity:car_wash,email:fullwashdaniel@gmail.com,internet_access:wlan,opening_hours:Mo-Fr 07:00-18:00,phone:+595991454292,website:http://Www.danifullwash.com/","lat":-25.5349279,"lng":-54.629293},{"id":"5427859522","name":"Despensa","tags":"addr:city:Puerto Iguazú,addr:postcode:3370,addr:street:Waldemar Zipp,shop:convenience","lat":-25.6268369,"lng":-54.5546546},{"id":"5431214012","name":"Escuela 954","tags":"addr:city:Puerto Iguazú,addr:postcode:3370,addr:street:Ámbar,amenity:school,official_name:Escuela Provincial Nº 954,operator:type:public,ref:cue:540194600","lat":-25.6444713,"lng":-54.5829011},{"id":"5431675828","name":"Il Fratello","tags":"addr:housenumber:294,addr:street:Gustavo Eppens,amenity:restaurant,cuisine:italian_pizza,internet_access:wlan,phone:+54 3757 42-4157","lat":-25.5983724,"lng":-54.5757692},{"id":"5446373721","name":"La Carrretilla del Vasco","tags":"tourism:attraction","lat":-25.5947917,"lng":-54.5859843},{"id":"5446379221","name":"Memorial Descubridor de las Cataratas","tags":"tourism:attraction","lat":-25.5945188,"lng":-54.5855966},{"id":"5509637023","name":"Instituto San Lucas","tags":"addr:city:Puerto Iguazú,addr:housenumber:78,addr:postcode:3370,addr:street:Los Cedros,amenity:school,email:institutosanlucas@yahoo.com.ar,isced:level:1;2,operator:type:private,phone:+54 3757 422268,ref:cue:540115100,ref:cuise:109007,website:https://www.institutosanlucas.com","lat":-25.60336,"lng":-54.5726985},{"id":"5509637024","name":"Instituto Mariano W. Pachecoy","tags":"addr:city:Puerto Iguazú,addr:housenumber:78,addr:postcode:3370,addr:street:Los Cedros,amenity:school,contact:facebook:https://www.facebook.com/instituto.marianow.pachecoy,email:ini.marianopachecoy@gmail.com,isced:level:0;5,operator:type:private,phone:+54 3757 422268,ref:cue:540144000,ref:spepm:109022,website:https://www.impiguazu.com","lat":-25.6033117,"lng":-54.5728056},{"id":"5512862821","name":"Rockfalls","tags":"amenity:bar,internet_access:wlan","lat":-25.5465827,"lng":-54.585276},{"id":"5514586821","name":"Luna II","tags":"shop:supermarket","lat":-25.5007821,"lng":-54.5567778},{"id":"5516810846","name":"Escola Municipal Professora Josinete Holler A. dos Santos","tags":"addr:city:Foz do Iguaçu,addr:housenumber:5221,addr:postcode:85.860-290,addr:street:Avenida Paraná,addr:suburb:Vila A,amenity:school","lat":-25.5018134,"lng":-54.5750043},{"id":"5523617741","name":"Instituto Esperanza","tags":"addr:city:Puerto Iguazú,addr:postcode:3370,addr:street:Avenida Papa Francisco,amenity:school,description:Educación Especial, Rehabilitación.,isced:level:0;1,official_name:Instituto Esperanza Nº 0913,operator:type:private,phone:+54 3757 420147,ref:cue:540116400,ref:spepm:0913","lat":-25.6187706,"lng":-54.5775001},