[{"id":"4747453293","name":"Escola Estadual de Ensino Médio Gottfried Thomas Westerich","tags":"amenity:school","lat":-27.7477087,"lng":-53.0659076},{"id":"4747453294","tags":"amenity:post_office","lat":-27.7476517,"lng":-53.0657185},{"id":"4747453303","name":"Sicredi","tags":"amenity:bank","lat":-27.7484393,"lng":-53.0601157},{"id":"4835850278","tags":"amenity:school","lat":-27.6018735,"lng":-53.0677608},{"id":"5591302898","name":"Rodoviária de Constantina","tags":"DER:RS:categoria_rodoviaria:quarta,DER:RS:zona_de_fiscalizacao:17,addr:housenumber:711,addr:postcode:99680-000,addr:street:Rua João Mafessoni,addr:suburb:Centro,amenity:bus_station,contact:email:catiasdelatorre@hotmail.com,contact:phone:+55 54 3363-2100;+55 54 3363-1415,network:BR:RS,official_name:Constantina,operator:A. Delatorre & Cia Ltda,public_transport:station,ref:vatin:BR6937652000133","lat":-27.7328563,"lng":-52.9950723},{"id":"5650523930","name":"Estação Rodoviária de Liberato Salzano","tags":"DER:RS:categoria_rodoviaria:quarta,DER:RS:zona_de_fiscalizacao:17,addr:postcode:99690-000,addr:street:Avenida Rio Branco,addr:suburb:Centro,amenity:bus_station,contact:phone:+55 55 3375-1188,network:BR:RS,official_name:Liberato Salzano,operator:Gilson de Carli-Me,public_transport:station,ref:vatin:BR1679160000171","lat":-27.6021221,"lng":-53.0660194},{"id":"5873945534","name":"Rodoviária de Três Palmeiras","tags":"DER:RS:categoria_rodoviaria:quarta,DER:RS:zona_de_fiscalizacao:17,addr:housenumber:1573,addr:postcode:99675-000,addr:street:Avenida das Palmeiras,addr:suburb:Centro,amenity:bus_station,contact:email:rodoviariatp@hotmail.com,contact:phone:+55 54 3367-1246,network:BR:RS,official_name:Três Palmeiras,operator:Laercio Caleffi Valle,public_transport:station,ref:vatin:BR46980725068","lat":-27.6121666,"lng":-52.847363},{"id":"6369443495","tags":"amenity:school","lat":-27.5980316,"lng":-53.0787237},{"id":"6515500284","tags":"amenity:post_office,operator:Correios","lat":-27.615166,"lng":-52.8419638},{"id":"6515503285","tags":"amenity:bank,brand:Banrisul","lat":-27.6167797,"lng":-52.8396276},{"id":"6515503295","tags":"amenity:police,operator:Brigada Militar","lat":-27.6162901,"lng":-52.8432459},{"id":"7060240378","name":"Escola Municipal Herrmann Mayer","tags":"amenity:school","lat":-27.7480606,"lng":-53.0548178}]