[{"id":"5615907957","name":"Rodoviaria de Entre Rios do Sul","tags":"DER:RS:categoria_rodoviaria:quarta,DER:RS:zona_de_fiscalizacao:13,addr:housenumber:581,addr:postcode:99645-000,addr:street:Avenida Danilo Lorenzi,addr:suburb:Centro,amenity:bus_station,contact:phone:+55 54 3544-1132,network:BR:RS,official_name:Entre Rios do Sul,operator:José Capitanio,public_transport:station,ref:vatin:BR11640227091","lat":-27.5294446,"lng":-52.7321488},{"id":"5744405083","tags":"amenity:school","lat":-27.5329407,"lng":-52.7301893},{"id":"5744405084","tags":"amenity:school","lat":-27.5337709,"lng":-52.7298925},{"id":"5744405093","name":"Brigada Militar","tags":"amenity:police","lat":-27.5345617,"lng":-52.7290302},{"id":"5859409607","name":"Rodoviária de São Valentim","tags":"DER:RS:categoria_rodoviaria:quarta,DER:RS:zona_de_fiscalizacao:13,addr:housenumber:914,addr:postcode:99640-000,addr:street:Avenida Castelo Branco,addr:suburb:Centro,amenity:bus_station,contact:email:zanandrea.contabilidade@hotmail.com,contact:phone:+55 54 3373-1267;+55 54 3373-1188,network:BR:RS,official_name:São Valentim,operator:Agência de Viagens Bonafin Ltda,public_transport:station,ref:vatin:BR8315358000115","lat":-27.5586916,"lng":-52.5238994},{"id":"5947225563","tags":"amenity:police","lat":-27.5597973,"lng":-52.5258225},{"id":"6278877855","name":"Mercado Leodorindo Vicari - ME","tags":"addr:city:Itatiba do Sul,addr:housenumber:176,addr:postcode:99760-000,addr:street:Largo do Comércio,addr:suburb:Povoado Tozzo,description:Estrada RS-137 - distante 12 km do Centro da cidade,operator:Leodorindo Vicari,payment:cash:yes,payment:contactless:yes,payment:credit_cards:yes,payment:debit_cards:yes,shop:supermarket,shop_1:convenience","lat":-27.4826728,"lng":-52.4559327},{"id":"6278877857","name":"Escola Estadual de Ensino Fundamental Marieta Tozzo (EEEFMT)","tags":"amenity:school","lat":-27.4834517,"lng":-52.4566666}]