[{"id":"2086822754","tags":"amenity:parking,capacity:3,fee:no,parking:surface","lat":-27.6342261,"lng":-52.2759047},{"id":"2086822812","tags":"amenity:parking,capacity:3,fee:no,parking:surface","lat":-27.6343949,"lng":-52.2754273},{"id":"2086823174","tags":"amenity:parking,capacity:3,fee:no,parking:surface","lat":-27.6365339,"lng":-52.2744102},{"id":"2086823233","tags":"amenity:parking,capacity:3,fee:no,parking:surface","lat":-27.6369343,"lng":-52.2745924},{"id":"3014186443","name":"Master Sonda","tags":"shop:supermarket","lat":-27.6313935,"lng":-52.2739746},{"id":"3014193141","name":"Caitá Supermercados","tags":"shop:supermarket","lat":-27.6316265,"lng":-52.2714306},{"id":"3018005708","name":"Farmácia Altos da Sete","tags":"amenity:pharmacy,healthcare:pharmacy","lat":-27.6477229,"lng":-52.2673771},{"id":"3027375901","tags":"amenity:restaurant,cuisine:regional","lat":-27.6579127,"lng":-52.2791347},{"id":"3959979164","name":"Academia Boa Forma","tags":"addr:housenumber:309,addr:postcode:99700-000,addr:street:Rua Marechal Floriano,leisure:sports_centre,phone:+55 54 3712-5489,website:http://www.boaformaerechim.com.br/","lat":-27.6408741,"lng":-52.2745277},{"id":"4258411574","tags":"amenity:grave_yard","lat":-27.7145139,"lng":-52.2823644},{"id":"4696330023","name":"Tylapias petiscos","tags":"addr:housenumber:466,addr:street:Avenida Amintas Maciel,amenity:restaurant,cuisine:regional,outdoor_seating:yes","lat":-27.6325195,"lng":-52.2691253},{"id":"4696340351","name":"Moving Academia","tags":"addr:city:Erechim,addr:street:Avenida Amintas Maciel,addr:suburb:Centro,leisure:fitness_centre","lat":-27.6330322,"lng":-52.269365},{"id":"5300199023","name":"São José","tags":"amenity:pharmacy,dispensing:yes,healthcare:pharmacy","lat":-27.6413369,"lng":-52.2705529},{"id":"5300199024","name":"Presídio","tags":"amenity:police","lat":-27.6314756,"lng":-52.2635891},{"id":"5300199025","name":"Brigada Militar","tags":"amenity:police","lat":-27.6313558,"lng":-52.2651899},{"id":"5300199126","name":"Sicredi","tags":"amenity:bank,brand:Sicredi,brand:wikidata:Q3483060,brand:wikipedia:pt:Sistema de Crédito Cooperativo","lat":-27.6414349,"lng":-52.2709054},{"id":"5300199129","name":"Polícia Rodoviária Estadual","tags":"amenity:police,police:traffic_police","lat":-27.679216,"lng":-52.2903478},{"id":"5300200524","name":"Caixa econômica federal","tags":"amenity:bank","lat":-27.6397475,"lng":-52.2716086},{"id":"5300200525","name":"Batalhão ambiental","tags":"amenity:police","lat":-27.6320549,"lng":-52.2650175},{"id":"5300209921","name":"Lavagem e Borracharia","tags":"amenity:car_wash","lat":-27.6465698,"lng":-52.2640713},{"id":"5591154294","name":"Rodoviaria de Barão do Cotegipe","tags":"DER:RS:categoria_rodoviaria:quarta,DER:RS:zona_de_fiscalizacao:13,addr:housenumber:276,addr:postcode:99740-000,addr:street:Avenida Angelo Caleff,addr:suburb:Centro,amenity:bus_station,bus:yes,contact:email:edsonrottava@hotmail.com,contact:phone:+55 54 3523-1325,network:BR:RS,official_name:Barão do Cotegipe,operator:Barão de Cotegipe Ind.Com.Repres.Ltda ME,public_transport:station,ref:vatin:BR04.737.331/0001-60","lat":-27.6218679,"lng":-52.3802537},{"id":"5973638861","name":"Praça João Paulo II","tags":"leisure:park","lat":-27.6986189,"lng":-52.0531341},{"id":"6384418257","tags":"amenity:university","lat":-27.6391219,"lng":-52.2922502},{"id":"6384418258","tags":"amenity:library","lat":-27.6395345,"lng":-52.2925777},{"id":"6384425860","name":"Mercado Vitória","tags":"shop:supermarket","lat":-27.6534767,"lng":-52.3088622},{"id":"6384432241","tags":"amenity:university","lat":-27.6402294,"lng":-52.2942029},{"id":"6385525174","name":"Sicredi","tags":"amenity:bank,brand:Sicredi,brand:wikidata:Q3483060,brand:wikipedia:pt:Sistema de Crédito Cooperativo","lat":-27.6404221,"lng":-52.2961656},{"id":"6448516068","tags":"amenity:hospital,healthcare:hospital","lat":-27.619047,"lng":-52.3799211},{"id":"6582590865","name":"Banco do Brasil","tags":"addr:street:Avenida José Oscar Salazar,amenity:bank,brand:Banco do Brasil,brand:wikidata:Q610817,brand:wikipedia:en:Banco do Brasil,short_name:BB","lat":-27.6409057,"lng":-52.2972809},{"id":"6831128467","name":"Cantina","tags":"amenity:cafe","lat":-27.6127754,"lng":-52.2288738},{"id":"7067301880","name":"Caitá Supermercado","tags":"addr:street:Rua Emílio Grando,shop:supermarket","lat":-27.63177,"lng":-52.2714189},{"id":"7644874766","name":"URI Campus Erechim","tags":"amenity:university,website:http://www.uri.br/,wikidata:Q10387862,wikipedia:pt:Universidade Regional Integrada do Alto Uruguai e das Missões","lat":-27.6130629,"lng":-52.2290213},{"id":"8260717454","tags":"leisure:sports_centre,sport:multi","lat":-27.6324971,"lng":-52.2650941},{"id":"8260717455","tags":"leisure:sports_centre,sport:multi","lat":-27.6328711,"lng":-52.2661442},{"id":"9456798881","name":"Studio Eduardo Pasquali","tags":"addr:city:Erechim,addr:housenumber:260,addr:postcode:99700228,addr:street:Rua Euclides da Cunha,addr:suburb:Centro,leisure:fitness_centre,opening_hours:Mo-Su 08:00-22:00,sport:fitness;exercise","lat":-27.642493,"lng":-52.2731033},{"id":"10257935279","name":"UERGS","tags":"addr:city:Erechim,addr:housenumber:250,addr:street:Rua Doutor José Bisognin,addr:suburb:São Cristovão,amenity:university,internet_access:yes,website:https://uergs.edu.br","lat":-27.6483254,"lng":-52.2749807},{"id":"10257935298","name":"EMEI São Cristóvão","tags":"addr:city:Erechim,addr:street:Rua Doutor José Bisognin,addr:suburb:São Cristovão,amenity:school","lat":-27.6496054,"lng":-52.2748747},{"id":"10265774578","name":"Supermercado Triângulo","tags":"addr:city:Erechim,addr:housenumber:816,addr:postcode:99700000,addr:street:Avenida 15 de Novembro,addr:suburb:centro,shop:supermarket","lat":-27.637874,"lng":-52.2652897},{"id":"10265774579","name":"Farmácia vida e saúde","tags":"addr:city:Erechim,addr:housenumber:139,addr:postcode:99700000,addr:street:Rua Jacinto Godoy,addr:suburb:josé bonifácio,amenity:pharmacy,healthcare:pharmacy","lat":-27.6304982,"lng":-52.2638574},{"id":"10274568523","name":"Quadra de Esporte","tags":"leisure:park","lat":-27.6181237,"lng":-52.27729},{"id":"10676254324","name":"Poló de Cultura - ACCIE - Associação Comercial Cultural e Industrial de Erechim","tags":"leisure:park","lat":-27.6639491,"lng":-52.2923981}]