[{"id":"1786273427","name":"Caitá Supermercados","tags":"shop:supermarket","lat":-27.1739637,"lng":-51.5068405},{"id":"1786276160","name":"Polícia Civil","tags":"amenity:police","lat":-27.1722732,"lng":-51.5102147},{"id":"1786279358","name":"Caitá Supermercados","tags":"addr:street:Rua Roberto Trompowiski,shop:supermarket","lat":-27.1745925,"lng":-51.5030624},{"id":"1786279474","name":"CERT","tags":"amenity:school","lat":-27.1753,"lng":-51.5037492},{"id":"1786295914","name":"Caixa","tags":"amenity:bank,atm:yes,operator:Caixa Econômica Federal,short_name:CEF","lat":-27.1729579,"lng":-51.5045458},{"id":"1786296325","name":"Santander","tags":"amenity:bank,brand:Santander,brand:wikidata:Q5835668,brand:wikipedia:en:Santander Bank","lat":-27.1736189,"lng":-51.5062678},{"id":"1786314831","name":"Correios","tags":"amenity:post_office,brand:Correios,brand:wikidata:Q3375004,brand:wikipedia:en:Correios","lat":-27.175146,"lng":-51.5044144},{"id":"1786314836","name":"Sicoob","tags":"amenity:bank,brand:Sicoob,brand:wikidata:Q28679754,brand:wikipedia:pt:Sistema de Cooperativas de Crédito do Brasil","lat":-27.1745961,"lng":-51.5072081},{"id":"1786314838","tags":"amenity:atm","lat":-27.1731989,"lng":-51.5043768},{"id":"1786349823","name":"Itaú","tags":"amenity:bank","lat":-27.173131,"lng":-51.5056494},{"id":"1786349849","name":"Banco do Brasil","tags":"amenity:bank,brand:Banco do Brasil,brand:wikidata:Q610817,brand:wikipedia:en:Banco do Brasil","lat":-27.1726132,"lng":-51.5063924},{"id":"1786365338","tags":"access:private,amenity:parking,capacity:120,operator:Unoesc,parking:surface","lat":-27.1667622,"lng":-51.5188888},{"id":"1786379752","name":"Complexo Esportivo Unoesc","tags":"leisure:sports_centre,sport:multi","lat":-27.1586459,"lng":-51.5238002},{"id":"1786407239","name":"Hospital Universitário Santa Terezinha","tags":"amenity:hospital,healthcare:hospital","lat":-27.1716055,"lng":-51.5064346},{"id":"1788572243","name":"Padre Nóbrega","tags":"amenity:school","lat":-27.1330081,"lng":-51.4655546},{"id":"1788572269","name":"São Francisco","tags":"amenity:school","lat":-27.1307,"lng":-51.461977},{"id":"1788572270","tags":"tourism:museum","lat":-27.1311542,"lng":-51.4614572},{"id":"1788590768","name":"Rampazzo","tags":"amenity:restaurant","lat":-27.1161552,"lng":-51.4655096},{"id":"2361062519","name":"Caixa Econômica Federal","tags":"amenity:bank,atm:no","lat":-27.1727946,"lng":-51.4981481},{"id":"2622161050","name":"Gruta Leãozinho","tags":"historic:wayside_shrine,tourism:attraction","lat":-27.2429562,"lng":-51.6521217},{"id":"3871200992","name":"Delegacia","tags":"amenity:police","lat":-27.1341678,"lng":-51.4669658},{"id":"4141887714","name":"Bradesco","tags":"amenity:bank,brand:Bradesco,brand:wikidata:Q806181,brand:wikipedia:en:Banco Bradesco","lat":-27.1729625,"lng":-51.5039656},{"id":"5282107844","name":"Nair Depilação","tags":"shop:beauty","lat":-27.1723138,"lng":-51.5072599},{"id":"5285971722","name":"UNOESC Campus II","tags":"amenity:university","lat":-27.1593408,"lng":-51.5246224},{"id":"5596948769","name":"Panificadora Tio Padilha","tags":"amenity:cafe","lat":-27.1717437,"lng":-51.5003252},{"id":"6216158731","tags":"amenity:restaurant","lat":-27.1798359,"lng":-51.5220112},{"id":"6216219267","name":"Restaurante Sabor Caseiro","tags":"addr:street:Rodovia Ulysses Guimarães,amenity:restaurant","lat":-27.2435581,"lng":-51.4472607},{"id":"6386851005","name":"UNOESC Campus I","tags":"amenity:university","lat":-27.1680179,"lng":-51.518839},{"id":"6386851006","name":"UNOESC Campus II","tags":"amenity:university","lat":-27.1577377,"lng":-51.5243601},{"id":"8626275114","tags":"amenity:grave_yard","lat":-27.088966,"lng":-51.4966372},{"id":"8626275317","tags":"amenity:grave_yard","lat":-27.0736375,"lng":-51.5657487},{"id":"8626275320","tags":"amenity:grave_yard","lat":-27.11915,"lng":-51.3602333},{"id":"8626275321","tags":"amenity:grave_yard","lat":-27.0995196,"lng":-51.4282095},{"id":"8626275322","tags":"amenity:grave_yard","lat":-27.0952594,"lng":-51.404254},{"id":"8626275349","tags":"amenity:grave_yard","lat":-27.1129636,"lng":-51.5365218},{"id":"8626275357","tags":"amenity:grave_yard","lat":-27.1500154,"lng":-51.480759},{"id":"8626275727","tags":"amenity:grave_yard","lat":-27.2110904,"lng":-51.5382343},{"id":"8626275728","tags":"amenity:grave_yard","lat":-27.1900163,"lng":-51.6265929},{"id":"8626275729","tags":"amenity:grave_yard","lat":-27.1991427,"lng":-51.5841276},{"id":"8626275730","tags":"amenity:grave_yard","lat":-27.1899819,"lng":-51.5617106},{"id":"8626275731","tags":"amenity:grave_yard","lat":-27.1811357,"lng":-51.591233},{"id":"8626275732","tags":"amenity:grave_yard","lat":-27.1626526,"lng":-51.6538992},{"id":"8626275733","tags":"amenity:grave_yard","lat":-27.151546,"lng":-51.620471},{"id":"8626275734","tags":"amenity:grave_yard","lat":-27.1648711,"lng":-51.5592903},{"id":"8626275735","tags":"amenity:grave_yard","lat":-27.1622193,"lng":-51.5624174},{"id":"8626275770","tags":"amenity:grave_yard","lat":-27.220341,"lng":-51.6774008},{"id":"8626275771","tags":"amenity:grave_yard","lat":-27.2295023,"lng":-51.5753557},{"id":"8626275772","tags":"amenity:grave_yard","lat":-27.2024733,"lng":-51.6400331},{"id":"8626522853","name":"Quartel da Polícia Militar","tags":"amenity:police","lat":-27.1862219,"lng":-51.5281844},{"id":"8626582130","tags":"amenity:police","lat":-27.1693747,"lng":-51.4929516},{"id":"8636271434","name":"Biblioteca Pública Municipal Nereu Ramos","tags":"amenity:library","lat":-27.173016,"lng":-51.507354},{"id":"8636271436","name":"Biblioteca Pública Municipal de Herval do Oeste","tags":"amenity:library","lat":-27.1703485,"lng":-51.4946689},{"id":"8636271442","name":"Biblioteca Pública Municipal Castro Alves","tags":"amenity:library","lat":-27.091106,"lng":-51.366806},{"id":"9045604533","tags":"leisure:sports_centre,sport:shooting","lat":-27.1625358,"lng":-51.4675382}]