[{"id":"2894674289","name":"Polícia Militar Saltinho SC","tags":"addr:housenumber:918,addr:postcode:89981-000,addr:street:Avenida Alfredo Jacomo Scopel,amenity:police,level:1,opening_hours:24/7,opening_hours:covid19:restricted,phone:+55 49984355949,website:https://www.pm.sc.gov.br/,wheelchair:yes","lat":-26.6041271,"lng":-53.056975},{"id":"2894674290","name":"Mercado Avenida","tags":"addr:postcode:89981-000,addr:street:Avenida Alfredo Jacomo Scopel,operator:Roque Marafon,shop:convenience","lat":-26.6037107,"lng":-53.0573397},{"id":"2894674298","name":"Escola Emilia Boos Laos Schimit","tags":"access:yes,addr:postcode:89981-000,addr:street:Avenida Alfredo Jacomo Scopel,alt_name:Colégio Estadual Emilia Boos Laos Schimit,amenity:school,official_name:Escola de Educação Básica Emilia Boos Laos Schimit,operator:Governo do Estado de Santa Catarina,operator:type:public,short_name:EEB Emilia Boos Laos Schimit,wheelchair:yes","lat":-26.6073543,"lng":-53.0580434},{"id":"2894674299","name":"Ginásio de Esportes","tags":"addr:postcode:89981-000,addr:street:Avenida Alfredo Jacomo Scopel,building:school,leisure:sports_centre,wheelchair:yes","lat":-26.6068941,"lng":-53.058066},{"id":"2895232743","name":"Acemusa","tags":"addr:postcode:89981-000,leisure:sports_centre","lat":-26.6142892,"lng":-53.0574558},{"id":"2895232770","name":"Mercado Fachin","tags":"addr:postcode:89981-000,addr:street:Rua Hugo Ropke,shop:supermarket,wheelchair:yes","lat":-26.6049033,"lng":-53.059212},{"id":"2895232779","name":"Mercado Super Scopel","tags":"addr:postcode:89981-000,addr:street:Avenida Alfredo Jacomo Scopel,shop:supermarket","lat":-26.6089292,"lng":-53.058179},{"id":"2895232784","name":"Lavagem Veicular","tags":"addr:street:Avenida Alfredo Jacomo Scopel,amenity:car_wash","lat":-26.6095366,"lng":-53.0568977},{"id":"2895232786","name":"Banco do Brasil","tags":"addr:postcode:89981-000,addr:street:Avenida Alfredo Jacomo Scopel,amenity:bank,atm:yes,brand:Banco do Brasil,brand:wikidata:Q610817,brand:wikipedia:en:Banco do Brasil","lat":-26.6088446,"lng":-53.0577181},{"id":"2895232788","name":"Correios","tags":"addr:postcode:89981-000,addr:street:Avenida Alfredo Jacomo Scopel,amenity:post_office,brand:Correios,brand:wikidata:Q3375004,brand:wikipedia:en:Correios","lat":-26.6074528,"lng":-53.0586482},{"id":"2897856009","name":"Alfa","tags":"shop:supermarket","lat":-26.5664102,"lng":-53.0336641},{"id":"2897856010","name":"Colégio Municipal","tags":"addr:street:Linha São Donato,amenity:school","lat":-26.566293,"lng":-53.0328916},{"id":"2897856018","name":"Campo Futebol","tags":"addr:street:Linha São Donato,leisure:sports_centre","lat":-26.5672286,"lng":-53.0311589},{"id":"2898352817","name":"Campo Futebol","tags":"addr:city:Saltinho,addr:street:Linha Trevisan,leisure:sports_centre","lat":-26.5603269,"lng":-53.0839323},{"id":"2898417737","name":"Bar Guapora","tags":"addr:city:saltinho,amenity:bar","lat":-26.5893484,"lng":-52.9805211},{"id":"2898422699","name":"Rodoviária Saltinho","tags":"amenity:bus_station,bus:yes,public_transport:station","lat":-26.6053878,"lng":-53.0586227},{"id":"2898422720","name":"Núcleo Escolar Saltinho","tags":"addr:postcode:89981-000,addr:street:Rua Herica Pfeifer,amenity:school,internet_access:yes,wheelchair:yes","lat":-26.6107991,"lng":-53.0620832},{"id":"2898432439","name":"Biblioteca Pública Municipal Anuar Henrique Piccnin","tags":"amenity:library","lat":-26.6046012,"lng":-53.0569597},{"id":"2900119912","name":"Mercado Cidade Alta","tags":"shop:convenience","lat":-26.6018605,"lng":-53.060052},{"id":"2900119920","name":"Farma Vida","tags":"amenity:pharmacy,healthcare:pharmacy,old_name:Farmácia Popular","lat":-26.6103453,"lng":-53.0566939},{"id":"2900119922","name":"Mercado Bao","tags":"shop:convenience","lat":-26.6101774,"lng":-53.0568173},{"id":"2900119924","name":"Mercado Scopel","tags":"shop:convenience","lat":-26.6081486,"lng":-53.0579277},{"id":"2906184270","name":"Lavação Car","tags":"amenity:car_wash","lat":-26.6067643,"lng":-53.0569649},{"id":"2906213077","name":"Cooper Itaipu","tags":"addr:postcode:89981-000,addr:street:Avenida Alfredo Jacomo Scopel,air_conditioning:yes,email:itaipu07@cooperitaipu.com.br,internet_access:yes,phone:+55 49 3656-0014,ref:vatin:BR83220723000808,shop:supermarket,wheelchair:yes","lat":-26.6119586,"lng":-53.0562098},{"id":"3705056442","tags":"leisure:sports_centre","lat":-26.6061834,"lng":-53.0581587},{"id":"3708669291","tags":"shop:convenience","lat":-26.6457391,"lng":-53.0536992},{"id":"3708669292","tags":"amenity:school","lat":-26.6482402,"lng":-53.0542657},{"id":"3713700322","name":"Sicred","tags":"amenity:bank","lat":-26.6093078,"lng":-53.0582668},{"id":"3775872358","tags":"leisure:sports_centre","lat":-26.6558284,"lng":-52.895757},{"id":"4192302971","tags":"leisure:sports_centre","lat":-26.6470328,"lng":-53.0541734},{"id":"4207417770","name":"Sicoob","tags":"addr:postcode:89981-000,addr:street:Avenida Alfredo Jacomo Scopel,amenity:bank,atm:yes,brand:Sicoob,brand:wikidata:Q28679754,brand:wikipedia:pt:Sistema de Cooperativas de Crédito do Brasil,opening_hours:24/7,wheelchair:yes","lat":-26.6091714,"lng":-53.057821},{"id":"6175493434","name":"Restaurante Panarotto","tags":"amenity:restaurant,cuisine:regional;italian","lat":-26.5712308,"lng":-52.7942442},{"id":"6219685369","name":"Restaurante do Gaúcho","tags":"amenity:restaurant","lat":-26.6494102,"lng":-52.7970273},{"id":"7968763280","name":"TAS Academia","tags":"addr:postcode:89981-000,addr:street:Avenida Alfredo Jacomo Scopel,leisure:fitness_centre,opening_hours:covid19:open,sport:exercise","lat":-26.6068246,"lng":-53.0590548},{"id":"8272542362","name":"Delegacia de Polícia Civil de Saltinho","tags":"addr:postcode:89981-000,addr:street:Avenida Alfredo Jacomo Scopel,addr:suburb:Itaipu,amenity:police,opening_hours:covid19:off,short_name:DPMU,wheelchair:yes","lat":-26.6135474,"lng":-53.0549809},{"id":"8554066883","tags":"amenity:school","lat":-26.6562247,"lng":-52.8945471},{"id":"8554066884","tags":"amenity:school","lat":-26.6568925,"lng":-52.8923428},{"id":"8626246184","tags":"amenity:grave_yard","lat":-26.6650046,"lng":-52.8591481},{"id":"8626246185","tags":"amenity:grave_yard","lat":-26.6084677,"lng":-52.806049},{"id":"8626246187","tags":"amenity:grave_yard","lat":-26.6685824,"lng":-52.8532018},{"id":"8626246188","tags":"amenity:grave_yard","lat":-26.6702361,"lng":-52.8523768},{"id":"8626246189","tags":"amenity:grave_yard","lat":-26.5618483,"lng":-52.8519226},{"id":"8626246194","tags":"amenity:grave_yard","lat":-26.6294931,"lng":-52.858124},{"id":"8626246195","tags":"amenity:grave_yard","lat":-26.5753692,"lng":-52.7393166},{"id":"8626269381","tags":"amenity:grave_yard","lat":-26.6045372,"lng":-53.0186987},{"id":"8626269382","tags":"amenity:grave_yard","lat":-26.6240606,"lng":-53.0804704},{"id":"8626269384","tags":"amenity:grave_yard","lat":-26.6592269,"lng":-53.0148097},{"id":"8626269387","tags":"amenity:grave_yard","lat":-26.7180856,"lng":-52.9214025},{"id":"8626269388","tags":"amenity:grave_yard","lat":-26.6947688,"lng":-52.8999774},{"id":"8626269389","tags":"amenity:grave_yard","lat":-26.6998263,"lng":-52.9115468},{"id":"8626269390","tags":"amenity:grave_yard","lat":-26.6486769,"lng":-52.9466756},{"id":"8626269391","tags":"amenity:grave_yard","lat":-26.7011663,"lng":-53.0037239},{"id":"8626269392","tags":"amenity:grave_yard","lat":-26.6282166,"lng":-53.0046037},{"id":"8626269398","tags":"amenity:grave_yard","lat":-26.6991782,"lng":-52.9559619},{"id":"8626269399","tags":"amenity:grave_yard","lat":-26.6774393,"lng":-52.9193937},{"id":"8626300028","tags":"amenity:grave_yard","lat":-26.5589465,"lng":-53.0345707},{"id":"8626301636","tags":"amenity:grave_yard","lat":-26.7064619,"lng":-52.7818583},{"id":"8636265440","name":"Biblioteca Pública Hélio Antônio Faresin","tags":"amenity:library","lat":-26.648274,"lng":-52.792206},{"id":"10043394729","name":"SA007","tags":"amenity:restaurant,cuisine:brazilian","lat":-26.7183168,"lng":-53.0455924},{"id":"10043421993","name":"SA082","tags":"amenity:grave_yard","lat":-26.6724863,"lng":-53.0540219},{"id":"10043517226","name":"SA093","tags":"reservation:no,tourism:attraction,wheelchair:limited","lat":-26.6731053,"lng":-53.0504559}]