[{"id":"3690721510","name":"Banco do Brasil","tags":"amenity:bank,atm:yes,brand:Banco do Brasil,brand:wikidata:Q610817,brand:wikipedia:en:Banco do Brasil","lat":-26.3971407,"lng":-53.0840123},{"id":"3690722091","name":"Polícia Civil","tags":"amenity:police","lat":-26.3968094,"lng":-53.0833248},{"id":"3690726602","tags":"shop:supermarket","lat":-26.3968716,"lng":-53.0826604},{"id":"3690726649","name":"Escola Emilio G. Medici","tags":"amenity:school","lat":-26.3974206,"lng":-53.0855508},{"id":"3690727424","name":"João Teles Padilha","tags":"amenity:school","lat":-26.3902548,"lng":-53.0804932},{"id":"3702109288","name":"Polícia Militar","tags":"amenity:police","lat":-26.4757229,"lng":-52.9636608},{"id":"3702961267","name":"Escola São João","tags":"amenity:school","lat":-26.4639962,"lng":-53.0365736},{"id":"3703065834","tags":"amenity:school","lat":-26.4735593,"lng":-52.9652946},{"id":"3703315693","tags":"amenity:restaurant","lat":-26.5349584,"lng":-53.0657887},{"id":"3708699572","tags":"leisure:sports_centre","lat":-26.3953215,"lng":-53.0847056},{"id":"3708699574","tags":"amenity:school","lat":-26.3907565,"lng":-53.0682904},{"id":"3708699581","tags":"leisure:sports_centre","lat":-26.3922442,"lng":-53.0730954},{"id":"3708699588","name":"Mercado Viega","tags":"shop:convenience","lat":-26.3933706,"lng":-53.0721314},{"id":"3721544576","tags":"leisure:sports_centre","lat":-26.4586303,"lng":-52.9755831},{"id":"3721545346","name":"Bar e Restaurante do Chico","tags":"amenity:restaurant","lat":-26.4716684,"lng":-52.965557},{"id":"3721566292","name":"Sicoob Maxicredito","tags":"amenity:bank","lat":-26.4730274,"lng":-52.9665226},{"id":"3721581065","tags":"amenity:pharmacy,healthcare:pharmacy","lat":-26.4723143,"lng":-52.9661175},{"id":"3735308464","tags":"amenity:nightclub","lat":-26.3965541,"lng":-53.0572816},{"id":"6175820696","name":"Alfa - Supermercado","tags":"shop:supermarket","lat":-26.5025763,"lng":-52.8148002},{"id":"6231259774","name":"Superalfa","tags":"shop:supermarket","lat":-26.4468405,"lng":-52.8312273},{"id":"6231259989","name":"Farmácia severin","tags":"amenity:pharmacy,healthcare:pharmacy","lat":-26.4419229,"lng":-52.8370658},{"id":"6243885836","name":"Centro Esportivo municipal","tags":"leisure:sports_centre","lat":-26.441054,"lng":-52.8370095},{"id":"6243885890","name":"Agência Siccob","tags":"amenity:bank","lat":-26.4473284,"lng":-52.8312685},{"id":"6249956446","name":"Cemitério","tags":"amenity:grave_yard","lat":-26.4828591,"lng":-52.9989415},{"id":"6249956449","name":"Rodoviária","tags":"amenity:bus_station,bus:yes,public_transport:station","lat":-26.4718007,"lng":-52.9650154},{"id":"6277078253","name":"Cedup","tags":"amenity:school","lat":-26.4462385,"lng":-53.0807679},{"id":"6312780993","name":"Correios","tags":"amenity:post_office,brand:Correios,brand:wikidata:Q3375004,brand:wikipedia:en:Correios","lat":-26.3928355,"lng":-53.0782551},{"id":"6556487618","tags":"amenity:grave_yard","lat":-26.3959088,"lng":-52.8580349},{"id":"8626246182","tags":"amenity:grave_yard","lat":-26.501351,"lng":-52.8155929},{"id":"8626246183","tags":"amenity:grave_yard","lat":-26.5337937,"lng":-52.8457667},{"id":"8626246190","tags":"amenity:grave_yard","lat":-26.5322461,"lng":-52.8054897},{"id":"8626284040","tags":"amenity:grave_yard","lat":-26.4556906,"lng":-52.889439},{"id":"8626284045","tags":"amenity:grave_yard","lat":-26.4275598,"lng":-52.7503419},{"id":"8626284049","tags":"amenity:grave_yard","lat":-26.3714839,"lng":-52.8918051},{"id":"8626300023","tags":"amenity:grave_yard","lat":-26.4603549,"lng":-53.0368951},{"id":"8626300024","tags":"amenity:grave_yard","lat":-26.4977402,"lng":-53.0110517},{"id":"8626300027","tags":"amenity:grave_yard","lat":-26.4327989,"lng":-52.9677363},{"id":"8626300037","tags":"amenity:grave_yard","lat":-26.4950072,"lng":-53.0657486},{"id":"8626300040","tags":"amenity:grave_yard","lat":-26.4117399,"lng":-52.9947874},{"id":"8626300048","tags":"amenity:grave_yard","lat":-26.4423897,"lng":-52.9915261},{"id":"8626614699","name":"Estação Rodoviária de Campo Erê","tags":"amenity:bus_station,public_transport:station","lat":-26.3959155,"lng":-53.0828885},{"id":"8627200855","name":"Assembléia de Deus","tags":"amenity:place_of_worship,building:church,denomination:pentecostal,religion:christian","lat":-26.3914059,"lng":-53.0806587},{"id":"8636279117","name":"Biblioteca Pública Municipal Ari Mendes","tags":"amenity:library","lat":-26.447696,"lng":-52.833551},{"id":"8636279118","name":"Biblioteca Pública Municipal de São Bernardino","tags":"amenity:library","lat":-26.472791,"lng":-52.965189}]