[{"id":"1341687114","name":"Hospital Municipal São João Batista","tags":"amenity:hospital,healthcare:hospital","lat":-26.4737274,"lng":-51.1530623},{"id":"1341687121","name":"Dom Daniel Hostin","tags":"amenity:school","lat":-26.4733081,"lng":-51.1485217},{"id":"1358358866","name":"Panela de Barro","tags":"amenity:restaurant","lat":-26.4733797,"lng":-51.151507},{"id":"1358358871","name":"Mercado Bertotti","tags":"shop:supermarket","lat":-26.4737046,"lng":-51.1516566},{"id":"1358358876","name":"Restaurante Tibes","tags":"amenity:restaurant","lat":-26.4748714,"lng":-51.1532935},{"id":"5096009471","name":"Rodoviária","tags":"amenity:bus_station,bus:yes,public_transport:station","lat":-26.4240408,"lng":-51.3149377},{"id":"8626273427","tags":"amenity:grave_yard","lat":-26.4070429,"lng":-51.0299201},{"id":"8626273430","tags":"amenity:grave_yard","lat":-26.3716172,"lng":-51.2194406},{"id":"8626273432","tags":"amenity:grave_yard","lat":-26.4116452,"lng":-51.0857581},{"id":"8626273435","tags":"amenity:grave_yard","lat":-26.3794527,"lng":-51.0353471},{"id":"8626273436","tags":"amenity:grave_yard","lat":-26.3759412,"lng":-50.9890539},{"id":"8636255929","name":"Biblioteca Pública Municipal Anita Garibaldi","tags":"amenity:library","lat":-26.4735323,"lng":-51.151234},{"id":"8638215265","name":"Sociedade de Cantos Aurora","tags":"leisure:sports_centre","lat":-26.3785509,"lng":-50.9904182},{"id":"8638215920","name":"Sociedade Recreativa, Cultural e de Atiradores de São Miguel","tags":"leisure:sports_centre","lat":-26.3752717,"lng":-51.0786041},{"id":"2630667585","name":"Salto do Rio dos Pardos","tags":"height:72,tourism:attraction,waterway:waterfall","lat":-26.4304878,"lng":-50.9799119}]