[{"id":"2537337948","name":"Unidade S´aúde São Roque","tags":"amenity:hospital,emergency:no,healthcare:hospital","lat":-24.9902255,"lng":-54.2158972},{"id":"4251890499","name":"Banco do Brasil","tags":"amenity:bank,brand:Banco do Brasil,brand:wikidata:Q610817,brand:wikipedia:en:Banco do Brasil","lat":-25.0914082,"lng":-54.2463301},{"id":"4251890502","name":"Rodoviária de Missal","tags":"amenity:bus_station,bus:yes,public_transport:station","lat":-25.0949132,"lng":-54.2482058},{"id":"4251890507","name":"Hospital Nossa Senhora de Fátima","tags":"addr:city:Missal,addr:housenumber:753,addr:postcode:85890-000,addr:street:Rua 7 de Setembro,addr:suburb:Centro,amenity:hospital,emergency:yes,healthcare:hospital,phone:+55 45 32441390","lat":-25.0937107,"lng":-54.2474198},{"id":"6677738569","name":"Colégio Estadual Padre Eduardo Michelis","tags":"addr:city:Missal,addr:housenumber:46,addr:postcode:85.890-000,addr:street:Rua Nossa Senhora da Luz,addr:suburb:Centro,amenity:school,website:http://www.mlweduardomichelis.seed.pr.gov.br/modules/conteudo/conteudo.php?conteudo=1","lat":-25.0896627,"lng":-54.2473145},{"id":"6688003035","name":"Escola Estadual do Campo Santos Dumont","tags":"addr:city:Missal,addr:postcode:85.890-000,addr:street:Rua Principal,addr:suburb:Linha São Pedro,amenity:school,website:http://www.mlwsantosdumont.seed.pr.gov.br/modules/liaise/","lat":-25.0896635,"lng":-54.207265},{"id":"6688085902","name":"Escola Estadual do Campo Tancredo Neves","tags":"addr:city:Missal,addr:housenumber:200,addr:postcode:85.890-000,addr:street:Rua Antônio Follmann,addr:suburb:Distrito Dom Armando,amenity:school,website:http://www.mlwtancredoneves.seed.pr.gov.br/modules/liaise/","lat":-25.0361838,"lng":-54.2465037},{"id":"6688172612","name":"Escola de Educação Especial Maria Goretti","tags":"addr:city:Missal,addr:housenumber:755,addr:postcode:85.890-000,addr:street:Rua do Imigrante,addr:suburb:Centro,amenity:school,website:http://www.mlwmariagoretti.seed.pr.gov.br/modules/liaise/","lat":-25.0928117,"lng":-54.252249},{"id":"9366375768","name":"Unip Itaipulândia","tags":"amenity:university,phone:+55 45 3559-1395,website:https://www.unip.br/ead/processoseletivo/polos","lat":-25.1365146,"lng":-54.3014943}]