[{"id":"2527468279","name":"Terminal de Omnibus de Salto Del Guaira","tags":"amenity:bus_station,bus:yes,public_transport:station","lat":-24.067564,"lng":-54.3043601},{"id":"4337830025","name":"Polícia Rodoviária Federal","tags":"amenity:police,opening_hours:24/7,operator:Polícia Rodoviária Federal,operator:wikidata:Q1158853,operator:wikipedia:pt:Polícia Rodoviária Federal,phone:+55 41 3535 2161,police:traffic_police","lat":-24.0737538,"lng":-54.245226},{"id":"4555681711","tags":"amenity:ferry_terminal,ferry:yes,public_transport:station","lat":-24.0648976,"lng":-54.2973593},{"id":"4555681715","name":"Balsa","tags":"amenity:ferry_terminal,ferry:yes,public_transport:station","lat":-24.0772222,"lng":-54.2713342},{"id":"5258439109","tags":"shop:supermarket","lat":-24.0785594,"lng":-54.242731},{"id":"5596866921","tags":"amenity:bus_station","lat":-23.9393437,"lng":-54.2793229},{"id":"5998627307","name":"Polícia Rodoviária Federal","tags":"amenity:police,opening_hours:24/7,operator:Polícia Rodoviária Federal,operator:wikidata:Q1158853,operator:wikipedia:pt:Polícia Rodoviária Federal,phone:+55 67 3320 3756,police:traffic_police","lat":-23.9066406,"lng":-54.2991242},{"id":"6462949403","name":"Puesto Policial N° 11 Palmeriña","tags":"addr:district:Canindeyu,addr:province:Salto Del Guaira,amenity:police,official_name:Puesto Policial N° 11 Palmeriña,operator:Ministerio del Interior","lat":-23.990769,"lng":-54.4836818},{"id":"6462949456","name":"Comisaría 1ra Canindeyu","tags":"addr:district:Canindeyu,addr:province:Salto Del Guaira,amenity:police,official_name:Comisaría 1ra Canindeyu,operator:Ministerio del Interior","lat":-24.0397388,"lng":-54.3565328},{"id":"6462949514","name":"Policía Nacional","tags":"addr:district:Canindeyu,addr:province:Salto Del Guaira,amenity:police,official_name:Policía Nacional,operator:Ministerio del Interior","lat":-24.0701319,"lng":-54.3127606},{"id":"6462949519","name":"Jefatura Policial 4 Zona Canindeyu","tags":"addr:district:Canindeyu,addr:province:Salto Del Guaira,amenity:police,official_name:Jefatura Policial 4 Zona Canindeyu,operator:Ministerio del Interior","lat":-24.0558499,"lng":-54.304068},{"id":"6462949522","name":"Puesto Policial N° 5 Barrio San Pedro","tags":"addr:district:Canindeyu,addr:province:Salto Del Guaira,amenity:police,official_name:Puesto Policial N° 5 Barrio San Pedro,operator:Ministerio del Interior","lat":-24.0478006,"lng":-54.3124843},{"id":"6462949524","name":"Sub Comisaría Fracción Salto Del Guaira","tags":"addr:district:Canindeyu,addr:province:Salto Del Guaira,amenity:police,official_name:Sub Comisaría Fraccion Salto Del Guaira,operator:Ministerio del Interior","lat":-24.0611453,"lng":-54.3266038},{"id":"6462949571","name":"Policía Nacional Deparamento de Identificaciones","tags":"addr:district:Canindeyu,addr:province:Salto Del Guaira,amenity:police,official_name:Policía Nacional Dpto De Identificaciones,operator:Ministerio del Interior","lat":-24.061109,"lng":-54.3036937},{"id":"9809784137","name":"Facultad de Ciencias Economicas y Empresariales - UNICAN","tags":"amenity:university","lat":-24.0729005,"lng":-54.3071406}]