[{"id":"1042067118","name":"São Luiz","tags":"aeroway:aerodrome","lat":-24.2625008,"lng":-52.7922211},{"id":"3806764347","name":"Estação Rodoviária de Juranda","tags":"amenity:bus_station,bus:yes,public_transport:station","lat":-24.4214109,"lng":-52.8437352},{"id":"5231565186","name":"Restaurante Pousada","tags":"amenity:restaurant","lat":-24.3555612,"lng":-52.7428789},{"id":"5718367842","name":"Churrascaria Baron Grill","tags":"amenity:restaurant","lat":-24.409453,"lng":-52.8179806},{"id":"8308491309","name":"Banco do Brasil","tags":"addr:city:Juranda,addr:housenumber:702,addr:street:Avenida Brasil,addr:suburb:Centro,amenity:bank,atm:yes,brand:Banco do Brasil,brand:wikidata:Q610817,brand:wikipedia:en:Banco do Brasil,opening_hours:Mo-Fr 09:00-15:00,phone:+55 44 4003 3001","lat":-24.4213657,"lng":-52.8443649}]