[{"id":"2843252995","name":"Hospital Municipal Sagrado Coração de Jesus","tags":"amenity:hospital,healthcare:hospital","lat":-23.1885429,"lng":-52.1959307},{"id":"4413615492","name":"Master Petiscaria","tags":"addr:housenumber:46,addr:street:Rua Dom Pedro II,amenity:restaurant,cuisine:burger;fish;oriental;sandwich;hot_dog;international;ice_cream;noodles;chicken;fish_and_chips;barbecue,email:silvin.oliveira@icloud.com,internet_access:wlan,name:pt:Master Petiscaria,opening_hours:Mo-Su 16:00-00:00,phone:+55 44 9 9700 7562","lat":-23.1937315,"lng":-52.1951455},{"id":"7083157955","name":"Sicredi","tags":"addr:street:Rua Princesa Isabel,amenity:bank,atm:yes,brand:Sicredi,brand:wikidata:Q3483060,brand:wikipedia:pt:Sistema de Crédito Cooperativo","lat":-23.131293,"lng":-52.3207702},{"id":"8307674377","name":"Banco do Brasil","tags":"addr:city:Nova Esperança,addr:housenumber:501,addr:street:Avenida 14 de Dezembro,addr:suburb:Centro,amenity:bank,atm:yes,brand:Banco do Brasil,brand:wikidata:Q610817,brand:wikipedia:en:Banco do Brasil,phone:+55 44 4003 3001","lat":-23.184008,"lng":-52.2041456},{"id":"9049513278","tags":"amenity:police,opening_hours:24/7,operator:Polícia Rodoviária Federal,operator:wikidata:Q1158853,operator:wikipedia:pt:Polícia Rodoviária Federal,phone:+55 44 9 9173 5307","lat":-23.1045454,"lng":-52.3508902}]