[{"id":"359075479","tags":"amenity:parking,parking:surface","lat":-23.3592596,"lng":-51.2311299},{"id":"360037918","name":"Planetário de Londrina","tags":"tourism:attraction","lat":-23.3081171,"lng":-51.1587039},{"id":"361223532","name":"Londtran - Escola de Trânsito de Londrina","tags":"amenity:school,building:yes","lat":-23.3054117,"lng":-51.1632968},{"id":"364112602","name":"Carrefour","tags":"shop:supermarket","lat":-23.3410684,"lng":-51.1865687},{"id":"364112603","name":"Agência dos Correios Catuaí","tags":"amenity:post_office","lat":-23.3413999,"lng":-51.1858355},{"id":"364113430","name":"Pesque-Pague Ishikawa","tags":"amenity:restaurant,cuisine:regional","lat":-23.3581202,"lng":-51.2320071},{"id":"369612774","tags":"amenity:school","lat":-23.3085531,"lng":-51.1583801},{"id":"1042082778","name":"Aeroporto 14 bis","tags":"aeroway:aerodrome,icao:SSOK,internet_access:customers,light_source:aviation,operator:Privado,wikidata:Q16144867","lat":-23.2137058,"lng":-51.1818435},{"id":"1475128467","name":"Agencia dos Correios","tags":"amenity:post_office","lat":-23.3182629,"lng":-51.211417},{"id":"1619245532","name":"Cambé","tags":"public_transport:station,railway:station","lat":-23.2762638,"lng":-51.2792806},{"id":"1639325506","name":"Antiga Estação Ferroviária de Jataizinho","tags":"public_transport:station,railway:station","lat":-23.2527929,"lng":-50.981167},{"id":"1707850512","name":"Dá Licença","tags":"amenity:restaurant","lat":-23.3130335,"lng":-51.1615914},{"id":"1707850566","name":"Recanto de Minas","tags":"amenity:restaurant","lat":-23.3195429,"lng":-51.1697124},{"id":"1712139499","name":"Capricho","tags":"shop:books","lat":-23.3107187,"lng":-51.1562082},{"id":"1712139536","tags":"amenity:post_office","lat":-23.3070402,"lng":-51.1671209},{"id":"1712139539","tags":"amenity:parking,fee:yes","lat":-23.3092552,"lng":-51.1560433},{"id":"1712139543","tags":"amenity:parking,fee:yes","lat":-23.3101141,"lng":-51.1566777},{"id":"1712139621","name":"Restaurante Vegetariana","tags":"amenity:restaurant,diet:vegetarian:only","lat":-23.3118607,"lng":-51.1557372},{"id":"1712148149","name":"Super Muffato","tags":"shop:supermarket","lat":-23.3354324,"lng":-51.1742277},{"id":"1715214153","name":"Jardim Botánico de Londrina","tags":"leisure:garden,opening_hours:We-Su 09:00-19:00,tourism:attraction","lat":-23.3624247,"lng":-51.1755424},{"id":"1757969725","name":"Viscard","tags":"shop:supermarket","lat":-23.3436614,"lng":-51.14714},{"id":"1768858868","name":"Terminal do Vivi Xavier","tags":"amenity:bus_station","lat":-23.2607207,"lng":-51.172653},{"id":"2063682089","name":"Apoti - Consultoria em Arqueologia e Patrimônio Cultural","tags":"addr:housenumber:102,addr:postcode:86065-420,addr:street:Rua Serra dágua,description:Empresa especializada em consultoria arqueológica e patrimônio cultural,email:apoticonsultoria@gmail.com,phone:+55 (43) 3304-9121;+55 (43) 9652-4301,shop:convenience,website:http://apoticonsultoria.org","lat":-23.3076846,"lng":-51.20779},{"id":"2225607695","name":"Supermercado Cambará","tags":"addr:housename:Cambará,addr:housenumber:123,addr:postcode:86038-000,addr:street:Avenida do Café,shop:supermarket","lat":-23.3239953,"lng":-51.136628},{"id":"2225630024","name":"Academia Power Fit","tags":"leisure:sports_centre","lat":-23.3134759,"lng":-51.1176841},{"id":"2225656445","name":"Hospital Universitário","tags":"amenity:hospital","lat":-23.3263672,"lng":-51.128749},{"id":"2296397094","name":"Colégio Universitário","tags":"addr:city:Londrina, Paraná,addr:housename:Colégio Universitário,addr:housenumber:250,addr:postcode:86060-020,addr:street:Rua Anna Morena de Mello Menezes,amenity:school,school:Colégio Universitário","lat":-23.3241823,"lng":-51.1733737},{"id":"2341229505","tags":"amenity:car_wash","lat":-23.3017788,"lng":-51.17324},{"id":"2341263886","tags":"amenity:parking,fee:yes,parking:underground,supervised:yes","lat":-23.3122524,"lng":-51.1593443},{"id":"2341264481","tags":"shop:convenience","lat":-23.3139595,"lng":-51.1773107},{"id":"2395557666","name":"Auto Posto Água Branca","tags":"addr:street:Rodovia Melo Peixoto,amenity:fuel,brand:Ipiranga,shop:convenience","lat":-23.2587123,"lng":-50.981326},{"id":"2432339942","name":"Polícia Rodoviária Federal","tags":"amenity:police,opening_hours:24/7,operator:Polícia Rodoviária Federal,operator:wikidata:Q1158853,operator:wikipedia:pt:Polícia Rodoviária Federal,phone:+55 41 3535 2171,police:traffic_police","lat":-23.2623399,"lng":-50.9934232},{"id":"2596087097","name":"Dojo Oguido","tags":"leisure:sports_centre","lat":-23.3069412,"lng":-51.1666525},{"id":"2604432138","name":"Fábrica do Pastel","tags":"amenity:restaurant","lat":-23.3051882,"lng":-51.1682979},{"id":"2605151026","name":"Nadyne II","tags":"addr:city:Londrina,addr:housenumber:1896,addr:postcode:86080-830,addr:street:Avenida Bento Amaral Monteiro,shop:supermarket","lat":-23.2470587,"lng":-51.1480778},{"id":"2641876864","tags":"amenity:atm","lat":-23.3350501,"lng":-51.1741427},{"id":"2652523324","tags":"amenity:restaurant","lat":-23.3427409,"lng":-51.185913},{"id":"2652523328","tags":"amenity:restaurant","lat":-23.3428317,"lng":-51.185731},{"id":"2657902800","name":"Bambuzal","tags":"tourism:attraction","lat":-23.3668722,"lng":-51.1728071},{"id":"2657902801","name":"Bomba da água","tags":"tourism:attraction","lat":-23.3663426,"lng":-51.1719191},{"id":"2657950612","name":"Arboreto","tags":"tourism:attraction","lat":-23.3637403,"lng":-51.1747214},{"id":"2657950614","name":"Centro de visitantes","tags":"tourism:attraction","lat":-23.3631748,"lng":-51.1752216},{"id":"2910188275","name":"Caixa Econômica Federal","tags":"amenity:bank,atm:yes,entrance:yes","lat":-23.3249892,"lng":-51.2001219},{"id":"2957170295","name":"Body by Brazil","tags":"addr:city:Londrina,addr:housenumber:1122,addr:postcode:86010-450,addr:street:Rua Pará,addr:suburb:Centro,leisure:sports_centre,opening_hours:Mo-Fr 06:00-22:30; Sa 14:00-18:00,phone:+55 43 3337 1122,website:www.facebook.com/BodybyBrasil/","lat":-23.3142966,"lng":-51.1622425},{"id":"3172052421","name":"Transformers Cabeleireiro","tags":"addr:city:Cambé,addr:housenumber:358,addr:street:Avenida Jacomo Rossini,addr:suburb:Ana Rosa,opening_hours:Mo-Fr 14:00-19:00; Sa 09:00-19:00,shop:beauty","lat":-23.2750771,"lng":-51.2506578},{"id":"3270286900","name":"Rancho San Fernando","tags":"addr:city:Londrina,addr:housenumber:54,addr:postcode:86106000,addr:street:Rua São Paulo,addr:suburb:Distrito do Espírito Santo,amenity:restaurant,capacity:300,cuisine:regional,smoking:no","lat":-23.3732188,"lng":-51.2134498},{"id":"3428547103","name":"Super Prochet - Mercado","tags":"addr:city:Londrina,addr:housenumber:1330,addr:postcode:86047-040,addr:street:Avenida Harry Prochet,addr:suburb:Jardim São Jorge,phone:+55 (43) 33421050,shop:supermarket","lat":-23.3483939,"lng":-51.1665291},{"id":"3460473386","name":"Restaurante Mineiro","tags":"addr:city:Londrina,addr:street:Rua Senador Souza Naves,addr:suburb:Centro,amenity:restaurant,cuisine:regional","lat":-23.3150552,"lng":-51.1575574},{"id":"3470670208","name":"Mercado do Paraiba","tags":"shop:supermarket","lat":-23.327168,"lng":-51.2262724},{"id":"3470670209","tags":"shop:supermarket","lat":-23.3272883,"lng":-51.2262579},{"id":"3470670210","tags":"shop:supermarket","lat":-23.3275756,"lng":-51.2252463},{"id":"3470670211","tags":"amenity:bar","lat":-23.3267203,"lng":-51.2264471},{"id":"3470670212","tags":"amenity:bar","lat":-23.3278095,"lng":-51.2258867},{"id":"3508973279","name":"Café Pistelli","tags":"addr:housenumber:2575,addr:street:Avenida Duque de Caxias,amenity:cafe,cuisine:sandwich,internet_access:yes,opening_hours:08:00-19:00,phone:+55 43 33792207,smoking:no","lat":-23.3196881,"lng":-51.1552827},{"id":"3554420423","tags":"addr:city:Londrina,addr:postcode:86010-160,addr:street:Rua Senador Souza Naves,addr:suburb:Centro,amenity:parking,capacity:32,supervised:yes","lat":-23.3224313,"lng":-51.1577605},{"id":"3585835009","name":"Super Golf","tags":"shop:supermarket","lat":-23.2580339,"lng":-51.1566246},{"id":"3585835015","name":"Polícia Militar - Trigéssimo Batalhão de Policia Militar","tags":"addr:city:Londrina,addr:street:Rua Odilon Braga,amenity:police,operator:Estado do Paraná","lat":-23.2579831,"lng":-51.154632},{"id":"3786949247","name":"Polícia Rodoviária Federal","tags":"amenity:police,opening_hours:Mo-Fr 08:00-17:00,operator:Polícia Rodoviária Federal,operator:wikidata:Q1158853,operator:wikipedia:pt:Polícia Rodoviária Federal,phone:+55 41 3535 2170","lat":-23.2868808,"lng":-51.2104245},{"id":"3788206064","name":"KINO Restaurante","tags":"amenity:restaurant,cuisine:chinese,delivery:yes","lat":-23.2828318,"lng":-51.1910749},{"id":"3788212477","name":"Brasão Pizza","tags":"amenity:restaurant,cuisine:pizza,delivery:yes","lat":-23.2824917,"lng":-51.1880396},{"id":"3788234997","tags":"amenity:bar,operator:Jose","lat":-23.2820534,"lng":-51.1904798},{"id":"3788237458","tags":"amenity:cafe,cuisine:Padaria,internet_access:yes","lat":-23.2820897,"lng":-51.1906178},{"id":"3788242440","tags":"shop:supermarket","lat":-23.2818773,"lng":-51.1906361},{"id":"3788391479","name":"Academia só Mulher","tags":"leisure:sports_centre,sport:Academia","lat":-23.2825346,"lng":-51.1890836},{"id":"3788394937","name":"Galeria Figueira","tags":"shop:mall","lat":-23.2829899,"lng":-51.1964836},{"id":"3788399538","tags":"leisure:sports_centre","lat":-23.2829054,"lng":-51.1964836},{"id":"3791449323","name":"Supermercado Super Golff","tags":"opening_hours:Mo-Su,PH 08:00-20:30,shop:supermarket","lat":-23.2842673,"lng":-51.1978879},{"id":"3791898718","name":"Terminal Acapulco","tags":"amenity:bus_station","lat":-23.3602844,"lng":-51.1552632},{"id":"3793649500","name":"BIC Banco","tags":"addr:city:Londrina,addr:housenumber:488,addr:postcode:86020-080,addr:street:Avenida Higienópolis,addr:suburb:Centro,amenity:bank,email:ag.londrina@bicbanco.com.br,phone:+55 43 2101 7800,website:www.bicbanco.com.br","lat":-23.314285,"lng":-51.1656497},{"id":"3810451485","name":"Preço Popular","tags":"addr:city:Londrina,addr:street:Rua Maranhão,addr:suburb:Centro,amenity:pharmacy","lat":-23.3108645,"lng":-51.1582707},{"id":"3823455457","name":"Colégio Estadual Hugo Simas","tags":"addr:city:Londrina,addr:housenumber:195,addr:street:Rua Pio XII,addr:suburb:Centro,amenity:school","lat":-23.3121872,"lng":-51.1633622},{"id":"3966772808","name":"Hospital Zona Norte","tags":"amenity:hospital","lat":-23.2594608,"lng":-51.1539617},{"id":"4316132391","name":"colegio Interativa","tags":"addr:housenumber:377,addr:street:Rua Ivai,amenity:school","lat":-23.299247,"lng":-51.1664122},{"id":"4412009062","name":"Super Golff","tags":"shop:supermarket","lat":-23.2670807,"lng":-51.1750959},{"id":"4492209189","name":"Ponto do Sabor","tags":"addr:housenumber:1819,addr:street:Rua Goiás,amenity:restaurant","lat":-23.3156427,"lng":-51.169119},{"id":"4500158790","name":"Niwa Sushi","tags":"addr:housenumber:1825,addr:street:Rua Pará,amenity:restaurant,cuisine:japanese,website:http://www.sushiniwa.com.br","lat":-23.3145006,"lng":-51.1690817},{"id":"4500170992","name":"Churrascaria Galpão Nelore","tags":"addr:housenumber:891,addr:postcode:86020-080,addr:street:Avenida Higienópolis,amenity:restaurant,cuisine:steak_house,internet_access:wlan,name:en:Galpão Nelore Steakhouse,website:http://galpaonelore.com.br","lat":-23.317736,"lng":-51.1653407},{"id":"4510279696","name":"Hospital Santa Terezinha","tags":"addr:city:Ibiporã,addr:housenumber:266,addr:postcode:86280-000,addr:street:Avenida José Bonifácio,addr:suburb:Centro,amenity:hospital,emergency:yes","lat":-23.2683359,"lng":-51.0450963},{"id":"4510279698","name":"Terminal Rodoviário José de Rocha Guedes","tags":"addr:city:Ibiporã,addr:postcode:86280-000,addr:street:Rua Serafim Nunes Dinis,addr:suburb:Centro,amenity:bus_station,internet_access:yes,internet_access:fee:no,operator:Viação Garcia","lat":-23.2681794,"lng":-51.0437691},{"id":"4511364183","name":"Bradesco","tags":"addr:city:Ibiporã,addr:postcode:86200-000,addr:street:Avenida Paraná,addr:suburb:Centro,amenity:bank,atm:yes,brand:Bradesco,brand:wikidata:Q806181,brand:wikipedia:en:Banco Bradesco","lat":-23.2691908,"lng":-51.0452463},{"id":"4511364185","name":"Sicredi","tags":"addr:city:Ibiporâ,addr:housenumber:242,addr:postcode:86200-000,addr:street:Avenida Santos Dumont,addr:suburb:Centro,amenity:bank,atm:yes,brand:Sicredi,brand:wikidata:Q3483060","lat":-23.2699652,"lng":-51.0494469},{"id":"4511364186","name":"Sicoob","tags":"addr:city:Ibiporâ,addr:housenumber:529,addr:postcode:86200-000,addr:street:Avenida Manuel Ribas,addr:suburb:Centro,amenity:atm,atm:yes,brand:Sicoob,brand:wikidata:Q28679754,operator:Sicoob,operator:wikidata:Q28679754","lat":-23.2705701,"lng":-51.0496057},{"id":"4511364187","name":"Banco Itaú","tags":"addr:street:Avenida Paraná,amenity:bank,atm:yes","lat":-23.2690857,"lng":-51.0460028},{"id":"4511391189","name":"Drogamais","tags":"addr:street:Avenida Paraná,amenity:pharmacy,healthcare:pharmacy","lat":-23.2691254,"lng":-51.0457133},{"id":"4511391190","name":"Farmacias DrogaMais","tags":"addr:city:Ibiporâ,addr:postcode:86200-000,addr:street:Rua Dezenove de Dezembro,addr:suburb:Centro,amenity:pharmacy,healthcare:pharmacy","lat":-23.2689483,"lng":-51.0481564},{"id":"4511391191","name":"Farmácia Popular","tags":"addr:city:Ibiporâ,addr:postcode:86200-000,addr:street:Avenida Santos Dumont,addr:suburb:Centro,amenity:pharmacy","lat":-23.2697109,"lng":-51.0484354},{"id":"4511391192","name":"Farmácia Vale Verde","tags":"amenity:pharmacy","lat":-23.270249,"lng":-51.049514},{"id":"4511391193","name":"Farmatotal","tags":"addr:city:Ibiporâ,addr:housenumber:345,addr:postcode:86200-000,addr:street:Avenida Santos Dumont,addr:suburb:Centro,amenity:pharmacy,dispensing:yes,drive_through:no,healthcare:pharmacy,phone:+55 42 3258 4503","lat":-23.2706185,"lng":-51.050243},{"id":"4511391195","name":"Farmácia Drogamais","tags":"addr:city:Ibiporã,addr:postcode:86280-000,addr:street:Rua Dezenove de Dezembro,addr:suburb:Centro,amenity:pharmacy","lat":-23.2644351,"lng":-51.0508731},{"id":"4511391196","name":"Farmácia Santa Maria","tags":"addr:street:Avenida Senador Souza Naves,amenity:pharmacy,healthcare:pharmacy","lat":-23.2688642,"lng":-51.0492618},{"id":"4511391197","name":"Mauri Farma","tags":"addr:city:Ibiporâ,addr:housenumber:608,addr:postcode:86200-000,addr:street:Rua Primeiro de Maio,addr:suburb:Centro,amenity:pharmacy,healthcare:pharmacy","lat":-23.2686671,"lng":-51.0498444},{"id":"4511391198","tags":"amenity:pharmacy","lat":-23.2678071,"lng":-51.0522015},{"id":"4511427233","name":"Pronto Socorro (Hospital Cristo Rei)","tags":"amenity:hospital,emergency:yes","lat":-23.2694126,"lng":-51.0556357},{"id":"4512454218","name":"Museu do Café","tags":"tourism:museum","lat":-23.2712654,"lng":-51.0435641},{"id":"4520986945","name":"Lá Em Minas Restaurante","tags":"addr:city:Ibiporã,addr:postcode:86200-000,addr:street:Avenida José Bonifácio,addr:suburb:Centro,amenity:restaurant,cuisine:regional","lat":-23.2662437,"lng":-51.046325},{"id":"4520986946","name":"Almeida Mercado","tags":"shop:supermarket","lat":-23.2710137,"lng":-51.0518912},{"id":"4520986948","name":"Quitanda Paulista","tags":"shop:supermarket","lat":-23.2699725,"lng":-51.04893},{"id":"4520986949","name":"Supermercado Montana","tags":"shop:supermarket","lat":-23.2693689,"lng":-51.0435079},{"id":"4520986950","name":"Supermercado Supersul","tags":"shop:supermarket","lat":-23.2687405,"lng":-51.0444045},{"id":"4520986951","name":"Supermercado Viscardi","tags":"addr:city:Ibiporã,addr:postcode:86200-000,addr:street:Rua Dezenove de Dezembro,addr:suburb:Centro,shop:supermarket","lat":-23.2632069,"lng":-51.0510349},{"id":"4521027030","name":"Agência dos Correios Franqueada","tags":"addr:city:Ibiporã,addr:housenumber:251,addr:postcode:86200-981,addr:street:Avenida Santos Dumont,addr:suburb:Centro,amenity:post_office,operator:Correios,operator:wikidata:Q3375004","lat":-23.2703123,"lng":-51.0495269},{"id":"4522513125","name":"Restaurante Papo Cabeça","tags":"amenity:restaurant","lat":-23.3254649,"lng":-51.1936204},{"id":"4523439622","name":"APAE","tags":"addr:city:Ibiporã,addr:housenumber:400,addr:postcode:86200-000,addr:street:Rua Marcia Figueiredo Fereira,amenity:school","lat":-23.2601287,"lng":-51.0277547},{"id":"4523776681","name":"Museu de Anatomia","tags":"tourism:museum","lat":-23.3273672,"lng":-51.1965702},{"id":"4524528580","name":"In Natura Produtos Naturais","tags":"addr:city:Ibiporã,addr:housenumber:328,addr:postcode:86200-000,addr:street:Rua Primeiro de Maio,addr:suburb:Centro,organic:only,shop:supermarket","lat":-23.2675231,"lng":-51.0476116},{"id":"4526565590","name":"Restaurante Fogão Mineiro","tags":"addr:city:Ibiporâ,addr:housenumber:228,addr:postcode:86200-000,addr:street:Avenida Santos Dumont,addr:suburb:Centro,amenity:restaurant","lat":-23.2699215,"lng":-51.049359},{"id":"4528776980","name":"Associação Recreativa dos Funcionário wyny do Brasil","tags":"leisure:sports_centre","lat":-23.2412237,"lng":-51.0481469},{"id":"4530277939","name":"ASMI - Associação dos Servidores Municipais de Ibiporã","tags":"addr:city:Ibiporã,addr:housenumber:200,addr:postcode:86200-000,addr:street:Rua da Fartura,leisure:sports_centre","lat":-23.2731797,"lng":-51.0232032},{"id":"4531428366","name":"Itaú","tags":"amenity:bank,atm:yes","lat":-23.3249289,"lng":-51.1998854},{"id":"4534256880","name":"CECA","tags":"amenity:university,name:pt:Centro de Educação, Comunicação e Artes","lat":-23.3250273,"lng":-51.2063778},{"id":"4534256881","name":"CLCH","tags":"amenity:university,name:pt:Centro de Letras e Ciências Humanas","lat":-23.3249864,"lng":-51.2042087},{"id":"4534256882","name":"Centro de Ciências Biológicas","tags":"amenity:university","lat":-23.3253543,"lng":-51.1965515},{"id":"4545743955","name":"Ambulatório do Hospital das Clínicas","tags":"amenity:hospital,healthcare:hospital","lat":-23.324539,"lng":-51.1948864},{"id":"4545743956","name":"Departamento de Anatomia e Histologia","tags":"amenity:university","lat":-23.3271487,"lng":-51.1965563},{"id":"4545743957","name":"Departamento de Design","tags":"amenity:university","lat":-23.3256892,"lng":-51.2064119},{"id":"4545743960","name":"Centro de Educação Física e Esporte","tags":"amenity:university","lat":-23.3230254,"lng":-51.2052812},{"id":"4545815627","name":"Departamento de Matemática","tags":"amenity:university","lat":-23.3266608,"lng":-51.2026587},{"id":"4545815628","name":"Departamento de Estatística","tags":"amenity:university","lat":-23.3266733,"lng":-51.2022045},{"id":"4545815629","name":"Departamento de Física","tags":"amenity:university","lat":-23.3264181,"lng":-51.2024539},{"id":"4545815630","name":"Departamento de Computação","tags":"amenity:university","lat":-23.3264482,"lng":-51.2015382},{"id":"4545815631","name":"Departamento de Geociências","tags":"amenity:university","lat":-23.3266966,"lng":-51.2015501},{"id":"4545815632","name":"Departamento de Arquitetura e Urbanismo","tags":"amenity:university","lat":-23.3267667,"lng":-51.1982982},{"id":"4546127789","name":"Dacho Restaurante Japonês","tags":"addr:housenumber:1731,addr:street:Rua Goiás,amenity:restaurant,cuisine:japanese,name:en:Dacho Japanese Restaurant,website:http://www.dacho.com.br","lat":-23.315631,"lng":-51.1682579},{"id":"4558782587","name":"Delegacia de Polícia","tags":"amenity:police","lat":-23.2544767,"lng":-50.9778353},{"id":"4600173814","name":"Farmácia Nossa Senhora Aparecida","tags":"addr:city:Ibiporã,addr:postcode:86200-000,addr:street:Avenida Paraná,addr:suburb:Centro,amenity:pharmacy","lat":-23.2695156,"lng":-51.0447388},{"id":"4620316890","name":"Silvan Cult Grill","tags":"addr:housenumber:2286,addr:street:Avenida Juscelino Kubitschek,amenity:restaurant,cuisine:steak_house,internet_access:wlan,website:http://silvancult.com.br/londrina/","lat":-23.3200705,"lng":-51.1671843},{"id":"4696575447","name":"Tomattus Ristorante","tags":"addr:city:Londrina,addr:housenumber:1321,addr:postcode:86020-061,addr:street:Rua Belo Horizonte,addr:suburb:Centro,amenity:restaurant,cuisine:regional,_pizza,_cozinha_italiana,opening_hours:Todos os dias para almoço e jantar","lat":-23.3160052,"lng":-51.1664821},{"id":"4696578185","name":"Barolo Trattoria","tags":"addr:city:Londrina,addr:housenumber:1335,addr:postcode:86020-061,addr:street:Rua Belo Horizonte,addr:suburb:Centro,amenity:restaurant,cuisine:italian","lat":-23.3164258,"lng":-51.1664794},{"id":"4696580501","name":"Droga Raia","tags":"addr:city:Londrina,addr:housenumber:460,addr:postcode:86015-010,addr:street:Avenida Higienópolis,addr:suburb:Centro,amenity:pharmacy","lat":-23.3139817,"lng":-51.1657579},{"id":"4714148156","name":"Hospital Santa Casa de Londrina","tags":"addr:city:Londrina,addr:housenumber:523,addr:postcode:86010-510,addr:street:Rua Espírito Santo,addr:suburb:Centro,amenity:hospital","lat":-23.3168129,"lng":-51.1572205},{"id":"4747022646","name":"Inesul-Faculdade","tags":"amenity:university,name:pt:Inesul-Faculdade","lat":-23.3303167,"lng":-51.1521694},{"id":"4813478445","name":"Farmacia Nissei","tags":"addr:city:Ibiporâ,addr:housenumber:210 B,addr:postcode:86200-000,addr:street:Avenida Santos Dumont,addr:suburb:Centro,amenity:pharmacy,healthcare:pharmacy","lat":-23.269717,"lng":-51.0490886},{"id":"4813478457","name":"Farmacia Vale Verde","tags":"addr:city:Ibiporã,addr:postcode:86200-000,addr:street:Avenida Paraná,addr:suburb:Centro,amenity:pharmacy","lat":-23.2697401,"lng":-51.0434468},{"id":"4813510628","tags":"amenity:pharmacy","lat":-23.2713045,"lng":-51.0521035},{"id":"4865208083","name":"Associação Cultural e Esportiva de Ibiporã (Acei)","tags":"addr:city:Ibiporã,addr:housenumber:138,addr:postcode:86200-000,addr:street:Rua Santa Helena,addr:suburb:Jardim Santa Paula,leisure:sports_centre","lat":-23.2887189,"lng":-51.0714422},{"id":"4971416522","name":"restaurante Xangai","tags":"amenity:restaurant,name:pt:restaurante Xangai","lat":-23.3124061,"lng":-51.1775545},{"id":"5185965474","name":"Farmácia Municipal","tags":"addr:city:Ibiporã,addr:housenumber:475,addr:postcode:86200-000,addr:street:Rua Padre Vitoriano Valente,addr:suburb:Centro,amenity:pharmacy,drive_through:no,healthcare:pharmacy,opening_hours:Mo-Fr 08:00-19:00","lat":-23.2673095,"lng":-51.0494264},{"id":"5206617927","name":"ITAÚ","tags":"addr:street:Avenida Saul Elkind,amenity:bank","lat":-23.257883,"lng":-51.1512304},{"id":"5216078572","name":"Biblioteca Cidadã Zilda Arns","tags":"addr:city:Ibiporã,addr:housenumber:250,addr:postcode:86200-000,addr:street:Rua Iguaçu,addr:suburb:Conj. Hab. Francisco Domingos Moya,amenity:library,opening_hours:Mo-Fr 08:00-17:00,operator:Prefeitura Municipal de Ibiporã,phone:+55 43 3178 0215,website:https://culturaeturismo.ibipora.pr.gov.br/biblioteca/mostrar","lat":-23.2749749,"lng":-51.0422089},{"id":"5219866064","name":"Bom Bife","tags":"addr:city:Ibiporã,addr:housenumber:1149,addr:postcode:86200-000,addr:street:Avenida Paraná,addr:suburb:Jardim Zanoni,amenity:restaurant,cuisine:regional","lat":-23.2657285,"lng":-51.0376228},{"id":"5396205746","name":"Polícia Militar","tags":"addr:city:Ibiporã,addr:housenumber:190,addr:postcode:86280-000,addr:street:Rua Ronat Walter Sodré,addr:suburb:Jardim Boa vista,amenity:police","lat":-23.2743983,"lng":-51.0589498},{"id":"5416429353","name":"C.E.M.I - Cantinho Feliz","tags":"addr:city:Ibiporã,addr:housenumber:55,addr:postcode:86200-000,addr:street:Rua Messias H de Oliveira,addr:suburb:Conj. Hab. José Pires de Godoy,amenity:school","lat":-23.2628038,"lng":-51.0390235},{"id":"5562386242","tags":"amenity:parking,entrance:yes","lat":-23.3095712,"lng":-51.1578129},{"id":"5562386251","tags":"amenity:parking,entrance:yes","lat":-23.3091968,"lng":-51.1588561},{"id":"5562441278","tags":"amenity:parking","lat":-23.3094246,"lng":-51.158876},{"id":"5574490031","name":"Restaurante & Lanchonete Vieira","tags":"addr:city:Jataizinho,addr:postcode:86210-000,addr:street:Avenida Presidente Caetano Munhoz da Rocha,addr:suburb:Centro,amenity:restaurant","lat":-23.2585,"lng":-50.9815445},{"id":"5582883626","tags":"amenity:cafe,name:en:Bar","lat":-23.3133778,"lng":-51.1638703},{"id":"5591966089","name":"Santander","tags":"addr:city:Londrina,addr:housenumber:297,addr:postcode:86010-905,addr:street:Rua Minas Gerais,addr:suburb:Centro,amenity:bank,level:0,opening_hours:Mo-Fr 09:00-15:00,phone:+55 43 3373 6000,website:https://www.santander.com.br/","lat":-23.3114324,"lng":-51.1575448},{"id":"5672802368","name":"Drogamais","tags":"addr:city:Ibiporã,addr:housenumber:300,addr:postcode:86280-000,addr:street:Rua Ronat Walter Sodré,addr:suburb:Parque Industrial Castelo Branco,amenity:pharmacy,dispensing:yes,healthcare:pharmacy,opening_hours:Mo-Sa 09:00-22:00,phone:+55 43 3158 5898","lat":-23.2746336,"lng":-51.0599433},{"id":"5728607757","name":"Alvorada Casa de Canes - Mercado - Açougue - Sacolão","tags":"addr:city:Ibiporã,addr:postcode:86200-000,addr:street:Avenida Santos Dumont,addr:suburb:Centro,phone:+55 43 3158 1414,shop:supermarket","lat":-23.2730432,"lng":-51.0549949},{"id":"5760854754","name":"Drgarias - Ultra Popular","tags":"addr:city:Ibiporâ,addr:housenumber:166,addr:postcode:86200-000,addr:street:Avenida Santos Dumont,addr:suburb:Centro,amenity:pharmacy,dispensing:yes,healthcare:pharmacy","lat":-23.2694324,"lng":-51.0484636},{"id":"5937006069","name":"Academia ao Ar livre","tags":"leisure:fitness_centre","lat":-23.2585184,"lng":-51.1398703},{"id":"6284465079","name":"Pronto Socorro Santa Casa de Londrina","tags":"amenity:hospital,healthcare:hospital,operator:Santa Casa de Londrina","lat":-23.317084,"lng":-51.1575643},{"id":"6284465300","name":"C.E.T - Centro de Ermegência e Trauma","tags":"addr:city:Londrina,addr:street:Rua Senador Souza Naves,addr:suburb:Centro,amenity:hospital,healthcare:hospital,operator:Santa Casa de Londrina","lat":-23.3168043,"lng":-51.1575433},{"id":"6342046881","name":"Old is Cool","tags":"amenity:restaurant,cuisine:burger","lat":-23.3167787,"lng":-51.1619056},{"id":"6342046883","name":"Noriko","tags":"shop:beauty","lat":-23.3166885,"lng":-51.1636484},{"id":"6342048587","name":"Ponto da Pizza","tags":"amenity:restaurant,cuisine:pizza","lat":-23.316719,"lng":-51.1625961},{"id":"6342048589","name":"Passiphlora","tags":"shop:chemist","lat":-23.315836,"lng":-51.161282},{"id":"6342048596","name":"Boteko Grill","tags":"amenity:restaurant","lat":-23.3167627,"lng":-51.1620413},{"id":"6342048597","name":"Café com Proposito","tags":"amenity:restaurant,diet:vegetarian:yes,toilets:yes","lat":-23.3167444,"lng":-51.1631174},{"id":"6380667114","name":"HELIOS - Marco de Obra Viária","tags":"addr:street:Avenida Arthur Thomas,leisure:park","lat":-23.29898,"lng":-51.1920112},{"id":"6383469647","name":"Pop Shop","tags":"shop:mall","lat":-23.2769688,"lng":-51.2810267},{"id":"6383473417","name":"Academia Wide Fitness","tags":"leisure:fitness_centre","lat":-23.2759586,"lng":-51.2811286},{"id":"6544935000","name":"Praça Santo Antônio","tags":"leisure:park","lat":-23.2791888,"lng":-51.2803799},{"id":"6547592721","name":"Pronto Socorro","tags":"addr:city:Cambé,addr:housenumber:220,addr:postcode:86181-270,addr:street:Rua Suiça,addr:suburb:Centro,amenity:hospital,emergency:yes,healthcare:hospital","lat":-23.2840053,"lng":-51.2848936},{"id":"6575269132","name":"Urolit Hospital do Rim","tags":"addr:city:Londrina,addr:housenumber:460,addr:street:Avenida Bandeirantes,addr:suburb:Vila Ipiranga,amenity:hospital,healthcare:hospital,healthcare:speciality:urology","lat":-23.3252059,"lng":-51.1615997},{"id":"6589582337","name":"Biogeo - Farmácia de Manipulação","tags":"addr:city:Ibiporâ,addr:door:Sala 2,addr:housenumber:329,addr:postcode:86200-000,addr:street:Avenida Santos Dumont,addr:suburb:Centro,amenity:pharmacy,dispensing:yes,drive_through:no,healthcare:pharmacy,opening_hours:Mo-Sa 08:00-18:00,phone:+55 43 3258 7105","lat":-23.2705659,"lng":-51.0501366},{"id":"6603623912","name":"Pronto Socorro","tags":"amenity:hospital,healthcare:hospital","lat":-23.363282,"lng":-51.1442464},{"id":"6603623913","name":"Ermegencia","tags":"amenity:hospital,healthcare:hospital","lat":-23.3634063,"lng":-51.1441694},{"id":"6610644167","name":"Biblioteca Indústria do Conhecimento","tags":"addr:city:Ibiporã,addr:housenumber:950,addr:postcode:86200-000,addr:street:Rua Dezenove de Dezembro,addr:suburb:Las Vegas,amenity:library","lat":-23.2626101,"lng":-51.0506408},{"id":"6610644184","name":"Creche Manzinha do Céu","tags":"addr:city:Ibiporã,addr:housenumber:400,addr:street:Rua Ezequiel Jorge,addr:suburb:Las Vegas,amenity:childcare","lat":-23.2628548,"lng":-51.0501186},{"id":"6615196985","name":"Aguas Quentes de Londrina","tags":"name:en:Thermas de Londrina,tourism:attraction","lat":-23.3298095,"lng":-51.0907735},{"id":"6616428785","name":"C.E.E.B.J.A","tags":"addr:city:Ibiporã,addr:housenumber:65,addr:postcode:86200-000,addr:street:Avenida Engenheiro Francisco Beltrão,addr:suburb:Centro,amenity:school","lat":-23.2681728,"lng":-51.0462465},{"id":"6621471585","name":"Pastel Mel","tags":"addr:housenumber:437,addr:street:Avenida Higienópolis,amenity:restaurant,internet_access:wlan","lat":-23.3138119,"lng":-51.1653779},{"id":"6641989582","name":"Bentô Sushi","tags":"addr:city:Ibiporâ,addr:housenumber:128,addr:postcode:86200-000,addr:street:Avenida Prudente de Morais,addr:suburb:Centro,amenity:restaurant,cuisine:japanese;sushi;asian,delivery:yes,opening_hours:11:00-14:00,18:00-24:00,phone:+55 43 3158 2828,website:https://www.ifood.com.br/delivery/ibipora-pr/bento-sushi-centro/4138758d-4d28-4dba-a360-53134272728f?prato=73711418","lat":-23.2712269,"lng":-51.0549195},{"id":"6641991403","name":"Cross Experience","tags":"addr:city:Ibiporã,addr:housenumber:999,addr:postcode:86200-000,addr:street:Avenida Santos Dumont,addr:suburb:Centro,leisure:fitness_centre","lat":-23.2734148,"lng":-51.0556744},{"id":"6653332377","name":"Remédio Barato","tags":"addr:city:Londrina,addr:street:Rua Sergipe,addr:suburb:Centro,amenity:pharmacy,dispensing:yes,healthcare:pharmacy","lat":-23.3097251,"lng":-51.1577878},{"id":"6757191044","name":"Hospital do Coraçao - Unidade Bela Suíça","tags":"addr:city:Londrina,addr:housenumber:1199,addr:street:Avenida Doutor Adhemar Pereira de Barros,addr:suburb:Bela Suíça,amenity:hospital,healthcare:hospital","lat":-23.3413494,"lng":-51.1638715},{"id":"6777641487","name":"Family Agropet","tags":"addr:city:Ibiporâ,addr:housenumber:698,addr:postcode:86200-000,addr:street:Rua Primeiro de Maio,addr:suburb:Centro,cuisine:regional,opening_hours:Mo-Sa 08:00-18:00,phone:+55 43 98413 4262,shop:pet","lat":-23.2691305,"lng":-51.0508228},{"id":"6782491888","name":"Hoftalon - Ambulatório","tags":"addr:city:Londrina,addr:housenumber:714,addr:street:Rua Cambará,addr:suburb:Centro,amenity:hospital,healthcare:hospital,healthcare:speciality:ophthalmology","lat":-23.3185213,"lng":-51.1582717},{"id":"6831106820","name":"S.E.R.I - Sociedade Esportiva de Ibiporã","tags":"leisure:sports_centre","lat":-23.2709238,"lng":-51.0428633},{"id":"6969044797","tags":"amenity:parking","lat":-23.3131771,"lng":-51.1570357},{"id":"6969044805","tags":"amenity:parking","lat":-23.3131839,"lng":-51.1568823},{"id":"6977368234","name":"Vale Verde","tags":"addr:city:Londrina,addr:housenumber:278,addr:street:Avenida Paraná,addr:suburb:Centro,amenity:pharmacy,dispensing:yes,healthcare:pharmacy","lat":-23.3110249,"lng":-51.1602855},{"id":"6977368236","name":"Itaú","tags":"amenity:bank,brand:Itaú Unibanco,brand:wikidata:Q1424293,brand:wikipedia:pt:Itaú Unibanco","lat":-23.3115958,"lng":-51.1604151},{"id":"6980143369","tags":"amenity:parking","lat":-23.318436,"lng":-51.1578304},{"id":"6980196430","tags":"amenity:parking,operator:Estacionamento Park Center,operator:type:private","lat":-23.3226858,"lng":-51.1578222},{"id":"6984785386","tags":"amenity:parking","lat":-23.3257234,"lng":-51.1633098},{"id":"6984785409","name":"Academia Arena Club","tags":"addr:city:Londrina,addr:housenumber:860,addr:street:Rua Júlio Estrela Moreira,addr:suburb:Lago Parque,leisure:sports_centre,sport:swimming","lat":-23.3264922,"lng":-51.1632514},{"id":"7011714435","name":"Polícia Rodoviária","tags":"addr:city:Londrina,addr:housenumber:167,addr:street:Rua Cambará,amenity:police","lat":-23.3188683,"lng":-51.1528452},{"id":"7040372835","tags":"amenity:parking,operator:Manella Veículos","lat":-23.3158475,"lng":-51.1577997},{"id":"7051819088","name":"Alameda Parking","tags":"addr:city:Londrina,addr:housenumber:89,addr:street:Alameda Miguel Blasi,addr:suburb:Centro,amenity:parking","lat":-23.3123371,"lng":-51.1609957},{"id":"7051819089","name":"Restaurante Alameda","tags":"addr:city:Londrina,addr:street:Alameda Miguel Blasi,addr:suburb:Centro,amenity:restaurant,cuisine:pizza","lat":-23.3123532,"lng":-51.1604223},{"id":"7063598067","name":"Polícia Militar - 2º Comando Regional","tags":"addr:city:Londrina,addr:housenumber:893,addr:street:Avenida Santos Dumont,addr:suburb:Boa Vista,amenity:police","lat":-23.3212023,"lng":-51.1445974},{"id":"7090724546","name":"Empório Brest","tags":"addr:city:Londrina,addr:housenumber:465,addr:postcode:86020-080,addr:street:Avenida Higienópolis,addr:suburb:Centro,air_conditioning:yes,amenity:cafe,contact:facebook:https://www.facebook.com/EmporioBrest/,contact:instagram:https://www.instagram.com/emporiobrest/,cuisine:cafe;french;pizza;ice_cream,delivery:yes,internet_access:wlan,internet_access:fee:no,opening_hours:Tu-Su 10:00-22:00,phone:+55 43 3324 1681","lat":-23.3140916,"lng":-51.1653258},{"id":"7122171302","name":"Farmácia Popular","tags":"addr:city:Jataizinho,addr:postcode:86210-000,addr:street:Avenida Antônio Brandão de Oliveira,addr:suburb:Centro,amenity:pharmacy,dispensing:yes,healthcare:pharmacy","lat":-23.2555178,"lng":-50.9804749},{"id":"7132139635","name":"Fitness Sport Center","tags":"addr:city:Ibiporâ,addr:housenumber:96,addr:postcode:86200-000,addr:street:Rua Paulo Frontin,addr:suburb:Centro,leisure:fitness_centre","lat":-23.2703953,"lng":-51.0483683},{"id":"7137227877","name":"Point Vita - Vitamina e sucos Natural","tags":"addr:city:Ibiporã,addr:housenumber:227,addr:postcode:86200-000,addr:street:Avenida André Sert,addr:suburb:Centro,amenity:cafe","lat":-23.2684723,"lng":-51.0440882},{"id":"7149358719","tags":"amenity:parking,operator:Estacionamento Restaurante Souza Naves,operator:type:private","lat":-23.2676458,"lng":-51.053724},{"id":"7177258249","name":"Droga Raia","tags":"addr:city:Ibiporâ,addr:housenumber:515,addr:postcode:86200-000,addr:street:Avenida Santos Dumont,addr:suburb:Centro,amenity:pharmacy,brand:Droga Raia,brand:wikidata:Q10357101,brand:wikipedia:pt:RaiaDrogasil,dispensing:yes,healthcare:pharmacy","lat":-23.2714045,"lng":-51.0517702},{"id":"7192288012","tags":"amenity:parking","lat":-23.2678507,"lng":-51.0484096},{"id":"7197592232","name":"Brechó das Gatas","tags":"phone:+55 43 3323 0822,shop:pet","lat":-23.3153441,"lng":-51.1560779},{"id":"7198952324","name":"Espaço Beleza","tags":"addr:city:Londrina,addr:housenumber:436,addr:postcode:86010-460,addr:street:Rua Goiás,addr:suburb:Centro,contact:whatsapp:+55 43 99922 7449,phone:+55 43 3323 0865,shop:beauty","lat":-23.3153791,"lng":-51.1556087},{"id":"7198952331","name":"Ponto do Diabético","tags":"addr:city:Londrina,addr:housenumber:3075,addr:postcode:86010-190,addr:street:Avenida Duque de Caxias,addr:suburb:Jardim Londrilar,amenity:pharmacy,contact:facebook:https://www.facebook.com/farmadeli.ponto/,dispensing:yes,drive_through:no,email:pontododiabeticolondrina@hotmail.com,healthcare:pharmacy,phone:+55 43 3321 5151","lat":-23.315378,"lng":-51.1552087},{"id":"7198987258","tags":"addr:city:Londrina,addr:housenumber:3034,addr:postcode:86010-190,addr:street:Avenida Duque de Caxias,addr:suburb:Jardim Londrilar,amenity:bar","lat":-23.3155757,"lng":-51.1550345},{"id":"7198987262","name":"Canto Livre","tags":"addr:city:Londrina,addr:housenumber:3000,addr:postcode:86010-190,addr:street:Avenida Duque de Caxias,addr:suburb:Jardim Londrilar,amenity:restaurant,contact:facebook:https://www.facebook.com/cantolivrekaraokelondrina,karaoke:yes,opening_hours:Mo-Th 20:00-01:00; Fr-Sa 20:00-03:30,phone:+55 43 3029 3934","lat":-23.3158933,"lng":-51.1550354},{"id":"7206460386","tags":"amenity:parking","lat":-23.3345778,"lng":-51.1523922},{"id":"7206460387","tags":"amenity:parking","lat":-23.3353464,"lng":-51.1525267},{"id":"7206460388","tags":"amenity:parking","lat":-23.334828,"lng":-51.1527248},{"id":"7206460418","tags":"amenity:parking","lat":-23.3340905,"lng":-51.1516776},{"id":"7231417568","name":"Panvel","tags":"addr:city:Londrina,addr:housenumber:758,addr:street:Rodovia Mário Gonçalves Palhano,amenity:pharmacy,brand:Panvel,brand:wikidata:Q10344254,brand:wikipedia:pt:Panvel,dispensing:yes,healthcare:pharmacy","lat":-23.3428311,"lng":-51.188825},{"id":"7233997186","tags":"amenity:restaurant","lat":-23.326734,"lng":-51.1588239},{"id":"7233997195","tags":"amenity:parking","lat":-23.3264885,"lng":-51.159477},{"id":"7235640515","tags":"amenity:parking,fee:yes,operator:Estacionamento Benjamin,operator:type:private","lat":-23.3083256,"lng":-51.1618489},{"id":"7235640520","name":"Estacionamento Center Car","tags":"access:private,amenity:parking,fee:yes,layer:-1,parking:underground","lat":-23.3086137,"lng":-51.162388},{"id":"7274355057","name":"Restaurante doToninho","tags":"addr:city:Londrina,addr:housenumber:905,addr:street:Avenida Duque de Caxias,amenity:restaurant","lat":-23.3332009,"lng":-51.1514547},{"id":"7274355058","tags":"amenity:parking,operator:Estacionamento Eco Park,operator:type:private,parking:surface","lat":-23.3329236,"lng":-51.1517049},{"id":"7274608670","tags":"access:private,amenity:parking,parking:surface","lat":-23.3273963,"lng":-51.1575583},{"id":"7285979357","name":"Café Mojo","tags":"addr:city:Londrina,addr:housenumber:200,addr:postcode:86050-460,addr:street:Avenida Ayrton Senna da Silva,addr:suburb:Gleba Fazenda Palhano,amenity:cafe,internet_access:wlan,internet_access:fee:no,opening_hours:Mo-Sa 07:30-20:00,outdoor_seating:yes","lat":-23.32751,"lng":-51.1774695},{"id":"7312479318","name":"La Mestiça","tags":"addr:city:Jataizinho,addr:postcode:86210-000,addr:street:Avenida Presidente Getúlio Vargas,addr:suburb:Centro,amenity:restaurant,cuisine:chinese","lat":-23.2530217,"lng":-50.9791557},{"id":"7312547455","name":"Koushiu","tags":"addr:city:Jataizinho,addr:housenumber:22,addr:postcode:86210-000,addr:street:Avenida Benjamin Giavarina,addr:suburb:Centro,amenity:restaurant,opening_hours:11:00-15:30","lat":-23.253734,"lng":-50.9802802},{"id":"7315534770","name":"Jin Jin Wok","tags":"addr:city:Jataizinho,addr:housenumber:04,addr:postcode:86210-000,addr:street:Rua Piquiri,addr:suburb:Centro,amenity:restaurant,cuisine:asian,phone:+55 43 3259-0700,website:https://jinjinwok.com.br","lat":-23.2592267,"lng":-50.9778348},{"id":"7315534772","name":"Restaurante Uno","tags":"addr:city:Jataizinho,addr:housenumber:1093,addr:postcode:86210-000,addr:street:Avenida Antônio Brandão de Oliveira,addr:suburb:Centro,amenity:restaurant,opening_hours:10:30-14:00,phone:+55 43 3259-1435","lat":-23.2600898,"lng":-50.9767332},{"id":"7486045466","name":"RC Sabores","tags":"addr:city:Jataizinho,addr:housenumber:365,addr:postcode:86210-000,addr:street:Avenida Presidente Getúlio Vargas,addr:suburb:Centro,amenity:restaurant,cuisine:Bolo;Scoville;Salgados;Doces,opening_hours:06:00-20:00,opening_hours:covid19:06:00-20:00,phone:+55 43 3259-3502","lat":-23.2547249,"lng":-50.9815541},{"id":"7508705155","name":"Volare Escola de Aviação Civil","tags":"amenity:school","lat":-23.2136244,"lng":-51.1825213},{"id":"7508705156","name":"AVIA PRO Escola de Aviação Civil","tags":"amenity:school","lat":-23.2135875,"lng":-51.1828968},{"id":"7541705492","name":"Chiqui Nilza Buffet","tags":"addr:city:Jataizinho,addr:housenumber:1884,addr:postcode:86210-000,addr:street:Travessa Vicente Monteiro,addr:suburb:Centro,amenity:restaurant,cuisine:arroz;chinese;japanese;italian;scoville;feijão;ovo;miojo;macarrão,opening_hours:07:00-20:00,phone:+55 43 3259-1755,website:https://www.facebook.com/","lat":-23.2549527,"lng":-50.9802686},{"id":"7546238102","name":"Pizzaria e Pastelaria Madagascar","tags":"addr:city:Jataizinho,addr:housenumber:40,addr:postcode:86210-000,addr:street:Avenida Barão de Antonina,addr:suburb:Centro,amenity:restaurant,cuisine:pizza,opening_hours:Mo-Su 06:00-23:00,opening_hours:covid19:open,phone:+55 43 3259-0909","lat":-23.2549139,"lng":-50.9774847},{"id":"7733734959","name":"Delegacia da Mulher","tags":"addr:city:Londrina,addr:housenumber:107,addr:postcode:86015-680,addr:street:Rua Almirante Barroso,amenity:police","lat":-23.332106,"lng":-51.1502604},{"id":"7761208582","name":"Bradesco","tags":"addr:city:Londrina,addr:housenumber:1412,addr:street:Avenida Dez de Dezembro,amenity:bank,brand:Bradesco,brand:wikidata:Q806181,brand:wikipedia:en:Banco Bradesco","lat":-23.3060484,"lng":-51.1474225},{"id":"7815027592","tags":"amenity:parking","lat":-23.274306,"lng":-51.0604889},{"id":"7815063572","name":"Flex","tags":"addr:city:Ibiporã,addr:housenumber:104,addr:postcode:86200-000,addr:street:Rua Narciso Benati,addr:suburb:Parque Industrial Castelo Branco,leisure:fitness_centre","lat":-23.2747608,"lng":-51.0612393},{"id":"7837794254","name":"Praça Pio XII","tags":"leisure:park","lat":-23.2683057,"lng":-51.0476641},{"id":"7968673487","name":"Lava Rápido Arnaldo","tags":"amenity:car_wash","lat":-23.273365,"lng":-51.056329},{"id":"8152279517","name":"Restaurante Cozinha Brasil","tags":"addr:street:Avenida Sylvio Barros,amenity:restaurant,cuisine:barbecue;beef_bowl;brazilian,internet_access:wlan,opening_hours:Tu-Su 11:00-13:50","lat":-23.2808413,"lng":-51.1508622},{"id":"8234856586","name":"RM ESTÉTICA AUTOMOTIVA","tags":"addr:city:Londrina,addr:housenumber:26,addr:postcode:86050-020,addr:street:Rua Valparaíso,addr:suburb:Parque Guanabara,amenity:car_wash,opening_hours:Mo-Sa 08:00-18:00,operator:RAPHAEL MIGUEL,payment:cash:yes,payment:credit_cards:yes,payment:debit_cards:yes,wheelchair:yes","lat":-23.3325636,"lng":-51.1679359},{"id":"8234856587","name":"RM ESTÉTICA AUTOMOTIVA","tags":"addr:city:Londrina,addr:housenumber:26,addr:postcode:86050-020,addr:street:Rua Valparaíso,addr:suburb:Parque Guanabara,amenity:car_wash,opening_hours:Mo-Sa 08:00-18:00,operator:Raphael Miguel,payment:cash:yes,payment:credit_cards:yes,payment:debit_cards:yes","lat":-23.3329906,"lng":-51.168393},{"id":"8234991177","name":"RM ESTÉTICA AUTOMOTIVA","tags":"addr:city:Londrina,addr:housenumber:960,addr:postcode:86010-060,addr:street:Avenida São Paulo,addr:suburb:Centro,amenity:car_wash,opening_hours:Mo-Sa 07:00-19:00,operator:RAPHAEL MIGUEL,payment:cash:yes,payment:credit_cards:yes,payment:debit_cards:yes,wheelchair:yes","lat":-23.3175258,"lng":-51.1603485},{"id":"8311521723","name":"Restaurante Frago Frito","tags":"addr:city:Ibiporã,addr:postcode:86200-000,addr:street:Avenida Prefeito Mário de Menezes,addr:suburb:Jardim Beltrão,amenity:restaurant","lat":-23.2737021,"lng":-51.0533588},{"id":"8376258457","name":"Delegacia de Polícia Civil","tags":"addr:city:Ibiporã,addr:housenumber:1046,addr:postcode:86200-000,addr:street:Avenida dos Estudantes,addr:suburb:Centro,amenity:police,opening_hours:24/7,website:https://www.policiacivil.pr.gov.br/","lat":-23.2691863,"lng":-51.0568269},{"id":"8378564116","tags":"amenity:parking","lat":-23.2692256,"lng":-51.0576595},{"id":"8571305033","tags":"amenity:atm,cash_in:no,currency:BRL:yes,description:Caixa eletrônico se encontra no interior do supermercado,drive_through:no,network:Banco24Horas,opening_hours:Mo-Sa 08:00-21:00; Su 08:30-13:30; Ho 08:00-18:00","lat":-23.3140414,"lng":-51.1518845},{"id":"8571352929","tags":"amenity:atm,cash_in:no,currency:BRL:yes,description:Caixa eletrônico se encontra no interior do supermercado,drive_through:no,network:Banco24Horas,opening_hours:Mo-Sa 08:00-22:00; Su 08:00-18:00","lat":-23.3142021,"lng":-51.15376},{"id":"8572290142","tags":"amenity:atm,cash_in:no,currency:BRL:yes,description:Caixa eletrônico se encontra no interior do supermercado,drive_through:no,network:Banco24Horas,opening_hours:Mo-Sa 08:00-19:00; Su 08:00-18:00","lat":-23.3050146,"lng":-51.1695452},{"id":"8572323018","tags":"amenity:atm,cash_in:no,currency:BRL:yes,description:Caixa eletrônico se encontra no interior do supermercado,drive_through:no,network:Banco24Horas,opening_hours:Mo-Sa 08:00-22:00; Su 08:00-20:00","lat":-23.3041974,"lng":-51.1711123},{"id":"8572345788","tags":"amenity:atm,cash_in:no,currency:BRL:yes,description:Caixa eletrônico se encontra no interior do supermercado no piso térreo,drive_through:no,network:Banco24Horas,opening_hours:Mo-Su 08:00-22:00","lat":-23.3248477,"lng":-51.1300103},{"id":"8572370224","tags":"amenity:atm,cash_in:no,currency:BRL:yes,description:Caixa eletrônico se localiza no interior do supermercado,drive_through:no,network:Banco24Horas,opening_hours:Mo-Sa 08:00-21:30; Su 08:00-18:00","lat":-23.3193336,"lng":-51.1339699},{"id":"8572465564","tags":"amenity:atm,cash_in:no,currency:BRL:yes,description:Caixa eletrônico se encontra no interior do supermercado,drive_through:no,network:Banco24Horas,opening_hours:Mo-Sa 08:00-23:00; Su 08:00-22:00","lat":-23.3304121,"lng":-51.1508322},{"id":"8574677549","tags":"amenity:atm,cash_in:no,currency:BRL:yes,description:Caixa eletrônico se encontra no interior do camelódromo,drive_through:no,network:Banco24Horas,opening_hours:Mo-Fr 09:00-18:00; Sa 09:00:13:00; Su off","lat":-23.3099636,"lng":-51.1562834},{"id":"8574776164","tags":"amenity:atm,cash_in:no,currency:BRL:yes,description:Caixa eletrônico se encontra no interior do shopping,drive_through:no,level:0,network:Banco24Horas","lat":-23.3110844,"lng":-51.1568749},{"id":"8574865169","tags":"amenity:atm,cash_in:no,currency:BRL:yes,description:Caixa eletrônico se encontra no interior do supermercado,drive_through:no,network:Banco24Horas,opening_hours:Mo-Fr 07:00-22:00; Su 07:20:00","lat":-23.3085281,"lng":-51.1533793},{"id":"8574966565","tags":"amenity:atm,cash_in:no,currency:BRL:yes,description:Caixa eletrônico se encontra no interior do supermercado,drive_through:no,network:Banco24Horas,opening_hours:Mo-Sa 08:00-21:00; Su 08:00-18:00","lat":-23.300478,"lng":-51.1626213},{"id":"8575017051","tags":"amenity:atm,cash_in:no,currency:BRL:yes,description:Caixa eletrônico se encontra no interior da rodoviária,drive_through:no,network:Banco24Horas,opening_hours:24/7,wheelchair:yes","lat":-23.3093403,"lng":-51.149527},{"id":"8576260577","name":"Verona Supermercados","tags":"addr:city:Londrina,addr:housenumber:150,addr:postcode:86027-750,addr:street:Avenida Theodoro Victorelli,addr:suburb:Jardim Helena,level:1,opening_hours:Mo-Sa 08:00-22:00; Su 08:00-20:00,payment:cash:yes,payment:credit_cards:yes,payment:debit_cards:yes,phone:+55 43 33215540,shop:supermarket,website:http://site.veronasupermercados.com.br,wheelchair:yes","lat":-23.3117875,"lng":-51.1475216},{"id":"8576292121","tags":"amenity:atm,cash_in:no,currency:BRL:yes,description:Caixa eletrônico se encontra no segundo piso do shopping,drive_through:no,level:2,network:Banco24Horas,opening_hours:covid19:Mo-Fr 11:00-20:00; Sa-Su off,wheelchair:yes","lat":-23.3126398,"lng":-51.1458962},{"id":"8576394196","tags":"amenity:atm,cash_in:no,currency:BRL:yes,description:Caixa eletrônico se encontra no interior do supermercado,drive_through:no,network:Banco24Horas,opening_hours:Mo-Sa 08:00-20:30; Su 08:00-13:00","lat":-23.3107119,"lng":-51.1352585},{"id":"8579069196","name":"Farmácias São João","tags":"addr:city:Londrina,addr:housenumber:769,addr:postcode:86020-150,addr:street:Rua Quintino Bocaiúva,addr:suburb:Centro,amenity:pharmacy,dispensing:yes,drive_through:no,healthcare:pharmacy,phone:+55 43 33220654","lat":-23.305479,"lng":-51.1686215},{"id":"8579162756","tags":"amenity:atm,cash_in:no,currency:BRL:yes,description:Caixa eletrônico se encontra no interior do supermercado,drive_through:no,network:Banco24Horas,opening_hours:Mo-Sa 08:00-20:00; Su 08:00-18:00","lat":-23.2938923,"lng":-51.1411859},{"id":"8579254023","tags":"amenity:atm,cash_in:no,currency:BRL:yes,description:Caixa eletrônico se encontra no interior do supermercado,drive_through:no,network:Banco24Horas,opening_hours:Mo-Sa 08:00-21:00; Su 08:00-18:00","lat":-23.3008282,"lng":-51.1494005},{"id":"8579317363","tags":"amenity:atm,cash_in:no,currency:BRL:yes,description:Caixa eletrônico se encontra no interior do supermercado,drive_through:no,network:Banco24Horas,opening_hours:Mo-Sa 08:00-20:00; Su 08:00-18:00","lat":-23.3020233,"lng":-51.1763329},{"id":"8579710580","tags":"amenity:atm,cash_in:no,currency:BRL:yes,description:Caixa eletrônico se encontra no interior do shopping,drive_through:no,network:Banco24Horas,opening_hours:Mo-Fr 11:00-20:00; Su off","lat":-23.2855407,"lng":-51.1530754},{"id":"8579710581","name":"Super Muffato","tags":"addr:city:Londrina,addr:housenumber:224,addr:postcode:86079-225,addr:street:Américo Deolindo Garla,addr:suburb:Pacaembu,description:O supermercado se encontra no interior do shopping,opening_hours:Mo-Sa 09:00-22:00; Su 08:00-20:30,payment:cash:yes,payment:credit_cards:yes,payment:debit_cards:yes,phone:+55 43 33057450,shop:supermarket,website:https://www.supermuffato.com.br,wheelchair:yes","lat":-23.2859546,"lng":-51.1508706},{"id":"8579710582","name":"Farmácias Vale Verde","tags":"addr:city:Londrina,addr:housenumber:224,addr:postcode:86079-225,addr:street:Américo Deolindo Garla,addr:suburb:Pacaembu,amenity:pharmacy,description:Farmácia se encontra no interior do shopping,dispensing:yes,drive_through:no,healthcare:pharmacy,opening_hours:Mo-Sa 09:00-22:00; Su 08:00-20:30,phone:+55 43 33790619,wheelchair:yes","lat":-23.285797,"lng":-51.1514071},{"id":"8582339552","name":"Farmácias Drogamais","tags":"addr:city:Londrina,addr:housenumber:150,addr:postcode:86027-750,addr:street:Avenida Theodoro Victorelli,addr:suburb:Carlota,amenity:pharmacy,description:Farmácia se encontra no interior do shopping,dispensing:yes,drive_through:no,healthcare:pharmacy,level:1,opening_hours:Mo-Sa 08:00-20:00; Su 09:00-20:00,phone:+55 43 33363990,wheelchair:yes","lat":-23.3118883,"lng":-51.1470397},{"id":"8829795355","name":"Biblioteca Pública Municipal","tags":"addr:city:Ibiporã,addr:state:Paraná,amenity:library,postal_code:86200-000","lat":-23.2668226,"lng":-51.0465542},{"id":"8930159291","name":"Studio Bruna Ribeiro","tags":"addr:city:Londrina, Paraná,addr:housenumber:68,addr:postcode:86050-020,addr:street:Rua Valparaíso,addr:suburb:Parque Guanabara,operator:Studio de Beleza,payment:cash:yes,payment:credit_cards:yes,payment:debit_cards:yes,phone:+554333453900,shop:beauty,website:https:/www.instagram.com/studio_brunaribeiro","lat":-23.3335183,"lng":-51.1683627},{"id":"8998820517","name":"Elite Rede de Ensino - Londrina","tags":"addr:city:Londrina,addr:housenumber:91,addr:street:Rua Fortaleza,addr:suburb:Centro,amenity:school,website:https://ensinoelite.com.br","lat":-23.3027584,"lng":-51.1700838},{"id":"9279258011","name":"Parquinho Lagoa Dourada","tags":"leisure:park","lat":-23.357012,"lng":-51.1428039},{"id":"9279258012","name":"Campo de Futebol","tags":"leisure:park","lat":-23.3570368,"lng":-51.1432403},{"id":"9424518921","name":"UPA - Unidade de Pronto Atendimento - Jardim Sabará.\nUnidade de Saúde - Prefeitura Municipal de Londrina.","tags":"amenity:hospital","lat":-23.3155,"lng":-51.21012},{"id":"9765135463","name":"Academia GT Centro de Treinamento","tags":"leisure:fitness_centre","lat":-23.2563519,"lng":-51.0504815},{"id":"9765135467","name":"Chaves Atacarejo","tags":"shop:supermarket","lat":-23.2568485,"lng":-51.0504869},{"id":"9775582440","name":"McDonald's - LGP","tags":"addr:city:Londrina,addr:housenumber:680,addr:postcode:86050-460,addr:street:Av. Ayrton Senna da Silva,addr:suburb:Gleba Fazenda Palhano,amenity:restaurant,cuisine:fast_food;burger,opening_hours:24/7,website:https://www.mcdonalds.com.br/","lat":-23.3321973,"lng":-51.1777958},{"id":"9777865145","name":"Farmácias Vale Verde","tags":"amenity:pharmacy,dispensing:yes,healthcare:pharmacy","lat":-23.307593,"lng":-51.1620328},{"id":"9809975198","name":"Sips Café","tags":"amenity:cafe","lat":-23.3131936,"lng":-51.1703525},{"id":"9809975200","name":"O armazém Café","tags":"amenity:cafe","lat":-23.3105546,"lng":-51.1665377},{"id":"9809975203","name":"Café Royal","tags":"amenity:cafe","lat":-23.310661,"lng":-51.1641694},{"id":"9809975204","tags":"shop:pet","lat":-23.3078707,"lng":-51.170788},{"id":"9809975205","tags":"shop:pet","lat":-23.3074919,"lng":-51.1710708},{"id":"9809975206","tags":"shop:pet","lat":-23.3078612,"lng":-51.1712627},{"id":"9809975208","tags":"shop:pet","lat":-23.3111051,"lng":-51.1694912},{"id":"9809975209","tags":"shop:pet","lat":-23.3120022,"lng":-51.1682629},{"id":"9809975210","tags":"shop:pet","lat":-23.3151277,"lng":-51.1707819},{"id":"9809975211","tags":"shop:pet","lat":-23.3135804,"lng":-51.1690978},{"id":"9809975214","tags":"amenity:cafe","lat":-23.3101194,"lng":-51.1657229},{"id":"9809975215","tags":"amenity:cafe","lat":-23.3097179,"lng":-51.167845},{"id":"9809975216","tags":"shop:pet","lat":-23.3071169,"lng":-51.1670272},{"id":"9981459736","name":"Cactos","tags":"tourism:attraction","lat":-23.3641456,"lng":-51.1746388},{"id":"10056179352","name":"AURA - Ateliê de Beleza e Noivas","tags":"addr:city:Londrina,addr:housenumber:920,addr:postcode:86061-450,addr:street:Rua Prefeito Faria Lima,addr:suburb:Maringá,operator:152463,phone:4330280147,shop:beauty","lat":-23.3212444,"lng":-51.1851581}]