[{"id":"414335092","name":"Polícia Civil","tags":"amenity:police","lat":-28.0172524,"lng":-49.5904039},{"id":"414335094","name":"Mercado 4 Irmãos","tags":"alt_name:Mercado Quatro Irmãos,shop:supermarket","lat":-28.0151201,"lng":-49.5934936},{"id":"414335095","name":"Zeca's Bar","tags":"amenity:restaurant,cuisine:pizza","lat":-28.0107958,"lng":-49.5907227},{"id":"415419660","name":"Restaurante Estância","tags":"amenity:restaurant","lat":-27.9980243,"lng":-49.5856751},{"id":"415782940","name":"Correios","tags":"addr:street:Praça Irmã Policarpa,amenity:post_office,brand:Correios,brand:wikidata:Q3375004,brand:wikipedia:en:Correios","lat":-28.0157154,"lng":-49.5955753},{"id":"1122619093","name":"Manali Bistrô","tags":"addr:housenumber:763,addr:street:Avenida Adolfo Konder,amenity:restaurant,old_name:Canto do Sabiá","lat":-28.0077651,"lng":-49.5898212},{"id":"1139529868","tags":"amenity:parking","lat":-27.9819282,"lng":-49.6331703},{"id":"2680627049","tags":"amenity:restaurant","lat":-27.9877639,"lng":-49.5819041},{"id":"2680720949","name":"Inscrições Rupestres","tags":"historic:archaeological_site,tourism:attraction","lat":-28.0282909,"lng":-49.6121379},{"id":"2903612767","name":"Cascata do Avencal","tags":"tourism:attraction,waterway:waterfall","lat":-28.0471019,"lng":-49.6172957},{"id":"3621873542","name":"Escola Nuclear Águas Brancas","tags":"amenity:school","lat":-27.9560442,"lng":-49.5818214},{"id":"3940862741","name":"Cachoeira dos Vacarianos","tags":"tourism:attraction,waterway:waterfall","lat":-27.9977516,"lng":-49.6806481},{"id":"4257973892","name":"Parque das Trutas","tags":"amenity:restaurant,email:parquedastrutas@hotmail.com,leisure:fishing,opening_hours:24/7,phone:+55 49 9126-8513;+55 49 3236-1123,tourism:guest_house","lat":-28.0006477,"lng":-49.8569974},{"id":"4295500289","name":"Banco do Brasil","tags":"amenity:bank,brand:Banco do Brasil,brand:wikidata:Q610817,brand:wikipedia:en:Banco do Brasil","lat":-27.9918988,"lng":-49.5833283},{"id":"4295500389","name":"Supermercado Econômico","tags":"shop:supermarket","lat":-27.9916021,"lng":-49.583517},{"id":"5894330288","name":"Semola","tags":"addr:housenumber:1597,addr:street:Avenida Adolfo Konder,amenity:restaurant,contact:facebook:https://www.facebook.com/semolaurubici/,contact:phone:+55 49 99826-9028,cuisine:italian","lat":-28.0001187,"lng":-49.5868756},{"id":"6204172558","name":"Armazém Vale das Montanhas","tags":"addr:housenumber:351,addr:street:Avenida Adolfo Konder,amenity:cafe,cuisine:pie,description:Café e Presentes,shop:gift","lat":-28.0112818,"lng":-49.5911908},{"id":"6204172561","name":"Guardião do Avencal","tags":"amenity:cafe,contact:phone:+55 49 99985-1172","lat":-28.0280649,"lng":-49.6122837},{"id":"7487217021","name":"Centro Educacional Nossa Senhora Aparecida","tags":"amenity:school","lat":-27.9566877,"lng":-49.8791979},{"id":"7640989088","name":"Emporium Serra do Sol","tags":"addr:housenumber:2273,addr:street:Avenida Adolfo Konder,amenity:restaurant","lat":-27.9942096,"lng":-49.5844858},{"id":"8065058587","tags":"access:customers,amenity:parking,fee:yes,parking:surface","lat":-28.0453141,"lng":-49.6197242},{"id":"8065058588","tags":"access:customers,amenity:parking,fee:yes,parking:surface","lat":-28.0470517,"lng":-49.6179217},{"id":"8065058589","tags":"access:customers,amenity:parking,fee:yes,parking:surface","lat":-28.0472198,"lng":-49.6179754},{"id":"8065058590","tags":"access:customers,amenity:parking,fee:yes,parking:surface","lat":-28.0480956,"lng":-49.6165699},{"id":"8065058591","tags":"access:customers,amenity:parking,fee:yes,parking:surface","lat":-28.0478991,"lng":-49.6162292},{"id":"8065058592","tags":"access:customers,amenity:parking,fee:yes,parking:surface","lat":-28.0482897,"lng":-49.6160495},{"id":"8179104818","name":"Morro do Campestre","tags":"addr:postcode:88650-000,addr:street:Estrada Geral Campestre, Urubici SC,tourism:attraction","lat":-27.9739677,"lng":-49.6489772},{"id":"8285502339","tags":"amenity:parking,parking:surface,surface:unpaved","lat":-27.9686162,"lng":-49.6445668},{"id":"8285502340","tags":"amenity:restaurant","lat":-27.9695591,"lng":-49.6448457},{"id":"8285502348","name":"Estacionamento Verde","tags":"amenity:parking,parking:surface,surface:unpaved","lat":-27.972866,"lng":-49.6497086},{"id":"8285502349","name":"Estacionamento Azul","tags":"amenity:parking,parking:surface,surface:unpaved","lat":-27.9722335,"lng":-49.6485981},{"id":"8598885309","name":"Biblioteca Pública Municipal Maris Nunes de Souza","tags":"addr:housenumber:89,addr:street:Praça Francisco Pereira Souza,alt_name:Biblioteca Pública Municipal Professora Maris Nunes de Souza,amenity:library","lat":-28.0137687,"lng":-49.5947734},{"id":"8598928722","name":"Colégio Santa Clara","tags":"amenity:school","lat":-28.0176069,"lng":-49.5929966},{"id":"8598938351","name":"Escola Caetano Souza","tags":"amenity:school","lat":-28.0511462,"lng":-49.6094524},{"id":"8598938460","name":"Escola Quebra Dente","tags":"amenity:school","lat":-28.0758146,"lng":-49.9044966},{"id":"8598950791","name":"Biblioteca Pública Municipal Dimas Pinto de Arruda","tags":"amenity:library","lat":-27.9549192,"lng":-49.8769977},{"id":"8768903518","name":"Belo Prato Restaurante","tags":"amenity:restaurant,old_name:Restaurante e Pizzaria Fogão Tropeiro","lat":-27.9556633,"lng":-49.8757707},{"id":"8777877163","tags":"amenity:grave_yard","lat":-28.0624327,"lng":-49.8708728},{"id":"9919779808","name":"Master Farma","tags":"amenity:pharmacy,healthcare:pharmacy","lat":-27.9540664,"lng":-49.8756941},{"id":"9919779815","name":"Correios","tags":"amenity:post_office,brand:Correios,brand:wikidata:Q3375004,operator:Empresa Brasileira de Correios e Telégrafos,operator:short:ECT,operator:type:public","lat":-27.9541671,"lng":-49.8754554},{"id":"9919779889","name":"Farmácia Santa Cruz","tags":"amenity:pharmacy,healthcare:pharmacy","lat":-27.9541529,"lng":-49.8764437},{"id":"9919779896","name":"Banco do Brasil","tags":"amenity:bank,brand:Banco do Brasil,brand:wikidata:Q610817,short_name:BB","lat":-27.9553801,"lng":-49.8760307},{"id":"9919779913","name":"Super Popular","tags":"amenity:pharmacy,healthcare:pharmacy","lat":-27.9560696,"lng":-49.8754285},{"id":"9919779916","name":"Polícia Militar","tags":"amenity:police","lat":-27.9562058,"lng":-49.8749182},{"id":"9919779917","name":"Polícia Civil","tags":"amenity:police","lat":-27.9561715,"lng":-49.8748599}]