[{"id":"2608871723","name":"Bonafarma","tags":"addr:housenumber:28,addr:postcode:89172-000,addr:street:BR-470,amenity:pharmacy,contact:facebook:https://www.facebook.com/JamesStringari?ref=hl,healthcare:pharmacy,operator:Bonafarma - Stringari Farmácia,phone:+55 47 3545-1335,wheelchair:yes","lat":-27.2567271,"lng":-49.9345421},{"id":"4448580647","name":"Cemitério Rio Novo","tags":"amenity:grave_yard","lat":-27.3764504,"lng":-49.9877009},{"id":"4622631340","name":"Gruta Nossa Senhora de Salete","tags":"denomination:roman_catholic,historic:wayside_shrine,religion:christian,tourism:attraction","lat":-27.3035188,"lng":-50.0785602},{"id":"4826062337","name":"Supermercado Sertanejo","tags":"shop:supermarket","lat":-27.2559056,"lng":-49.9327978},{"id":"4826062338","name":"Supermercado Avenida","tags":"shop:supermarket","lat":-27.256039,"lng":-49.9337614},{"id":"4850731645","name":"Banco do Brasil","tags":"amenity:bank,brand:Banco do Brasil,brand:wikidata:Q610817,brand:wikipedia:en:Banco do Brasil","lat":-27.2575392,"lng":-49.9363117},{"id":"4850731654","name":"Pizzaria Tijolinho","tags":"amenity:restaurant,cuisine:pizza","lat":-27.2580154,"lng":-49.9321841},{"id":"4850731655","name":"Correios","tags":"amenity:post_office,brand:Correios,brand:wikidata:Q3375004,brand:wikipedia:en:Correios","lat":-27.2574178,"lng":-49.9372388},{"id":"4850731656","name":"Padaria Nita","tags":"addr:city:Pouso Redondo,addr:postcode:89172-000,addr:street:Rua Afonso Pena,addr:suburb:Progresso,amenity:cafe,cuisine:regional","lat":-27.2551996,"lng":-49.9310835},{"id":"4850731657","name":"Auto Lavação Jonas","tags":"amenity:car_wash","lat":-27.2547483,"lng":-49.9334322},{"id":"5064583585","name":"Restaurante Scoz","tags":"amenity:restaurant,phone:+55 47 3545-1235,survey_date:2017-07-23,website:http://www.gruposcoz.com.br/","lat":-27.2564691,"lng":-49.9356931},{"id":"5064583591","name":"Kaza Restaurante","tags":"amenity:restaurant,phone:+55 47 3545-1344,survey_date:2017-07-23","lat":-27.2564453,"lng":-49.9355114},{"id":"5080587054","name":"Posto Mime - Filial 14","tags":"addr:housenumber:5300,addr:street:BR-470,alt_name:Posto Santa Helena,amenity:fuel,brand:Shell,internet_access:wlan,opening_hours:24/7,shop:convenience,toilets:yes","lat":-27.2492549,"lng":-49.9889839},{"id":"8626238903","tags":"amenity:grave_yard","lat":-27.2759401,"lng":-49.9973909},{"id":"8626238904","tags":"amenity:grave_yard","lat":-27.3282022,"lng":-49.958669},{"id":"8626255060","tags":"amenity:grave_yard","lat":-27.3043953,"lng":-50.272144},{"id":"8636188389","name":"Biblioteca Pública Municipal Cruz e Souza","tags":"amenity:library","lat":-27.257221,"lng":-49.930586},{"id":"8734783179","name":"Eleganza Café","tags":"amenity:cafe","lat":-27.2544794,"lng":-50.0361264},{"id":"9675963770","name":"Dona Nita","tags":"amenity:cafe","lat":-27.2565323,"lng":-49.9383196},{"id":"9962893713","name":"Café Serrano","tags":"amenity:cafe","lat":-27.2750813,"lng":-50.0636834}]