[{"id":"5759051021","name":"New","tags":"shop:beauty","lat":-27.1169693,"lng":-49.9955202},{"id":"6910121262","name":"Polícia Militar","tags":"addr:housenumber:303,addr:street:Avenida Nereu Ramos,amenity:police,emergency:phone:190","lat":-27.1166645,"lng":-49.9948525},{"id":"7477445016","name":"Agropecuária Franzói","tags":"shop:pet","lat":-27.1155902,"lng":-49.9962634},{"id":"8626236354","tags":"amenity:grave_yard","lat":-27.127701,"lng":-49.9523408},{"id":"8626238905","tags":"amenity:grave_yard","lat":-27.2108143,"lng":-50.0688343},{"id":"8626238906","tags":"amenity:grave_yard","lat":-27.1973598,"lng":-50.0753366},{"id":"8626238907","tags":"amenity:grave_yard","lat":-27.1957054,"lng":-50.0578876},{"id":"8626255063","tags":"amenity:grave_yard","lat":-27.0711737,"lng":-50.2630786},{"id":"8636188385","name":"Biblioteca Pública Municipal Charlotte Eitz Stotzer","tags":"amenity:library","lat":-27.1181034,"lng":-50.0105259},{"id":"8636188388","name":"Biblioteca Pública Municipal Mirim Doce","tags":"amenity:library","lat":-27.202848,"lng":-50.068831}]