[{"id":"1042083196","name":"Aeroporto Walter Ewaldo Siegel","tags":"aerodrome:private,aeroway:aerodrome,icao:SSTJ,name:en:Walter Ewaldo Siegel Airport,wikidata:Q31206105","lat":-27.3484932,"lng":-49.8213217},{"id":"2938390682","name":"Hiper Econômico","tags":"shop:supermarket","lat":-27.4124439,"lng":-49.833335},{"id":"4425928967","name":"Restaurante e Pesque Pague Nascente","tags":"amenity:restaurant,leisure:fishing","lat":-27.2716526,"lng":-49.6101769},{"id":"6906993335","name":"Stylo Farma","tags":"addr:housenumber:3954,addr:street:Rua Clemente Demarch,amenity:pharmacy,healthcare:pharmacy","lat":-27.2522794,"lng":-49.6915678},{"id":"6988075365","name":"Supermercado Brankamania","tags":"addr:housenumber:297,addr:street:Rua XV de Novembro,alt_name:Supermercado Brancamania,loc_name:Mercado Brancamania,old_name:Mercado Brankamania,shop:supermarket","lat":-27.314763,"lng":-49.6371471},{"id":"6988189859","name":"Farmácia Nossa Senhora do Carmo","tags":"addr:housenumber:417,addr:street:Rua XV de Novembro,amenity:pharmacy,healthcare:pharmacy","lat":-27.3155714,"lng":-49.6365135},{"id":"6988249189","name":"Farmácia Brasil Poupa Lar","tags":"addr:housenumber:453,addr:street:Rua XV de Novembro,amenity:pharmacy,healthcare:pharmacy,website:http://www.farmaciasbrasilpoupalar.com.br/#!inicio","lat":-27.3169483,"lng":-49.6355747},{"id":"6988277068","name":"Pilates Michele Schiestel","tags":"addr:housenumber:751,addr:street:Rua XV de Novembro,leisure:fitness_centre","lat":-27.317267,"lng":-49.6343288},{"id":"7029455428","name":"CRESOL","tags":"addr:housenumber:588,addr:street:Rua XV de Novembro,amenity:bank,atm:yes,website:https://www.cresol.com.br/site/","lat":-27.3170638,"lng":-49.6358858},{"id":"7029547418","name":"Correios","tags":"addr:street:Rua XV de Novembro,alt_name:Correio,amenity:post_office,brand:Correios,brand:wikidata:Q3375004,brand:wikipedia:en:Correios,website:http://correios.com.br/","lat":-27.3156995,"lng":-49.6366945},{"id":"7029547429","name":"Agropecuária Selhorst","tags":"shop:pet","lat":-27.3168702,"lng":-49.6361668},{"id":"7175435775","name":"Polícia Militar","tags":"amenity:police","lat":-27.3007129,"lng":-49.7919749},{"id":"8626234304","tags":"amenity:grave_yard","lat":-27.4212942,"lng":-49.6610005},{"id":"8626234307","tags":"amenity:grave_yard","lat":-27.3994153,"lng":-49.7036449},{"id":"8626234313","tags":"amenity:grave_yard","lat":-27.3873111,"lng":-49.7710434},{"id":"8626234314","tags":"amenity:grave_yard","lat":-27.3615094,"lng":-49.8090579},{"id":"8626234315","tags":"amenity:grave_yard","lat":-27.3596835,"lng":-49.8389736},{"id":"8626234316","tags":"amenity:grave_yard","lat":-27.3720481,"lng":-49.7119767},{"id":"8626236343","tags":"amenity:grave_yard","lat":-27.2950201,"lng":-49.5752926},{"id":"8626236345","tags":"amenity:grave_yard","lat":-27.3630763,"lng":-49.5720626},{"id":"8626236346","tags":"amenity:grave_yard","lat":-27.3533997,"lng":-49.639607},{"id":"8626236347","tags":"amenity:grave_yard","lat":-27.3834732,"lng":-49.6432253},{"id":"8626236348","tags":"amenity:grave_yard","lat":-27.3040305,"lng":-49.6344254},{"id":"8626236349","tags":"amenity:grave_yard","lat":-27.2910588,"lng":-49.653177},{"id":"8626238898","tags":"amenity:grave_yard","lat":-27.2665406,"lng":-49.8784672},{"id":"8626238900","tags":"amenity:grave_yard","lat":-27.2836608,"lng":-49.8820428},{"id":"8626238901","tags":"amenity:grave_yard","lat":-27.2869487,"lng":-49.9015652},{"id":"8626238902","tags":"amenity:grave_yard","lat":-27.2725233,"lng":-49.8448189},{"id":"8626246217","tags":"amenity:grave_yard","lat":-27.3426308,"lng":-49.7038737},{"id":"8626246218","tags":"amenity:grave_yard","lat":-27.2990679,"lng":-49.732125},{"id":"8626246219","tags":"amenity:grave_yard","lat":-27.2903491,"lng":-49.7550293},{"id":"8626246220","tags":"amenity:grave_yard","lat":-27.2916134,"lng":-49.75685},{"id":"8626390665","name":"Hospital Alex Kriser","tags":"amenity:hospital,healthcare:hospital","lat":-27.4003526,"lng":-49.836071},{"id":"8636241997","name":"Biblioteca Pública Municipal Hermann Lauré","tags":"amenity:library","lat":-27.317536,"lng":-49.634576},{"id":"8636241998","name":"Biblioteca Pública Municipal de Agrolândia","tags":"amenity:library","lat":-27.402178,"lng":-49.828051},{"id":"8636241999","name":"Biblioteca Pública Municipal Cruz e Souza","tags":"amenity:library","lat":-27.303793,"lng":-49.79344},{"id":"8636242000","name":"Biblioteca Pública Municipal de Atalanta","tags":"amenity:library","lat":-27.4197545,"lng":-49.7841478},{"id":"8636242002","name":"Biblioteca Pública Municipal Getúlio Vargas","tags":"amenity:library","lat":-27.365104,"lng":-49.888341},{"id":"8636242003","name":"Biblioteca Pública Municipal Doutor Jorge Lacerda","tags":"amenity:library","lat":-27.413243,"lng":-49.607055},{"id":"8636242005","name":"Biblioteca Pública Municipal Paulo Bittencourt","tags":"amenity:library","lat":-27.2648,"lng":-49.711676},{"id":"9688508650","name":"Farmácia Greuel","tags":"amenity:pharmacy,dispensing:yes,healthcare:pharmacy","lat":-27.251835,"lng":-49.6910025}]