[{"id":"2401921162","name":"Museu da Música","tags":"opening_hours:Tu-Su 08:30-11:30, 13:30-17:00,start_date:2004-09-19,tourism:museum","lat":-26.8265763,"lng":-49.312886},{"id":"2643959802","name":"Caixa Econômica Federal","tags":"amenity:bank,brand:Caixa,brand:wikidata:Q835283,operator:Caixa Econômica Federal,short_name:CEF","lat":-26.8935349,"lng":-49.2320816},{"id":"2916656053","name":"Hospital OASE","tags":"amenity:hospital,healthcare:hospital","lat":-26.8262812,"lng":-49.2729885},{"id":"3228854890","name":"Churrascaria Indaial","tags":"amenity:restaurant,cuisine:steak_house","lat":-26.8872348,"lng":-49.2510898},{"id":"3556969966","name":"Escola Isolada Rodeio Benedito","tags":"addr:housenumber:987,addr:street:Rua José Ostrowski Junior,amenity:school","lat":-26.8207346,"lng":-49.3453014},{"id":"3567081269","name":"Escola Estadual Senador Francisco Benjamin Galotti","tags":"addr:street:Rua Frei Lucinio Korte,amenity:school,email:eefgallotti@sed.sc.gov.br,phone:+55 47 3384 3225","lat":-26.8467201,"lng":-49.3259781},{"id":"3620982229","name":"EEB Teófilo Nolasco de Almeida","tags":"amenity:school","lat":-26.7852034,"lng":-49.3645799},{"id":"4160208189","tags":"amenity:cafe","lat":-26.7863197,"lng":-49.3648655},{"id":"4160277273","name":"Sicoob","tags":"amenity:bank","lat":-26.778055,"lng":-49.4095928},{"id":"4224646992","name":"Supermercado Menestrina","tags":"addr:city:Rio dos Cedros,addr:housenumber:28,addr:street:Rua 7 de Setembro,email:f.menestrina@terra.com.br,opening_hours:Mo-Fr 07:30-19:30,operator:Master Vale,phone:+55 47 3386-1181,shop:supermarket,website:http://www.mastervale.com.br","lat":-26.7413171,"lng":-49.2784381},{"id":"4239720435","name":"Correios","tags":"addr:city:Indaial,addr:housenumber:55,addr:postcode:89082-115,addr:street:Avenida Manoel Simão,addr:suburb:Nações,amenity:post_office,brand:Correios,brand:wikidata:Q3375004,brand:wikipedia:en:Correios","lat":-26.892453,"lng":-49.2424485},{"id":"4452624773","name":"Banco do Brasil","tags":"addr:street:Rua Celso Ramos,addr:suburb:Centro,amenity:bank,brand:Banco do Brasil,brand:wikidata:Q610817,brand:wikipedia:en:Banco do Brasil","lat":-26.7814305,"lng":-49.3650242},{"id":"4452624774","name":"Correios","tags":"amenity:post_office,brand:Correios,brand:wikidata:Q3375004,brand:wikipedia:en:Correios","lat":-26.7822949,"lng":-49.3629147},{"id":"4453502389","name":"Supermercado Kruger","tags":"addr:street:Rua Celso Ramos,addr:suburb:Centro,shop:supermarket","lat":-26.7891049,"lng":-49.363188},{"id":"4453974387","name":"Mini Supermercado Schweder","tags":"description:Aberto em Horário Comercial,operator:Marlise Schweder,shop:convenience","lat":-26.8524692,"lng":-49.4421635},{"id":"4453974388","name":"Escola Wetzel","tags":"amenity:school,operator:Município","lat":-26.8472212,"lng":-49.4411902},{"id":"4454218005","name":"Escola Municipal da Barra São João","tags":"amenity:school,operator:Município","lat":-26.7721007,"lng":-49.4344432},{"id":"4455890468","name":"Escola Municipal do Zinco","tags":"amenity:school","lat":-26.8716731,"lng":-49.4597178},{"id":"4548599524","name":"Mercado Pomeranos Bar","tags":"addr:housenumber:2020,addr:street:Rua Pomeranos,shop:convenience","lat":-26.8165703,"lng":-49.2531383},{"id":"4548599575","name":"Kirei","tags":"description:Estética facial e corporal,shop:beauty","lat":-26.8364847,"lng":-49.2647389},{"id":"4548599576","name":"Bomsenhor","tags":"contact:phone:+55 47 3382-8557,shop:pet","lat":-26.8366138,"lng":-49.2647832},{"id":"4548599677","tags":"amenity:atm,brand:Sicoob","lat":-26.8498018,"lng":-49.263602},{"id":"4548599993","name":"Mercado 3 Corações","tags":"addr:housenumber:1666,addr:street:Rua Três Corações,contact:phone:+55 47 3394-0018,opening_hours:Mo-Sa 07:00-12:00,13:30-20:00; Su,PH 08:30-12:00, 15:00-20:00,shop:convenience","lat":-26.869435,"lng":-49.2533083},{"id":"4548600021","name":"Biereck","tags":"addr:housenumber:1774,addr:street:Rua Fritz Lorenz,amenity:nightclub,contact:email:biereck@tpa.com.br,contact:facebook:https://www.facebook.com/Biereck/,contact:phone:+55 47 99284-5654;+55 47 99978-8989","lat":-26.8462435,"lng":-49.2667812},{"id":"4584269746","name":"Escola Nora Krueger Dallmann","tags":"amenity:school","lat":-26.7439673,"lng":-49.2196778},{"id":"4745046924","name":"Farmácia Mara","tags":"amenity:pharmacy,contact:phone:+55 47 3382-0647,healthcare:pharmacy","lat":-26.8228817,"lng":-49.2560189},{"id":"5290557625","name":"Posto Mime","tags":"addr:housenumber:1755,addr:street:BR-470,amenity:fuel,brand:Petrobras,description:Mime BBR Indaial - Filial 25,fuel:cng:yes,fuel:octane_87:yes,opening_hours:Mo-Sa 05:00-23:00; Su,PH 05:00-21:30,operator:Vibra Energia,operator:type:private,operator:wikidata:Q4836468,operator:wikipedia:pt:Vibra Energia,shop:convenience","lat":-26.8694897,"lng":-49.2259383},{"id":"5423746247","name":"AJF Supemercado Marmormai","tags":"shop:convenience","lat":-26.826681,"lng":-49.288867},{"id":"5540451586","name":"Unicesumar","tags":"amenity:university,wheelchair:yes","lat":-26.8937024,"lng":-49.2315815},{"id":"5602552823","name":"Tedo Restaurante","tags":"addr:housenumber:782,addr:postcode:89120-000,addr:street:Rua Fritz Lorenz,amenity:restaurant,opening_hours:Sa-Su 11:00-14:00","lat":-26.8378122,"lng":-49.2654044},{"id":"5610536994","name":"Mazola Grill","tags":"amenity:restaurant,contact:facebook:mazolagrill,contact:phone:+55 47 99953-1269,cuisine:steak_house","lat":-26.8920947,"lng":-49.231403},{"id":"5788356457","name":"Viacredi","tags":"amenity:atm,atm:yes,cash_in:no,currency:BRL:yes,drive_through:no,indoor:yes,level:0,network:Ailos,operator:Viacredi","lat":-26.8840074,"lng":-49.2460037},{"id":"5788356459","name":"Farmácia Cooper","tags":"amenity:pharmacy,contact:phone:+55 47 3317-2020,delivery:yes,healthcare:pharmacy,indoor:yes,level:1,opening_hours:Mo-Sa 08:00-22:00; Su 08:00-21:00","lat":-26.8840096,"lng":-49.2460924},{"id":"5788471867","name":"Central Conveniência","tags":"shop:convenience","lat":-26.8935582,"lng":-49.2325124},{"id":"5788471868","name":"Restaurante Maria Gabriela","tags":"amenity:restaurant","lat":-26.8935833,"lng":-49.2325781},{"id":"5788471870","name":"Sicoob","tags":"amenity:bank,atm:yes,brand:Sicoob,brand:wikidata:Q28679754,brand:wikipedia:pt:Sistema de Cooperativas de Crédito do Brasil","lat":-26.8936383,"lng":-49.2317588},{"id":"5864462438","name":"Farmácia Preço Popular","tags":"amenity:pharmacy,healthcare:pharmacy","lat":-26.8899652,"lng":-49.2431176},{"id":"5864463779","name":"Farmácia Sesi","tags":"amenity:pharmacy,healthcare:pharmacy","lat":-26.8256567,"lng":-49.2757698},{"id":"5864466622","name":"Farmácia Farmanova","tags":"amenity:pharmacy,contact:phone:+55 47 3399-0999,contact:website:http://www.farmanova.com.br,healthcare:pharmacy,opening_hours:Mo-Fr 07:00-20:00; Sa 07:00-18:00","lat":-26.8392431,"lng":-49.2734921},{"id":"5864468997","name":"Farmácia Preço Popular","tags":"amenity:pharmacy,healthcare:pharmacy","lat":-26.8247361,"lng":-49.276319},{"id":"5864471117","name":"Farmácia Unirede","tags":"amenity:pharmacy,healthcare:pharmacy","lat":-26.826972,"lng":-49.2706461},{"id":"5868473691","name":"Escola Municipal São Roque","tags":"amenity:school,contact:phone:+55 47 3399-0186","lat":-26.7866216,"lng":-49.2429021},{"id":"5981759905","name":"Stark Genéricos","tags":"alt_name:Stark Farmácia Filial Nações,amenity:pharmacy,contact:phone:+55 47 3394-7763,healthcare:pharmacy,old_name:Stark Farmácia","lat":-26.8922674,"lng":-49.2413801},{"id":"6219877213","name":"Viacredi","tags":"amenity:bank,atm:yes","lat":-26.8465217,"lng":-49.2665818},{"id":"6219877214","name":"Correios","tags":"amenity:post_office","lat":-26.8465863,"lng":-49.2668138},{"id":"7103248133","tags":"amenity:atm,cash_in:yes,currency:BRL:yes,drive_through:no,network:Ailos,operator:Viacredi","lat":-26.7770196,"lng":-49.4070924},{"id":"7344847014","name":"Unicred","tags":"amenity:bank","lat":-26.8259695,"lng":-49.2750846},{"id":"7344847019","name":"Sicoob MaxiCrédito","tags":"amenity:bank,brand:Sicoob,brand:wikidata:Q28679754,brand:wikipedia:pt:Sistema de Cooperativas de Crédito do Brasil","lat":-26.8211991,"lng":-49.2770095},{"id":"7344847024","name":"Sicoob Euro Vale","tags":"amenity:bank,brand:Sicoob,brand:wikidata:Q28679754,brand:wikipedia:pt:Sistema de Cooperativas de Crédito do Brasil","lat":-26.8138003,"lng":-49.2715966},{"id":"7344847025","name":"Sicoob Euro Vale","tags":"amenity:bank,brand:Sicoob,brand:wikidata:Q28679754,brand:wikipedia:pt:Sistema de Cooperativas de Crédito do Brasil","lat":-26.8318023,"lng":-49.2592163},{"id":"7344852403","name":"São João","tags":"amenity:pharmacy,healthcare:pharmacy","lat":-26.8234965,"lng":-49.2769656},{"id":"7575773087","name":"Café da Mãe Joana","tags":"amenity:restaurant","lat":-26.7519054,"lng":-49.2741334},{"id":"8540716217","name":"Recanto da Oma","tags":"amenity:restaurant","lat":-26.7241611,"lng":-49.5620573},{"id":"8626250350","tags":"amenity:grave_yard","lat":-26.7314109,"lng":-49.3116374},{"id":"8626250353","tags":"amenity:grave_yard","lat":-26.7400263,"lng":-49.3656105},{"id":"8626250354","tags":"amenity:grave_yard","lat":-26.7200527,"lng":-49.3339893},{"id":"8626254153","tags":"amenity:grave_yard","lat":-26.7443103,"lng":-49.5659705},{"id":"8636271171","name":"Biblioteca Pública Municipal Prefeito João Floriani","tags":"amenity:library","lat":-26.739729,"lng":-49.268897},{"id":"8636271173","name":"Biblioteca Pública Municipal Professor Péricles Prade","tags":"amenity:library","lat":-26.8225881,"lng":-49.2763069},{"id":"8636271174","name":"Biblioteca Pública Municipal Cruz e Sousa","tags":"amenity:library,opening_hours:Mo-Fr 08:00-18:00; Sa,Su,PH off","lat":-26.8935056,"lng":-49.2302218},{"id":"8636271176","name":"Biblioteca Pública Municipal Agostinho Barufi","tags":"amenity:library","lat":-26.7817327,"lng":-49.3645626},{"id":"9158605698","name":"Mercadão Nardelli","tags":"shop:supermarket","lat":-26.8526826,"lng":-49.2705461},{"id":"9346747981","name":"Cooperativa Viacredi","tags":"addr:city:Indaial,addr:housenumber:222,addr:street:Rua 22 de Abril,addr:suburb:Carijós,air_conditioning:yes,amenity:bank,atm:yes,drive_through:no,opening_hours:Mo-Fr 08:00-16:00,opening_hours:covid19:open,operator:Ailos,start_date:2022-12-16","lat":-26.8793467,"lng":-49.2332447},{"id":"9826798558","name":"Conveniência D'Hora","tags":"shop:convenience","lat":-26.8245663,"lng":-49.2763518},{"id":"9826817936","name":"Academia T2","tags":"leisure:fitness_centre,opening_hours:Mo-Fr 06:00-24:00; Sa 09:00-14:00, Su 17:00-19:00,phone:+55 47 3380-1444,sport:gymnastics","lat":-26.8191722,"lng":-49.2777868},{"id":"9904716761","name":"Viacredi Cooperativa de Crédito","tags":"addr:city:Rio dos Cedros,addr:housenumber:120,addr:street:Avenida Tiradentes,amenity:bank","lat":-26.7413137,"lng":-49.2768668},{"id":"9904716780","name":"Farmanova","tags":"addr:city:Rio dos Cedros,addr:housenumber:187,addr:street:Avenida Tiradentes,amenity:pharmacy,dispensing:yes,healthcare:pharmacy,phone:+55 47 3386-1108","lat":-26.7406989,"lng":-49.2756394},{"id":"9917825043","name":"Hotel e Restaurante Joana Bella","tags":"addr:street:Rua Duque de Caxias,amenity:restaurant,phone:+55 47 3386-1285,tourism:hotel","lat":-26.7381341,"lng":-49.2559148},{"id":"9919934588","name":"Mercado Murara","tags":"addr:city:Rio dos Cedros,addr:housenumber:930,addr:street:Rua 7 de Setembro,opening_hours:Mo-Sa 07:30-12:00,13:30-20:00; Su 08:00-12:00,phone:+55 47 3386-1512,shop:supermarket","lat":-26.7451132,"lng":-49.2868643}]