[{"id":"1493862159","name":"Restaurante Maciambu","tags":"amenity:restaurant","lat":-27.8435978,"lng":-48.6364153},{"id":"2134362857","name":"Golfinho","tags":"amenity:restaurant,source:name:survey","lat":-27.8341304,"lng":-48.5609069},{"id":"2710095648","name":"Ilhota das Ostras","tags":"amenity:restaurant,cuisine:seafood","lat":-27.7750223,"lng":-48.5745829},{"id":"2986706247","name":"Cantinho da Unha","tags":"shop:beauty","lat":-27.7738142,"lng":-48.574517},{"id":"3566107029","tags":"amenity:pharmacy,healthcare:pharmacy","lat":-27.8843562,"lng":-48.5873323},{"id":"3566107030","tags":"amenity:atm,operator:Banco24horas","lat":-27.8847349,"lng":-48.5870013},{"id":"3567151817","tags":"amenity:restaurant","lat":-27.8844027,"lng":-48.5845116},{"id":"4417075242","name":"Bolo Bolo","tags":"addr:housenumber:17,addr:street:Rua Aderbal Ramos da Silva,amenity:cafe,descent:Café e Ateliê de Doces","lat":-27.8840482,"lng":-48.5869828},{"id":"4417080424","name":"Supermercado Tabuleiro","tags":"addr:city:Palhoça,addr:street:Rodovia Evádio Paulo Broering,addr:suburb:Praia da Pinheira,shop:supermarket","lat":-27.8858406,"lng":-48.6014907},{"id":"4417095522","name":"Mercado Schefer","tags":"shop:convenience","lat":-27.8494996,"lng":-48.6038515},{"id":"4417096516","name":"Beira Rio Restaurante","tags":"amenity:restaurant","lat":-27.8465661,"lng":-48.5995466},{"id":"4417099093","name":"Praia do Sonho","tags":"amenity:restaurant","lat":-27.8471727,"lng":-48.6000146},{"id":"4417100201","name":"Mercado Antunes","tags":"shop:convenience","lat":-27.8507565,"lng":-48.5973793},{"id":"4417102087","name":"Panela de Barro","tags":"amenity:restaurant","lat":-27.8471465,"lng":-48.58923},{"id":"4417102160","name":"Restaurante Dumar","tags":"amenity:restaurant","lat":-27.8453566,"lng":-48.5876751},{"id":"4417105429","name":"Nobre Pizza","tags":"amenity:restaurant,cuisine:pizza","lat":-27.8451703,"lng":-48.5899904},{"id":"4417105485","name":"Escola Isolada Municipal Papagaios","tags":"amenity:school","lat":-27.8461034,"lng":-48.5913433},{"id":"4417109910","name":"Supermercado Sidnen","tags":"shop:supermarket","lat":-27.8445497,"lng":-48.5933165},{"id":"4417128565","name":"Pizzaria Di Nápoli","tags":"amenity:restaurant,cuisine:pizza","lat":-27.8469097,"lng":-48.5956677},{"id":"4417131079","name":"Bistrô Tio Gordo","tags":"amenity:restaurant","lat":-27.838568,"lng":-48.5894185},{"id":"4417131132","name":"Polícia Militar","tags":"amenity:police,description:2ªCIA/16ºBPM / 11ªRPM","lat":-27.8411445,"lng":-48.5909754},{"id":"4417131511","name":"Espaço do Sabor","tags":"amenity:restaurant","lat":-27.8387808,"lng":-48.5893052},{"id":"4417133621","name":"Supermercado Basquera","tags":"shop:supermarket","lat":-27.8376539,"lng":-48.5951175},{"id":"4417134572","name":"Supermercado Ana Paula","tags":"shop:supermarket","lat":-27.8367565,"lng":-48.5954738},{"id":"4417140166","name":"Supermercado Km2","tags":"shop:supermarket","lat":-27.8289522,"lng":-48.6115447},{"id":"4639666215","name":"Farmácia Paula","tags":"amenity:pharmacy,healthcare:pharmacy,name:pt:Farmácia Paula","lat":-27.8378449,"lng":-48.5952372},{"id":"4639666298","name":"Peixaria e Mercado Martins","tags":"shop:supermarket","lat":-27.8581552,"lng":-48.6022529},{"id":"4639666303","name":"Canoa Quebrada Restaurante e Petiscaria","tags":"amenity:restaurant","lat":-27.8472136,"lng":-48.5894841},{"id":"4641930809","name":"Farmácia Guarda do Embaú","tags":"amenity:pharmacy,healthcare:pharmacy","lat":-27.9017134,"lng":-48.5911999},{"id":"5125447074","tags":"amenity:parking","lat":-27.8853538,"lng":-48.6466791},{"id":"6190500317","name":"2ª Companhia de Polícia Militar Ambiental","tags":"amenity:police","lat":-27.8405371,"lng":-48.627795},{"id":"6399609680","name":"Praia da Pinheira Palhoça","tags":"tourism:attraction","lat":-27.8844832,"lng":-48.5882344},{"id":"10219068637","name":"Biblioteca Comunitária Desaniversários","tags":"addr:street:Rua 512,amenity:library","lat":-27.864063,"lng":-48.6039617}]