[{"id":"426938400","name":"Posto 4 Ilhas","tags":"addr:street:Avenida Governador Celso Ramos,amenity:fuel,brand:Ipiranga,shop:convenience","lat":-27.1588096,"lng":-48.5677094},{"id":"1042065637","name":"Aeroporto Aeroportobelo","tags":"aerodrome:private,aeroway:aerodrome,icao:SDYS,name:en:Aeroportobelo Airport,wikidata:Q31202999","lat":-27.1735716,"lng":-48.6311996},{"id":"1085325805","tags":"amenity:ferry_terminal,ferry:yes,public_transport:station","lat":-27.1440136,"lng":-48.544606},{"id":"1270152404","name":"Igreja Matriz de Santo Antônio","tags":"amenity:place_of_worship,building:church,denomination:roman_catholic,religion:christian","lat":-27.0908129,"lng":-48.6116255},{"id":"1270157004","tags":"amenity:restaurant,cuisine:brazilian","lat":-27.1429032,"lng":-48.5439315},{"id":"1270157007","name":"Ecomuseu Univali","tags":"alt_name:Ecomuseu Ilha de Porto Belo,email:ecomuseu@univali.br,opening_hours:Sep-Mar: Mo-Su 09:00-18:00,operator:Univali,phone:+55 47 3261-1287,tourism:museum,website:https://www.univali.br/institucional/ecomuseu-univali/Paginas/default.aspx","lat":-27.1426127,"lng":-48.5439654},{"id":"2941291624","name":"Bradesco","tags":"addr:city:Itapema,addr:housenumber:3372,addr:postcode:88220-000,addr:street:Avenida Nereu Ramos,addr:suburb:Meia Praia,amenity:bank,brand:Bradesco,brand:wikidata:Q806181,brand:wikipedia:en:Banco Bradesco,old_name:HSBC","lat":-27.1219523,"lng":-48.6062805},{"id":"2973869181","name":"Hangaragem Costa Esmeralda","tags":"addr:housename:Km 156,addr:street:Rodovia Governador Mário Covas,addr:suburb:Fazenda Santo Antônio,aerodrome:private,aeroway:aerodrome,alt_name:Aeroporto Costa Esmeralda,contact:facebook:https://www.facebook.com/hangaragemcostaesmeralda,contact:phone:+55 47 9909-1833,contact:twitter:@hangaragem,contact:website:http://hangaragemcostaesmeralda.com.br/,description:Condomínio Aeronáutico,icao:SDEN,loc_name:Hangar 11,wikidata:Q31203270","lat":-27.1663698,"lng":-48.6215934},{"id":"3139260571","name":"Posto Canaã","tags":"addr:street:Avenida Governador Celso Ramos,amenity:fuel,brand:Independent,operator:Postos Tio Hugo,shop:convenience","lat":-27.1596281,"lng":-48.601015},{"id":"3252445605","name":"O Pescador","tags":"addr:city:Itapema,amenity:restaurant","lat":-27.0936343,"lng":-48.6039264},{"id":"3901118944","name":"Rancho do Joel","tags":"amenity:restaurant","lat":-27.1463343,"lng":-48.6985344},{"id":"4069351518","name":"Supermercado Myatã","tags":"addr:housenumber:181,addr:postcode:88210-000,addr:street:Rua Hironildo Conceição dos Santos,addr:suburb:Perequê,shop:supermarket","lat":-27.14728,"lng":-48.5884927},{"id":"4175043503","name":"Villa Café","tags":"amenity:cafe","lat":-27.118532,"lng":-48.6098783},{"id":"4175134878","name":"Comida Caseira Casa Branca","tags":"addr:city:Itapema,amenity:restaurant,cuisine:regional","lat":-27.0891296,"lng":-48.6150773},{"id":"4175134879","name":"Rede Master Farma","tags":"amenity:pharmacy,dispensing:yes,healthcare:pharmacy","lat":-27.0887129,"lng":-48.6146271},{"id":"4250989834","tags":"shop:convenience","lat":-27.106263,"lng":-48.7000373},{"id":"4251897714","name":"Farmácia Super Popular","tags":"amenity:pharmacy,healthcare:pharmacy","lat":-27.1540192,"lng":-48.5411262},{"id":"4251897715","name":"Havana's Le Deck Bar Gastronômico","tags":"amenity:restaurant","lat":-27.1562612,"lng":-48.5461033},{"id":"4251897716","name":"Porto Farma","tags":"amenity:pharmacy,healthcare:pharmacy","lat":-27.1564307,"lng":-48.5464828},{"id":"4251897735","tags":"amenity:ferry_terminal,ferry:yes,public_transport:station","lat":-27.1533269,"lng":-48.5451778},{"id":"4307664590","name":"Supermercado Barni","tags":"shop:supermarket","lat":-27.0805619,"lng":-48.8607146},{"id":"4311864622","name":"Recanto do Guarapuvu","tags":"addr:city:Itapema,addr:housenumber:4000,addr:postcode:88220-000,addr:street:Rua Isidoro Luís Crispin,addr:suburb:Sertão do Trombudo,amenity:restaurant,contact:email:contato@guarapuvu.com.br,contact:facebook:https://www.facebook.com/RecantoDoGuarapuvu,contact:phone:+55 47 9983-9987;+55 47 9220-9987,contact:website:http://guarapuvu.com.br/,opening_hours:Mo-Su 11:00-14:30 open \\Almoço\\; Sa,Su 10:00-17:00","lat":-27.1299992,"lng":-48.6435537},{"id":"4314958761","name":"Minimercado Formentin","tags":"addr:city:Itapema,addr:postcode:88220-000,addr:street:Rua 706,addr:suburb:Várzea,shop:convenience","lat":-27.0959836,"lng":-48.6257547},{"id":"4314958762","name":"Minimercado São Paulinho","tags":"addr:city:Itapema,addr:housenumber:226,addr:postcode:88220-000,addr:street:Rua 706,addr:suburb:Várzea,shop:convenience","lat":-27.0973191,"lng":-48.6265353},{"id":"4325111077","name":"31º Batalhão de Polícia Militar","tags":"addr:city:Itapema,addr:housenumber:521,addr:postcode:88220-000,addr:street:Rua 716,addr:suburb:Tabuleiro dos Oliveiras,amenity:police","lat":-27.0987614,"lng":-48.6243198},{"id":"4332249527","name":"Correios","tags":"addr:city:Itapema,addr:housenumber:700,addr:postcode:88220-970,addr:street:Avenida Nereu Ramos,addr:suburb:Centro,amenity:post_office,brand:Correios,brand:wikidata:Q3375004,brand:wikipedia:en:Correios,contact:phone:+55 47 3368-9848,contact:website:http://www.correios.com.br/,opening_hours:Mo-Fr 09:00-12:00,13:00-17:00","lat":-27.1018432,"lng":-48.6152967},{"id":"4366629971","name":"Padaria Zúqui","tags":"addr:city:Itapema,addr:housenumber:200,addr:postcode:88220-000,addr:street:Rua 109,addr:suburb:Canto da Praia,amenity:cafe","lat":-27.0904099,"lng":-48.60644},{"id":"4454993488","name":"Osmari","tags":"addr:city:Itapema,addr:housenumber:580,addr:postcode:88220-000,addr:street:Avenida Nereu Ramos,addr:suburb:Centro,shop:supermarket","lat":-27.100194,"lng":-48.6157536},{"id":"4645814993","name":"Benoit","tags":"addr:city:Itapema,addr:postcode:88220-000,addr:suburb:Meia Praia,shop:supermarket","lat":-27.1216424,"lng":-48.6058028},{"id":"4705484590","name":"El Fortin Club","tags":"addr:housenumber:100,addr:street:Rua Izidoro Bernadino Batista,amenity:nightclub,contact:email:contato@elfortinclub.com,contact:facebook:https://www.facebook.com/elfortinclubportobelo,contact:phone:+55 47 99263-1311;+55 47 99967-9193,contact:website:http://elfortinclub.com.br/,reservation:yes","lat":-27.1676636,"lng":-48.5719886},{"id":"5125447080","tags":"amenity:parking","lat":-27.1845864,"lng":-48.6129999},{"id":"5305177023","name":"Brothers","tags":"addr:street:Orla Meia Praia,amenity:restaurant,cuisine:burger;japanese,internet_access:wlan","lat":-27.1247134,"lng":-48.6034077},{"id":"5350950048","name":"Sicredi","tags":"addr:postcode:88220-000,addr:street:Rua 412 A,amenity:bank,atm:yes,brand:Sicredi,brand:wikidata:Q3483060,brand:wikipedia:pt:Sistema de Crédito Cooperativo,drive_through:no,operator:Sicredi","lat":-27.1219847,"lng":-48.6130911},{"id":"5372323026","name":"Spaziale Italiana","tags":"amenity:restaurant,cuisine:italian","lat":-27.2023933,"lng":-48.6124356},{"id":"5470382596","name":"Disk água carvão e gás","tags":"shop:convenience","lat":-27.1262379,"lng":-48.6121023},{"id":"5470432741","tags":"shop:pet","lat":-27.2438568,"lng":-48.6410125},{"id":"5532295559","name":"Cia da Saúde","tags":"product:natural,shop:convenience","lat":-27.2403519,"lng":-48.6344931},{"id":"5532295565","name":"Luz de Minas","tags":"shop:beauty","lat":-27.2407597,"lng":-48.6353567},{"id":"5532295567","name":"China Express","tags":"amenity:restaurant,cuisine:sushi","lat":-27.2394624,"lng":-48.6341216},{"id":"5532295568","name":"Chef do Sabor","tags":"amenity:restaurant,cuisine:grill,old_name:Degustare","lat":-27.2394504,"lng":-48.6344998},{"id":"5532295573","name":"Cafeteria Laupes","tags":"amenity:cafe,old_name:Café Black Coffee","lat":-27.2394626,"lng":-48.6342866},{"id":"5532295575","name":"Nova Canaã","tags":"shop:books","lat":-27.2400826,"lng":-48.633899},{"id":"5774203155","name":"Porto Café","tags":"amenity:cafe","lat":-27.1539757,"lng":-48.5410057},{"id":"5774203156","tags":"amenity:bank","lat":-27.1534267,"lng":-48.541639},{"id":"5950240626","name":"Farmácia D Mais","tags":"amenity:pharmacy,healthcare:pharmacy","lat":-27.2392919,"lng":-48.6341652},{"id":"6294286005","name":"Cabral Restaurante","tags":"addr:city:Itapema,addr:housenumber:500,addr:postcode:88220-000,addr:street:Rua 113,addr:suburb:Centro,amenity:restaurant,contact:facebook:cabralrestaurantes,contact:instagram:cabralrestaurantes,contact:phone:+55 47 3368 2387,contact:twitter:@cabralitapema,contact:website:https://cabralrestaurantes.com.br","lat":-27.0917854,"lng":-48.6094515},{"id":"6347586285","tags":"name:en:Cruise Ship Anchorage,tourism:attraction","lat":-27.1205083,"lng":-48.5435059},{"id":"6709105785","name":"Sicredi","tags":"addr:street:Rua 250,amenity:bank,brand:Sicredi,brand:wikidata:Q3483060,brand:wikipedia:pt:Sistema de Crédito Cooperativo,opening_hours:Mo-Fr 10:00-15:00,phone:+55 47 3267 1150","lat":-27.1313818,"lng":-48.6060908},{"id":"6709105885","name":"Sicredi","tags":"addr:street:Avenida Governador Celso Ramos,amenity:bank,brand:Sicredi,brand:wikidata:Q3483060,brand:wikipedia:pt:Sistema de Crédito Cooperativo,opening_hours:Mo-Fr 10:00-15:00","lat":-27.0913554,"lng":-48.6140101},{"id":"6727559862","name":"CEI Vó Roza Dallago","tags":"addr:city:Brusque,addr:postcode:88356-000,addr:street:Rua Alberto Müller,addr:suburb:Limeira Baixa,amenity:school","lat":-27.0781271,"lng":-48.8622869},{"id":"6839128246","name":"Café du Centre","tags":"addr:city:Itapema,addr:housenumber:179,addr:postcode:88220-000,addr:street:Avenida Nereu Ramos,addr:suburb:Centro,amenity:cafe,description:Cafeteria e Doceria","lat":-27.0962016,"lng":-48.6164589},{"id":"6839150489","name":"Pietros - Lounge Bar & Restaurante","tags":"addr:city:Itapema,addr:housenumber:987,addr:postcode:88220-000,addr:street:Avenida Nereu Ramos,addr:suburb:Centro,amenity:restaurant","lat":-27.103361,"lng":-48.6149522},{"id":"6895971309","tags":"amenity:parking","lat":-27.1473221,"lng":-48.5886916},{"id":"6895971310","tags":"amenity:parking","lat":-27.1476753,"lng":-48.5884487},{"id":"6895991489","tags":"amenity:parking","lat":-27.14642,"lng":-48.5895105},{"id":"7220620103","name":"Toca do Camarão","tags":"amenity:restaurant","lat":-27.1009751,"lng":-48.6140623},{"id":"7220646925","name":"Sushi Rodízio de Sushi","tags":"amenity:restaurant","lat":-27.1010249,"lng":-48.6140556},{"id":"7702519706","name":"Recanto do Amanhecer","tags":"amenity:cafe","lat":-27.1583189,"lng":-48.5950921},{"id":"7761366401","name":"CEPAVI","tags":"access:private,alt_name:Colégio Associação do Vale do Itajaí,amenity:school,contact:email:contato@colegiocepavi.com.br,contact:phone:+55 47 3369-9543,contact:website:https://colegiocepavi.com.br/,operator:Centro Educacional Porto das Águas,operator:type:private","lat":-27.159459,"lng":-48.5848822},{"id":"8626241586","tags":"amenity:grave_yard","lat":-27.1147838,"lng":-48.8229579},{"id":"8626241587","tags":"amenity:grave_yard","lat":-27.2035819,"lng":-48.7180683},{"id":"8627243065","name":"Assembléia de Deus","tags":"amenity:place_of_worship,building:church,denomination:pentecostal,religion:christian","lat":-27.1672466,"lng":-48.5866355},{"id":"8627243095","name":"Igreja Nossa Senhora Aparecida","tags":"amenity:place_of_worship,building:church,denomination:roman_catholic,religion:christian","lat":-27.1822621,"lng":-48.517329},{"id":"8632737618","name":"Igreja de São João Batista","tags":"amenity:place_of_worship,building:church,denomination:roman_catholic,religion:christian","lat":-27.1409411,"lng":-48.6451499},{"id":"8636271154","name":"Biblioteca Pública Municipal Edmundo da Luz Pinto","tags":"amenity:library","lat":-27.2458512,"lng":-48.6390506},{"id":"8636271163","name":"Biblioteca Pública Municipal Cruz e Souza","tags":"amenity:library","lat":-27.1816808,"lng":-48.5198596},{"id":"8636271165","name":"Biblioteca Pública Municipal Tancredo Neves","tags":"amenity:library","lat":-27.1021291,"lng":-48.6151559},{"id":"8636271166","name":"Biblioteca Pública Municipal Professor Donato Ananias d'Alameida","tags":"amenity:library","lat":-27.1576927,"lng":-48.5464196},{"id":"8638116963","name":"Estádio Municipal Cristiano Cunha","tags":"leisure:stadium","lat":-27.1531762,"lng":-48.5179899},{"id":"8976119025","name":"Studio Helen Bock","tags":"addr:city:Itapema,addr:door:04,addr:housenumber:3740,addr:postcode:88220-000,addr:street:Avenida Nereu Ramos,addr:suburb:Meia Praia,contact:instagram:studiohelenbock,contact:phone:+55 47 98888-9922,shop:beauty","lat":-27.1270452,"lng":-48.6029719},{"id":"9061222905","tags":"playground:swing,tourism:attraction","lat":-27.1810837,"lng":-48.5220006},{"id":"9061225117","name":"Padaria e Mercearia Garcia","tags":"shop:convenience","lat":-27.172282,"lng":-48.521717},{"id":"9070451421","name":"Eu Amo Porto Belo","tags":"tourism:attraction","lat":-27.1472964,"lng":-48.5343401},{"id":"9070451436","tags":"access:yes,amenity:parking","lat":-27.1489635,"lng":-48.5353218},{"id":"9070451446","tags":"access:yes,amenity:parking","lat":-27.1473143,"lng":-48.5342208},{"id":"9071350413","name":"Faculdade Porto das Águas","tags":"access:private,addr:housenumber:719,addr:street:Avenida Governador Celso Ramos,amenity:university,contact:email:contato@fapag.edu.br,contact:facebook:https://www.facebook.com/fapag.faculdade,contact:instagram:https://www.instagram.com/fapag.faculdade/,contact:phone:0800 585 3131,contact:website:https://www.fapag.edu.br/,contact:whatsapp:+55 48 99125-6561,roof:shape:hipped,short_name:FAPAG","lat":-27.160317,"lng":-48.5732668},{"id":"9072186989","name":"Agroa Baíto","tags":"addr:housenumber:1187,addr:street:Avenida Governador Celso Ramos,shop:pet","lat":-27.1615765,"lng":-48.5795555},{"id":"9123198127","name":"Daiana Otto Estética Avançada","tags":"beauty:aesthetic;laser_hair_removal,contact:instagram:https://www.instagram.com/esteticadaianaotto/,shop:beauty","lat":-27.1592145,"lng":-48.5690217},{"id":"9471398429","name":"Boreste","tags":"addr:housenumber:484,addr:street:Avenida Girassol,amenity:restaurant","lat":-27.1815671,"lng":-48.520971},{"id":"9471425747","name":"Água Viva","tags":"shop:convenience","lat":-27.1812891,"lng":-48.5211841},{"id":"9476545036","tags":"amenity:pharmacy,dispensing:yes,healthcare:pharmacy","lat":-27.1611435,"lng":-48.5745223},{"id":"9483553401","tags":"amenity:pharmacy,dispensing:yes,healthcare:pharmacy","lat":-27.1730169,"lng":-48.5218801},{"id":"9574058831","name":"Mercado Batista","tags":"shop:convenience","lat":-27.1392445,"lng":-48.6433183},{"id":"9574059322","name":"Alambique Pedro Alemão","tags":"tourism:museum","lat":-27.1867742,"lng":-48.6002862},{"id":"9574059912","name":"Supermercado Lopes","tags":"shop:convenience","lat":-27.2132401,"lng":-48.6036015},{"id":"9574059986","name":"Mercado Reis","tags":"shop:convenience","lat":-27.2192545,"lng":-48.6365993},{"id":"9596321741","name":"Supermercados Sertto","tags":"shop:convenience","lat":-27.180637,"lng":-48.5226973},{"id":"9596321800","name":"Silva Supermercado","tags":"shop:convenience","lat":-27.1726716,"lng":-48.5225384},{"id":"9707803522","name":"Bar do Dedi","tags":"amenity:restaurant,contact:facebook:Bar-do-dedi-1780596185587694,cuisine:regional","lat":-27.1698158,"lng":-48.7270225},{"id":"9799906502","name":"Farmácia Citratus","tags":"amenity:pharmacy,dispensing:yes,healthcare:pharmacy","lat":-27.0951963,"lng":-48.6166539},{"id":"10093411930","name":"Caixa Econômica Federal","tags":"amenity:bank,brand:Caixa Econômica Federal,brand:wikidata:Q835283","lat":-27.1533883,"lng":-48.5415635}]