[{"id":"1270249311","tags":"amenity:parking","lat":-27.1436462,"lng":-48.4776601},{"id":"3214208323","name":"Churrascaria e Pizzaria Arte Brasileira","tags":"addr:street:Avenida Vereador Manoel José dos Santos,amenity:restaurant,cuisine:pizza;steak_house","lat":-27.1496641,"lng":-48.4895488},{"id":"3214212281","name":"Shopping Tropical","tags":"addr:street:Avenida Vereador Manoel José dos Santos,shop:mall","lat":-27.1496034,"lng":-48.4898054},{"id":"3928381081","name":"Correios","tags":"amenity:post_office,brand:Correios,brand:wikidata:Q3375004,brand:wikipedia:en:Correios","lat":-27.152507,"lng":-48.5085695},{"id":"3928381082","name":"Supermercado Schmit","tags":"shop:supermarket","lat":-27.1494076,"lng":-48.506289},{"id":"3992397057","name":"Mercado Ruzza","tags":"old_name:Mercado e Padaria Tio Déco,organic:only,shop:convenience,wheelchair:no","lat":-27.197818,"lng":-48.499489},{"id":"4026766989","name":"Paraíso dos Sabores","tags":"amenity:restaurant,internet_access:wlan,toilets:yes","lat":-27.1710967,"lng":-48.4995107},{"id":"4039373089","name":"Coringa Bar Restaurante","tags":"amenity:restaurant","lat":-27.1990442,"lng":-48.4987804},{"id":"4554489691","name":"Super Raffi Supermercados","tags":"shop:supermarket","lat":-27.149638,"lng":-48.4898354},{"id":"4564215509","name":"Posto Schmidt","tags":"addr:housenumber:2500,addr:street:Avenida Leopoldo Zarling,amenity:fuel,brand:Shell,fuel:diesel:yes,fuel:ethanol:yes,fuel:octane_95:yes,fuel:octane_98:yes,old_name:Posto Praia Bombas,shop:convenience","lat":-27.1455351,"lng":-48.5033152},{"id":"4687805126","name":"Drogaria DoniFarma","tags":"amenity:pharmacy,healthcare:pharmacy","lat":-27.1446977,"lng":-48.503923},{"id":"4688583326","name":"Panificadora e Confeitaria Vitória","tags":"alt_name:Casa Amarela Café,amenity:cafe,internet_access:wlan,internet_access:fee:no,shop:bakery","lat":-27.1524206,"lng":-48.5081311},{"id":"4688846496","name":"Recanto do Marujo","tags":"amenity:restaurant,opening_hours:Mo-Su 09:00-24:00","lat":-27.1463877,"lng":-48.4809038},{"id":"4688872452","tags":"amenity:parking,fee:yes,opening_hours:07:00-20:00","lat":-27.1463406,"lng":-48.4806902},{"id":"4691505887","name":"Mentawai Bar","tags":"amenity:bar,outdoor_seating:yes","lat":-27.1821523,"lng":-48.5102336},{"id":"4697870951","name":"Tomatino","tags":"amenity:restaurant,cuisine:italian","lat":-27.147938,"lng":-48.4933858},{"id":"4697870952","name":"La Coquille","tags":"amenity:restaurant,contact:facebook:https://www.facebook.com/pg/creperialacoquille/,cuisine:french,description:Pizzaria Creperia","lat":-27.1479046,"lng":-48.4935601},{"id":"4698248415","name":"Caracol","tags":"amenity:restaurant","lat":-27.1474225,"lng":-48.4934743},{"id":"4700325673","name":"Bradesco","tags":"amenity:bank,brand:Bradesco,brand:wikidata:Q806181,brand:wikipedia:en:Banco Bradesco","lat":-27.1486947,"lng":-48.5061006},{"id":"5921511483","name":"Banco Itaú","tags":"addr:street:Avenida Leopoldo Zarling,alt_name:Banco Itau,amenity:bank","lat":-27.1427678,"lng":-48.5062115},{"id":"6135003051","name":"Concha das Ostras","tags":"addr:housenumber:299,addr:street:Avenida Vereador Manoel José dos Santos,amenity:restaurant,description:Restaurante ,opening_hours:Tu-Su 11:00-22:00; Mo 09:00-23:00,phone:+55 47 3366-7046,website:https://concha-das-ostras.negocio.site","lat":-27.1481754,"lng":-48.4925534},{"id":"6233176129","name":"Don Tecchio","tags":"addr:street:Avenida Leopoldo Zarling,amenity:restaurant,phone:+55-47-3369-2673","lat":-27.1391132,"lng":-48.5102646},{"id":"6233228165","name":"Pão da Vovó","tags":"addr:street:Avenida Leopoldo Zarling,alt_name:Pao da Vovo Padaria e Restaurante,amenity:cafe,lunch:yes,shop:bakery","lat":-27.1413915,"lng":-48.5078922},{"id":"6234899868","name":"Banco do Brasil","tags":"addr:housenumber:304,addr:street:Rua Baleia-Jubarte,amenity:bank,atm:yes,brand:Banco do Brasil,brand:wikidata:Q610817,brand:wikipedia:en:Banco do Brasil,operator:Banco do Brasil S/A,ownership:national","lat":-27.1517714,"lng":-48.5009506},{"id":"6300176159","name":"Dona Santa","tags":"amenity:restaurant","lat":-27.1497019,"lng":-48.4870831},{"id":"6300176161","name":"Karanova","tags":"amenity:restaurant","lat":-27.1493586,"lng":-48.4873532},{"id":"6300176162","name":"Black Bull","tags":"amenity:restaurant,cuisine:burger","lat":-27.1493625,"lng":-48.487211},{"id":"7149253210","name":"Supermercado Estrela do Mar","tags":"shop:supermarket,short_name:Estrela do Mar","lat":-27.1999936,"lng":-48.4974436},{"id":"7149270949","name":"Shopping Punta Blú","tags":"alt_name:Shopping Punta Blu,shop:mall","lat":-27.1488108,"lng":-48.4916943},{"id":"7232170285","name":"Maçarico Center","tags":"addr:housenumber:2427,addr:street:Avenida Leopoldo Zarling,shop:mall","lat":-27.1448808,"lng":-48.5036582},{"id":"7261860759","name":"Mirante do Arvoredo","tags":"amenity:restaurant","lat":-27.1535795,"lng":-48.4830132},{"id":"7262043451","name":"Brisa do Mar","tags":"addr:housenumber:1626,addr:street:Avenida Água-Marinha,shop:convenience","lat":-27.1733306,"lng":-48.5004302},{"id":"7262073516","name":"Vô Lauro","tags":"amenity:restaurant,contact:phone:+55 47 3393-3192,internet_access:wlan,internet_access:fee:customers","lat":-27.1994104,"lng":-48.4950645},{"id":"7269519481","name":"Hamburgueria e Petiscaria da Vila","tags":"amenity:restaurant,old_name:Restaurante da Vila","lat":-27.1998696,"lng":-48.4970279},{"id":"7269519482","name":"Supermercado Edna","tags":"shop:supermarket","lat":-27.1996632,"lng":-48.4965451},{"id":"7269553685","name":"Armazém do Pescador","tags":"amenity:restaurant","lat":-27.1993471,"lng":-48.4954434},{"id":"7273244128","name":"Sabores do Mar","tags":"amenity:restaurant","lat":-27.1971971,"lng":-48.4964029},{"id":"7273244141","name":"Restaurante do Lino","tags":"amenity:restaurant","lat":-27.1994247,"lng":-48.4951423},{"id":"7273244143","name":"Churrascaria Bastantão","tags":"amenity:restaurant","lat":-27.199742,"lng":-48.4960073},{"id":"7278447945","name":"Beach Beer","tags":"shop:convenience","lat":-27.190693,"lng":-48.4995136},{"id":"9057425339","name":"Veratoni","tags":"shop:supermarket","lat":-27.1496241,"lng":-48.4874399},{"id":"9060627199","name":"Restaurante e Petiscaria Paraíso","tags":"amenity:restaurant","lat":-27.1527992,"lng":-48.4813604},{"id":"9060627202","name":"Porto das Ilhas Container","tags":"amenity:restaurant","lat":-27.1535084,"lng":-48.4827472},{"id":"9060966079","name":"Amigo Pet","tags":"shop:pet","lat":-27.18384,"lng":-48.5123546},{"id":"9061222904","tags":"playground:swing,tourism:attraction","lat":-27.1677368,"lng":-48.4984723},{"id":"9061222906","tags":"playground:swing,tourism:attraction","lat":-27.2027681,"lng":-48.4904055},{"id":"9061222915","name":"Casa Amarela Pet Center","tags":"shop:pet","lat":-27.1474599,"lng":-48.5058966},{"id":"9061241073","name":"Pão da Vovó","tags":"amenity:cafe,lunch:yes","lat":-27.1502189,"lng":-48.4874095},{"id":"9061241074","name":"O Barão","tags":"amenity:restaurant,cuisine:burger","lat":-27.149374,"lng":-48.4874886},{"id":"9063070385","name":"Casarão da Massa","tags":"amenity:restaurant","lat":-27.1474503,"lng":-48.4951034},{"id":"9068697920","name":"Ancoradouro","tags":"amenity:restaurant,outdoor_seating:yes","lat":-27.1495614,"lng":-48.4860617},{"id":"9068697927","name":"Supermercado Bombinhas","tags":"shop:supermarket","lat":-27.148831,"lng":-48.4836008},{"id":"9459058998","name":"Farmácia Mar Azul","tags":"addr:street:Avenida Girassol,amenity:pharmacy,dispensing:yes,healthcare:pharmacy","lat":-27.1845324,"lng":-48.5127772},{"id":"9459081807","name":"Supermercados Schmit","tags":"addr:street:Avenida Girassol,shop:supermarket","lat":-27.1836369,"lng":-48.5141887},{"id":"9466798848","name":"Maomar","tags":"amenity:restaurant","lat":-27.1725013,"lng":-48.5002053},{"id":"9466803262","name":"Canto da Praia","tags":"shop:convenience","lat":-27.1727229,"lng":-48.5002705},{"id":"9482488771","name":"Capitão Aloha!","tags":"amenity:pharmacy,dispensing:yes,healthcare:pharmacy","lat":-27.1737517,"lng":-48.5006778},{"id":"9596134289","name":"Tô Dentro","tags":"amenity:restaurant","lat":-27.1877644,"lng":-48.5087934},{"id":"9596134290","name":"Buraco na Proa","tags":"amenity:restaurant","lat":-27.1873278,"lng":-48.5093915},{"id":"9596134296","name":"Restaurante e Petiscaria Sabor Nordestino","tags":"amenity:restaurant","lat":-27.184813,"lng":-48.5123654},{"id":"9596321482","name":"Usi Popular","tags":"amenity:pharmacy,dispensing:yes,healthcare:pharmacy","lat":-27.1541067,"lng":-48.5027853},{"id":"9596321484","name":"Sicoob","tags":"amenity:bank,atm:yes","lat":-27.1515232,"lng":-48.5004222},{"id":"9596321485","name":"Farmácia Central","tags":"amenity:pharmacy,dispensing:yes,healthcare:pharmacy","lat":-27.1516079,"lng":-48.5004839},{"id":"9596321512","name":"Patris Supermercado","tags":"shop:supermarket","lat":-27.1538913,"lng":-48.5036235},{"id":"9596321587","name":"ORJ Supermercado","tags":"shop:convenience","lat":-27.1525041,"lng":-48.5066141},{"id":"9596321909","name":"Bradesco","tags":"amenity:bank,atm:yes,brand:Bradesco,operator:Bradesco","lat":-27.1515982,"lng":-48.5075253},{"id":"9955300928","name":"Girassol Supermercados","tags":"addr:city:Bombinhas,addr:housenumber:1329,addr:postcode:88215-000,addr:street:Avenida Girassol,addr:suburb:morrinhos,air_conditioning:yes,internet_access:wlan,opening_hours:08:00 - 21:00,payment:american_express:yes,payment:cards:yes,payment:cash:yes,payment:coins:yes,payment:contactless:yes,payment:credit_cards:yes,payment:debit_cards:yes,payment:maestro:yes,payment:mastercard:yes,payment:telephone_cards:yes,payment:visa:yes,payment:visa_electron:yes,phone:+554733934545,shop:supermarket,stroller:yes,wheelchair:yes","lat":-27.1841939,"lng":-48.5132877},{"id":"9955320028","name":"Ilhota","tags":"leisure:park,opening_hours:24/7","lat":-27.2000678,"lng":-48.4924783},{"id":"10307731686","name":"La Grispela","tags":"amenity:restaurant,check_date:2023-01-04,cuisine:pizza,internet_access:wlan,internet_access:fee:customers,level:0,name:pt:La Grispela Pizzaria,payment:mastercard:yes,payment:visa:yes","lat":-27.1436375,"lng":-48.5052823},{"id":"10307772258","name":"Laçador Restaurante e Petiscaria","tags":"amenity:restaurant,check_date:2023-01-04,cuisine:seafood;steak_house;regional,internet_access:wlan,internet_access:fee:customers,level:0,outdoor_seating:yes,payment:mastercard:yes,payment:visa:yes,reservation:yes","lat":-27.1441162,"lng":-48.5039794},{"id":"10307785069","name":"Holland Cafe","tags":"amenity:cafe,check_date:2023-01-04,cuisine:coffee_shop,level:0,name:pt:Cafeteria Holland Cafe,payment:mastercard:yes,payment:visa:yes,wheelchair:no","lat":-27.1445561,"lng":-48.5045883},{"id":"10307785071","name":"FarMagnus","tags":"amenity:pharmacy,check_date:2023-01-04,healthcare:pharmacy,level:0,name:pt:Farmácia FarMagnus","lat":-27.1444386,"lng":-48.5047251},{"id":"10307805624","name":"Mama Mia","tags":"amenity:restaurant,check_date:2023-01-05,cuisine:pizza;empanadas,internet_access:wlan,internet_access:fee:customers,level:0,payment:mastercard:yes,payment:visa:yes,strapline:Pizzaria e empanadas argentinas,wheelchair:yes","lat":-27.1424771,"lng":-48.5071952},{"id":"10307838716","name":"O Barão","tags":"amenity:restaurant,check_date:2023-01-05,cuisine:steak_house;burger,internet_access:wlan,internet_access:fee:customers,level:0,payment:mastercard:yes,payment:visa:yes,strapline:Bar e Restaurante,wheelchair:limited","lat":-27.1443823,"lng":-48.5048249},{"id":"10307851824","name":"Farmácia usi Popular","tags":"amenity:pharmacy,check_date:2023-01-05,healthcare:pharmacy,level:0,payment:mastercard:yes,payment:visa:yes","lat":-27.1411439,"lng":-48.5086958},{"id":"10307897960","name":"Koncha Marinha Petiscaria","tags":"amenity:restaurant,check_date:2023-01-05,internet_access:wlan,internet_access:fee:customers,level:0,payment:mastercard:yes,payment:visa:yes","lat":-27.142434,"lng":-48.5060442},{"id":"10313167847","name":"Marolas Restaurante e Petiscaria","tags":"amenity:restaurant,check_date:2023-01-07,cuisine:seafood;regional,level:0,payment:mastercard:yes,payment:visa:yes","lat":-27.1356705,"lng":-48.5121603}]