[{"id":"1042083173","name":"Aeroporto de Três Barras","tags":"aerodrome:public,aeroway:aerodrome,icao:SSTB,name:en:Três Barras Airport,wikidata:Q9586620,wikipedia:pt:Aeroporto de Três Barras","lat":-26.1300176,"lng":-50.3098912},{"id":"2519272692","name":"São Mateus do Sul","tags":"amenity:ferry_terminal,cargo:passengers;vehicle,ferry:yes,public_transport:station","lat":-26.0610498,"lng":-50.4168769},{"id":"2519272693","name":"Taunay","tags":"amenity:ferry_terminal,cargo:passengers;vehicle,ferry:yes,public_transport:station","lat":-26.061773,"lng":-50.4174051},{"id":"2519272694","name":"São Mateus do Sul","tags":"amenity:ferry_terminal,cargo:passengers;vehicle,ferry:yes,public_transport:station","lat":-26.0685905,"lng":-50.5866417},{"id":"2519272699","name":"Santa Leocádia","tags":"amenity:ferry_terminal,cargo:passengers;vehicle,ferry:yes,public_transport:station","lat":-26.0705914,"lng":-50.586277},{"id":"3232084697","name":"Churrascaria Portal","tags":"amenity:restaurant,cuisine:pizza;churrasco","lat":-26.1890413,"lng":-50.3752941},{"id":"3627937140","name":"Paula Pereira","tags":"amenity:ferry_terminal,cargo:passengers;vehicle,ferry:yes,public_transport:station","lat":-26.0346588,"lng":-50.5262496},{"id":"3627937141","name":"Putinga","tags":"amenity:ferry_terminal,cargo:passengers;vehicle,ferry:yes,public_transport:station","lat":-26.0331786,"lng":-50.5275098},{"id":"4488874719","name":"Gruta Santa Emídia","tags":"tourism:attraction","lat":-26.0953534,"lng":-50.2829723},{"id":"5307216983","name":"Biblioteca Municipal e Fundação Cultural Helmy Wendt Mayer","tags":"amenity:library","lat":-26.1744176,"lng":-50.3917923},{"id":"5307216984","name":"Museu Orty de Magalhães Machado","tags":"alt_name:Museu de Artes de Canoinhas,tourism:museum,wikidata:Q56694913","lat":-26.1743321,"lng":-50.3918996},{"id":"6336148004","tags":"amenity:restaurant","lat":-26.1782054,"lng":-50.3922673},{"id":"6336151166","name":"Vocábulos Livraria e Cafeteria","tags":"addr:city:Canoinhas,addr:housenumber:928,addr:street:Rua Paula Pereira,addr:suburb:Centro,amenity:cafe,cuisine:coffee_shop;ice_cream,internet_access:wlan,internet_access:fee:no,website:https://www.facebook.com/vocabulos","lat":-26.1799761,"lng":-50.3935956},{"id":"6336555584","tags":"addr:city:Canoinhas,addr:street:Rua Marechal Floriano,addr:suburb:Centro,amenity:bus_station,bus:yes,public_transport:station","lat":-26.1811643,"lng":-50.3949428},{"id":"6336563845","name":"Café com Mistura","tags":"addr:city:Canoinhas,addr:housenumber:1037,addr:street:Rua Vidal Ramos,addr:suburb:Centro,amenity:cafe,outdoor_seating:yes","lat":-26.1778041,"lng":-50.3935744},{"id":"6336682960","name":"Banco do Brasil","tags":"addr:city:Canoinhas,addr:street:Rua Major Vieira,addr:suburb:Centro,amenity:bank,atm:yes,brand:Banco do Brasil,brand:wikidata:Q610817,brand:wikipedia:en:Banco do Brasil,drive_through:no","lat":-26.1760516,"lng":-50.3920706},{"id":"6336687569","tags":"addr:city:Canoinhas,addr:street:Rua Paula Pereira,addr:suburb:Centro,amenity:pharmacy,drive_through:no,healthcare:pharmacy","lat":-26.1772439,"lng":-50.3914457},{"id":"6336708167","name":"Dona Mariah","tags":"addr:city:Canoinhas,addr:suburb:Centro,amenity:restaurant,cuisine:regional,outdoor_seating:no","lat":-26.1758154,"lng":-50.3907125},{"id":"7058387914","name":"BioMax Academia","tags":"addr:city:Três Barras,addr:housenumber:1194,addr:postcode:89490-000,addr:street:Avenida Rigesa,addr:suburb:João Paulo II,leisure:fitness_centre,phone:+55 47 99171-3566,sport:fitness;gymnastics;exercise","lat":-26.1147,"lng":-50.3089101},{"id":"7058387915","name":"La casa do Chef Biondi","tags":"addr:city:Três Barras,addr:housenumber:411,addr:postcode:89490-000,addr:street:Rua Benedito Cordeiro,addr:suburb:Vila Nova,amenity:restaurant,cuisine:pizza;italian;japanese;regional,opening_hours:12:00-14:30,18:00-23:00,phone:+55 47 3623-1143","lat":-26.1137071,"lng":-50.3051078},{"id":"7778258420","name":"Ginásio De Esporte Magno Fuck","tags":"addr:city:Canoinhas,addr:street:Rua Otávio Ferreira da Silva,addr:suburb:Campo da Água Verde,leisure:sports_centre,sport:soccer;basketball","lat":-26.1817882,"lng":-50.3630805},{"id":"8626273428","tags":"amenity:grave_yard","lat":-26.1214831,"lng":-50.4695785},{"id":"8626273448","tags":"amenity:grave_yard","lat":-26.09787,"lng":-50.5066531},{"id":"8626273449","tags":"amenity:grave_yard","lat":-26.0753161,"lng":-50.5831645},{"id":"8636288188","name":"Biblioteca Pública Municipal Alinor Vieira Côrte","tags":"amenity:library","lat":-26.1743637,"lng":-50.3918423},{"id":"9590935286","name":"Hospital de Três Barras","tags":"addr:city:Três Barras,addr:housenumber:439,addr:postcode:89490-000,addr:street:R. João Manoel Sarda,addr:suburb:km02,amenity:hospital,emergency:yes,healthcare:hospital,operator:Prefeitura Municipal,operator:type:public","lat":-26.119969,"lng":-50.3040557},{"id":"9590980899","name":"Fazenda Schwartz","tags":"leisure:park,operator:WestRock","lat":-26.0587212,"lng":-50.2803443},{"id":"9591023332","name":"Escola Básica Municipal Guita Federmann","tags":"addr:city:Três Barras,addr:postcode:89490000,addr:street:R. Dr. Osvaldo de Oliveira,addr:suburb:Vila Nova,amenity:school","lat":-26.1182942,"lng":-50.3052358}]