[{"id":"1028987123","name":"Restaurante Palmeiras","tags":"amenity:restaurant,cuisine:regional","lat":-26.6037008,"lng":-49.342442},{"id":"4161527767","name":"Viacredi","tags":"addr:city:Doutor Pedrinho,addr:street:Rua Aderbal Ramos da Silva,amenity:bank","lat":-26.7147315,"lng":-49.4857696},{"id":"6024950410","name":"Mercado Palmeiras","tags":"phone:+55 47 3306-0775,shop:supermarket","lat":-26.6035993,"lng":-49.3425264},{"id":"6024950412","tags":"amenity:restaurant","lat":-26.6083396,"lng":-49.3396911},{"id":"6245329965","name":"EM Alfredo Berri","tags":"amenity:school","lat":-26.6977552,"lng":-49.2985349},{"id":"6249513978","name":"Capela Nossa Senhora do Caravaggio","tags":"amenity:place_of_worship,denomination:roman_catholic,religion:christian,tourism:attraction","lat":-26.7115551,"lng":-49.2487117},{"id":"8184586195","name":"Bahr Recanto e Petiscaria","tags":"addr:housenumber:1061,addr:street:Estrada Werner Fischer,addr:suburb:Garibaldi,amenity:restaurant,contact:whatsapp:+55 47 99968-6535,cuisine:fish_and_chips,phone:+55 47 3055-8389,website:https://pt-br.facebook.com/pages/category/Restaurant/BAHR-Recanto-e-Petiscaria-216530142549940/","lat":-26.5538927,"lng":-49.2303574},{"id":"8626189458","tags":"amenity:grave_yard","lat":-26.6529519,"lng":-49.2874381},{"id":"8636271170","name":"Biblioteca Pública Municipal Telecentro Doutor Pedrinho","tags":"amenity:library","lat":-26.7176794,"lng":-49.4916028},{"id":"8638175580","name":"Centro de Eventos","tags":"leisure:sports_centre","lat":-26.7186894,"lng":-49.4863514},{"id":"9917714166","name":"Escola Municipal Expedicionário Servino Mengarda","tags":"amenity:school","lat":-26.7084525,"lng":-49.2695322},{"id":"9917714171","name":"Mercado Cedro Central","tags":"shop:supermarket","lat":-26.7088715,"lng":-49.2700471},{"id":"10087960617","tags":"amenity:restaurant","lat":-26.6147841,"lng":-49.3974814}]