[{"id":"907178696","name":"Unidade Postal Colônia Marcelino","tags":"amenity:post_office,operator:Correios","lat":-25.7489745,"lng":-49.2393333},{"id":"3123292794","name":"Banco do Brasil","tags":"addr:city:Contenda,addr:postcode:83730-000,addr:street:Avenida João Franco,addr:suburb:Centro,amenity:bank","lat":-25.6768206,"lng":-49.534074},{"id":"3123294669","name":"Itaú","tags":"amenity:bank","lat":-25.6780293,"lng":-49.5353333},{"id":"3123308905","name":"Correios","tags":"amenity:post_office","lat":-25.6784765,"lng":-49.536197},{"id":"3700434548","name":"Igreja Colônia Matos","tags":"amenity:place_of_worship,building:church,denomination:catholic,religion:christian","lat":-25.8058713,"lng":-49.2712762},{"id":"5081442268","name":"Escola Municipal","tags":"amenity:school","lat":-25.7779799,"lng":-49.3280403},{"id":"5081465993","tags":"amenity:hospital,healthcare:hospital","lat":-25.7787425,"lng":-49.327149},{"id":"5119797585","name":"Colégio Estadual Joaquim de O. Franco","tags":"amenity:school","lat":-25.7778591,"lng":-49.3262665},{"id":"5119797586","name":"Caixa Econômica Federal","tags":"amenity:bank,brand:Caixa Econômica Federal,brand:wikidata:Q835283,brand:wikipedia:pt:Caixa Econômica Federal","lat":-25.7747322,"lng":-49.3258223},{"id":"6003457852","name":"Restaurante Ribeiro","tags":"amenity:restaurant","lat":-25.8110385,"lng":-49.3277699},{"id":"6198974031","name":"Creche","tags":"amenity:childcare","lat":-25.7828201,"lng":-49.3343235},{"id":"6231436810","name":"Parque Verde","tags":"addr:city:Fazenda Rio Grande,addr:postcode:83830-136,addr:street:Rua Santos,addr:suburb:Estados,dog:leashed,leisure:park,opening_hours:Mo-Sa 08:00-18:00","lat":-25.6661285,"lng":-49.3184363}]