[{"id":"3273962414","name":"Supermercado Top","tags":"addr:city:Barra Velha,addr:housenumber:980,addr:postcode:88390-000,addr:street:Avenida Governador Celso Ramos,addr:suburb:Jardim Icaraí,shop:supermarket","lat":-26.6385691,"lng":-48.6931953},{"id":"3273964075","tags":"amenity:restaurant","lat":-26.6099433,"lng":-48.680295},{"id":"3647799649","name":"Bid Nick Comida Caseira","tags":"amenity:restaurant","lat":-26.6457648,"lng":-48.6870176},{"id":"3647801488","name":"Restaurante Meneghetti","tags":"amenity:restaurant","lat":-26.6464708,"lng":-48.6868137},{"id":"4241267333","name":"Escola Municipal Monsenhor Sebastião Scarzello","tags":"addr:city:São João do Itaperiú,addr:street:Rua Alcides Mello,addr:suburb:Santa Cruz,amenity:childcare","lat":-26.600977,"lng":-48.8413548},{"id":"4352936614","name":"Bodega da Tóia","tags":"addr:city:Barra Velha,addr:housenumber:119,addr:postcode:88390-000,addr:street:Rua Jair Viana,addr:suburb:Itajuba,amenity:restaurant","lat":-26.6932853,"lng":-48.685454},{"id":"4353006218","tags":"amenity:parking,description:Estacionamento","lat":-26.6756946,"lng":-48.688614},{"id":"4380884122","name":"Escola Municipal Manoel Antônio de Freitas","tags":"amenity:school","lat":-26.6985262,"lng":-48.6857491},{"id":"5125447091","tags":"amenity:parking","lat":-26.5911104,"lng":-48.7226553},{"id":"5141830922","name":"Sicoob","tags":"amenity:bank,brand:Sicoob,brand:wikidata:Q28679754,brand:wikipedia:pt:Sistema de Cooperativas de Crédito do Brasil","lat":-26.6333873,"lng":-48.6849337},{"id":"5220224062","tags":"amenity:restaurant","lat":-26.692098,"lng":-48.6854805},{"id":"5383155822","name":"Tio Luís","tags":"amenity:restaurant","lat":-26.6996613,"lng":-48.6824654},{"id":"5383164721","tags":"amenity:restaurant","lat":-26.6923796,"lng":-48.6856317},{"id":"5383172021","tags":"shop:supermarket","lat":-26.7031591,"lng":-48.6826866},{"id":"5383172121","tags":"amenity:pharmacy,healthcare:pharmacy","lat":-26.7026611,"lng":-48.6826574},{"id":"5425560622","tags":"shop:supermarket","lat":-26.7096409,"lng":-48.6948503},{"id":"5425560623","tags":"amenity:pharmacy,healthcare:pharmacy","lat":-26.7071493,"lng":-48.6828927},{"id":"5425560624","tags":"shop:supermarket","lat":-26.7006924,"lng":-48.6865641},{"id":"5425561422","tags":"shop:supermarket","lat":-26.7074747,"lng":-48.6854304},{"id":"6529839951","name":"Farmácia MedPopular","tags":"addr:city:São João do Itaperiú,addr:street:Rua José Bonifácio Pires,amenity:pharmacy,dispensing:yes,healthcare:pharmacy,phone:+55 47 3458-0326","lat":-26.6161682,"lng":-48.7672402},{"id":"6529839954","tags":"addr:city:São João do Itaperiú,addr:housenumber:584,addr:street:Rua José Bonifácio Pires,amenity:restaurant","lat":-26.6154792,"lng":-48.7665009},{"id":"6530407144","name":"Mercearia Nezilda","tags":"addr:city:Barra Velha,addr:street:Estrada Geral do Escalvado,addr:suburb:Escalvado,shop:supermarket","lat":-26.6000329,"lng":-48.7257636},{"id":"6760626922","tags":"amenity:ferry_terminal,ferry:yes,public_transport:station","lat":-26.5823176,"lng":-48.667873},{"id":"7379898272","tags":"amenity:ferry_terminal,ferry:yes,public_transport:station","lat":-26.5761409,"lng":-48.6675343},{"id":"8626241598","tags":"amenity:grave_yard","lat":-26.6691502,"lng":-48.8462981},{"id":"8626241601","tags":"amenity:grave_yard","lat":-26.7164554,"lng":-48.7408077},{"id":"8626604515","name":"Estação Rodoviária de Barra Velha","tags":"amenity:bus_station","lat":-26.6373974,"lng":-48.6909617},{"id":"8636271427","name":"Biblioteca Pública Municipal Professora Rita de Cássia Coelho Ramos","tags":"amenity:library","lat":-26.6203902,"lng":-48.767729},{"id":"8636271431","name":"Biblioteca Pública Municipal Professora Dolores Olinger Jiménez Hernández","tags":"addr:city:Barra Velha,addr:housenumber:200,addr:postcode:88390-000,addr:street:Avenida Governador Celso Ramos,addr:suburb:Centro,amenity:library,operator:Prefeitua Municipal de Barra Velha,operator:type:public","lat":-26.6327186,"lng":-48.6870446},{"id":"9695285766","name":"Espaço Terapêutico For de Hibisco","tags":"addr:city:Araquari,addr:street:Rua Maringá,addr:suburb:Itapocú,tourism:attraction","lat":-26.5582533,"lng":-48.7105688},{"id":"9695627009","name":"Merceria Lisboa","tags":"shop:convenience","lat":-26.5885519,"lng":-48.7046657},{"id":"9695627020","name":"Mercado Alzão","tags":"addr:housenumber:1995,addr:street:Estrada Morro Grande,phone:+55 47 99200-5604,shop:supermarket","lat":-26.5891683,"lng":-48.7051257},{"id":"6529839944","name":"Clean Pack","tags":"addr:city:São João do Itaperiú,addr:street:Rua José Bonifácio Pires,shop:chemist","lat":-26.6169494,"lng":-48.767319}]