[{"id":"1034191695","name":"Restaurante e Petisqueira Trapiche","tags":"addr:city:São Francisco do Sul,addr:street:Rua Lídia Alves de Souza,amenity:restaurant,internet_access:no,internet_access:fee:no,smoking:yes,stars:1,wheelchair:no","lat":-26.2185042,"lng":-48.6655541},{"id":"1034192883","name":"Vila da Glória - Trapiche","tags":"amenity:ferry_terminal,ferry:yes,public_transport:station","lat":-26.2213776,"lng":-48.6644896},{"id":"1552588220","tags":"amenity:restaurant,cuisine:fish","lat":-26.2481185,"lng":-48.7062137},{"id":"1694859282","name":"Grão da Terra","tags":"addr:city:Joinville,addr:housenumber:268,addr:postcode:89218-015,addr:street:Rua Coelho Neto,addr:suburb:Santo Antônio,amenity:restaurant","lat":-26.275995,"lng":-48.8503183},{"id":"1781740798","name":"Farmácia Drogaville","tags":"amenity:pharmacy","lat":-26.3618968,"lng":-48.8108412},{"id":"1781740801","name":"Supermercado Renascer","tags":"shop:supermarket","lat":-26.3621587,"lng":-48.8117371},{"id":"1781740802","name":"Supermercado Santo Amaro","tags":"shop:supermarket","lat":-26.365009,"lng":-48.8091434},{"id":"1781774156","name":"Mercado Cometa","tags":"addr:city:Joinville,addr:housenumber:399,addr:postcode:89209-435,addr:street:Rua Daniela Peres,addr:suburb:Parque Guarani,shop:supermarket","lat":-26.3580351,"lng":-48.814079},{"id":"1862276408","name":"Supermercado Cézar","tags":"addr:city:Joinville,addr:housenumber:604,addr:postcode:89224-477,addr:street:Rua Areia Branca,addr:suburb:Jardim Iririú,shop:supermarket","lat":-26.2670286,"lng":-48.7999929},{"id":"2075959586","tags":"amenity:restaurant,seamark:small_craft_facility:category:restaurant,seamark:type:small_craft_facility","lat":-26.2174443,"lng":-48.6675247},{"id":"2075959594","tags":"amenity:restaurant","lat":-26.2233077,"lng":-48.7682948},{"id":"2075962512","tags":"amenity:restaurant,seamark:small_craft_facility:category:restaurant,seamark:type:small_craft_facility","lat":-26.2413788,"lng":-48.6371036},{"id":"2075962531","tags":"amenity:bar,seamark:small_craft_facility:category:public_inn,seamark:type:small_craft_facility","lat":-26.2415662,"lng":-48.6389903},{"id":"2075965813","tags":"amenity:restaurant","lat":-26.2892904,"lng":-48.7733813},{"id":"2630629381","tags":"amenity:car_wash,comment:está dentro daqui","lat":-26.2996798,"lng":-48.8455009},{"id":"2630629384","tags":"amenity:car_wash,comment:está dentro daqui","lat":-26.2997687,"lng":-48.84879},{"id":"2630629386","tags":"amenity:car_wash,comment:está dentro daqui","lat":-26.2998916,"lng":-48.8482828},{"id":"2630641505","name":"Farmácia Preço Popular","tags":"amenity:pharmacy,opening_hours:Mo-Fr 08:00-20:00; Sa 08:00-14:00","lat":-26.3013379,"lng":-48.8454455},{"id":"2632847076","name":"Posto Madalena","tags":"addr:city:Joinville,addr:housenumber:480,addr:postcode:89202-210,addr:street:Rua Piauí,addr:suburb:Bucarein,alt_name:Madalena Express,amenity:fuel,brand:Ipiranga,fuel:cng:yes,fuel:diesel:yes,fuel:ethanol:yes,fuel:octane_95:yes,fuel:octane_98:yes,operator:Ipiranga,shop:convenience","lat":-26.3210461,"lng":-48.8401541},{"id":"2633073934","name":"Café Show Executivos","tags":"addr:city:Joinville,addr:housenumber:888,addr:postcode:89202-300,addr:street:Rua Coronel Procópio Gomes,addr:suburb:Bucarein,amenity:nightclub,opening_hours:Mo-Fr 20:00+,phone:+55 47 3433 4254,stars:5,website:http://www.cafeshow.com.br/","lat":-26.3139756,"lng":-48.8411022},{"id":"2638327429","name":"Farmácia do Trabalhador","tags":"amenity:pharmacy,healthcare:pharmacy,opening_hours:Mo-Fr 08:00-18:00; Sa 08:00-14:00,phone:+55 47 3433 0449","lat":-26.3020608,"lng":-48.8444318},{"id":"2640719597","name":"Divina Gula","tags":"addr:city:Joinville,addr:housenumber:1120,addr:postcode:89221-006,addr:street:Rua Dona Francisca,addr:suburb:Saguaçu,amenity:cafe,contact:phone:+55 47 3422-3940,cuisine:regional,internet_access:yes","lat":-26.2927595,"lng":-48.8404476},{"id":"2645898907","name":"Banca Colin","tags":"description:Usado, bom e barato!,second_hand:yes,shop:books","lat":-26.3011383,"lng":-48.8480581},{"id":"2645898912","name":"Park Master","tags":"access:yes,addr:housenumber:610,addr:street:Rua XV de Novembro,addr:suburb:Centro,amenity:parking,description:Com manobrista,fee:yes,opening_hours:24/7,parking:surface,phone:+55 47 3027 1447,supervised:yes","lat":-26.3004482,"lng":-48.8483931},{"id":"2645898914","name":"JK Restaurante e Choperia","tags":"amenity:restaurant","lat":-26.3023715,"lng":-48.8475515},{"id":"2645898916","name":"Restaurante Colombo","tags":"amenity:restaurant","lat":-26.3006492,"lng":-48.8487855},{"id":"2645898920","name":"Restaurante Floral","tags":"amenity:restaurant,level:1,payment:sodexo:yes,phone:+55 47 3433 0978,wheelchair:no","lat":-26.3004528,"lng":-48.8482639},{"id":"2645963587","name":"Pague Menos","tags":"addr:city:Joinville,addr:housenumber:1354,addr:postcode:89202-002,addr:street:Avenida Getúlio Vargas,addr:suburb:Anita Garibaldi,amenity:pharmacy,brand:Pague Menos,brand:wikidata:Q7124466,brand:wikipedia:pt:Pague Menos,dispensing:yes,drive_through:no,healthcare:pharmacy,phone:+55 47 3422 2004","lat":-26.319764,"lng":-48.8452984},{"id":"2689112336","name":"Restaurante Mãos Peruanas","tags":"amenity:restaurant","lat":-26.2534751,"lng":-48.8560188},{"id":"2757537201","name":"Sicredi","tags":"addr:city:Joinville,addr:housenumber:1261,addr:street:Avenida Getúlio Vargas,addr:suburb:Bucarein,amenity:bank,bank:credit_union,brand:Sicredi,brand:wikidata:Q3483060,brand:wikipedia:pt:Sistema de Crédito Cooperativo,survey:date:2014-03-31","lat":-26.3188764,"lng":-48.8449566},{"id":"2768524076","tags":"addr:street:Rua Coronel Francisco Gomes,amenity:car_wash","lat":-26.3185762,"lng":-48.8416457},{"id":"2791373671","name":"Pamplona","tags":"shop:convenience","lat":-26.2669028,"lng":-48.8451891},{"id":"2836974238","name":"Roldão Fitness Academia","tags":"addr:city:Joinville,addr:housenumber:515,addr:postcode:89226-410,addr:street:Rua Lorival Tabbert,addr:suburb:Aventureiro,leisure:fitness_centre,sport:fitness","lat":-26.2372614,"lng":-48.8100213},{"id":"2838427689","name":"Antoniolli Pizzaria","tags":"addr:city:Joinville,addr:housenumber:2488,addr:postcode:89205-100,addr:street:Rua Albano Schmidt,addr:suburb:Boa Vista,amenity:restaurant,cuisine:pizza","lat":-26.2949124,"lng":-48.8164124},{"id":"2967516779","name":"Bar Zurus","tags":"addr:city:São Francisco do Sul,addr:street:Rua Vereador Valdici do Amaral,amenity:restaurant,cuisine:seafood","lat":-26.2519392,"lng":-48.6437195},{"id":"3380141563","name":"Polícia Militar Rodoviária","tags":"addr:city:São Francisco do Sul,addr:street:Rodovia Duque de Caxias,alt_name:Polícia Rodoviária Estadual;PRE,amenity:police,contact:website:http://www.pmrv.sc.gov.br/,emergency:phone:198,operator:Governo do Estado de Santa Catarina,operator:type:public,operator:wikidata:Q67536979,ownership:state,police:traffic_police,short_name:PMRv","lat":-26.218411,"lng":-48.5719065},{"id":"3495624098","name":"Restaurante Virado no Alho","tags":"addr:city:São Francisco do Sul,addr:street:Rua Babitonga,amenity:restaurant","lat":-26.243242,"lng":-48.6401476},{"id":"3495624099","name":"Restaurante Portela","tags":"addr:city:São Francisco do Sul,addr:housenumber:84,addr:postcode:89240-000,addr:street:Rua Babitonga,addr:suburb:Centro,amenity:restaurant,cuisine:seafood,phone:+55 47 3444 1579,website:https://pt-br.facebook.com/pages/Restaurante-Portela/115317198549920","lat":-26.2417342,"lng":-48.6402716},{"id":"3495658324","name":"Árvore da Vida","tags":"addr:city:São Francisco do Sul,description:Homenagem ao Falanstério do Saí, berço da homeopatia no Brasil, do pioneiro médico homeopata francês Benoit Jules Mure.,tourism:attraction","lat":-26.2185628,"lng":-48.6658153},{"id":"3495690931","name":"Farmácia Vila da Glória","tags":"addr:city:São Francisco do Sul,addr:street:Rua Lindolfo de Freitas Ledoux,amenity:pharmacy,phone:+55 47 3444 1434","lat":-26.2180211,"lng":-48.6665685},{"id":"3495690932","name":"Mercado e Açougue Continente","tags":"addr:city:São Francisco do Sul,addr:street:Rua Lindolfo de Freitas Ledoux,shop:supermarket","lat":-26.2181187,"lng":-48.6668457},{"id":"3495690934","name":"Supermercado Mar Azul","tags":"addr:city:São Francisco do Sul,addr:street:Rua Lindolfo de Freitas Ledoux,shop:supermarket","lat":-26.2176953,"lng":-48.6656426},{"id":"3495733490","name":"Escola Estadual João Alfredo Moreira","tags":"addr:city:São Francisco do Sul,addr:housenumber:7783,addr:street:Rua Lindolfo de Freitas Ledoux,addr:suburb:Vila da Glória,amenity:school","lat":-26.2165684,"lng":-48.6637618},{"id":"3495747093","name":"Bar e Restaurante Sansão","tags":"addr:city:São Francisco do Sul,amenity:restaurant,phone:+55 47 3059 2045","lat":-26.2769533,"lng":-48.6731407},{"id":"3505996906","name":"Drogaria Catarinense Aventureiro","tags":"addr:city:Joinville,addr:housenumber:2146,addr:postcode:89202-150,addr:street:Rua Tuiuti,addr:suburb:Aventureiro,amenity:pharmacy,operator:Drogaria Catarinense","lat":-26.2529931,"lng":-48.8191404},{"id":"3506004021","name":"Mercado Kalinho","tags":"addr:housenumber:393,addr:street:Rua Antônio Jorge Cecyn,addr:suburb:Aventureiro,shop:convenience","lat":-26.2405233,"lng":-48.8154938},{"id":"3506004289","name":"Supermercado Koch","tags":"addr:city:Joinville,addr:housenumber:202,addr:postcode:89226-260,addr:street:Rua Antônio Jorge Cecyn,addr:suburb:Aventureiro,opening_hours:Mo-Sa 08:00-18:00,shop:supermarket","lat":-26.239569,"lng":-48.8170424},{"id":"3506004716","name":"Mercado Vanessa","tags":"shop:convenience","lat":-26.2406087,"lng":-48.8143285},{"id":"3510498744","name":"2ª Companhia do 8º Batalhão de Polícia Militar","tags":"addr:city:Joinville,addr:housenumber:254,addr:street:Rua Emílio Landmann,addr:suburb:Aventureiro,alt_name:Polícia Militar Aventureiro,amenity:police,phone:+55 47 3467-7569","lat":-26.2502624,"lng":-48.8175855},{"id":"3525911295","tags":"addr:city:São Francisco do Sul,amenity:atm,operator:Caixa","lat":-26.2068222,"lng":-48.5286552},{"id":"3613798061","name":"WS Fitness","tags":"addr:city:Joinville,addr:housenumber:185,addr:postcode:89218-110,addr:street:Rua Papanduva,addr:suburb:Santo Antônio,leisure:sports_centre,sport:gymnastics","lat":-26.2695121,"lng":-48.8509216},{"id":"3613804516","name":"Estação América","tags":"addr:city:Joinville,addr:housenumber:2933,addr:postcode:89218-035,addr:street:Rua Doutor João Colin,addr:suburb:Santo Antônio,amenity:restaurant,cuisine:regional","lat":-26.2744409,"lng":-48.850241},{"id":"3613806776","name":"Itaú","tags":"addr:city:Joinville,addr:housenumber:2850,addr:postcode:89204-004,addr:street:Rua Doutor João Colin,addr:suburb:Saguaçu,amenity:bank,atm:yes,brand:Itaú Unibanco,brand:wikidata:Q1424293,brand:wikipedia:pt:Itaú Unibanco,drive_through:no","lat":-26.2751329,"lng":-48.8498594},{"id":"3613806816","name":"Correios","tags":"addr:city:Joinville,addr:housenumber:159,addr:postcode:89221-970,addr:street:Rua Coelho Neto,addr:suburb:Saguaçu,amenity:post_office,brand:Correios,brand:wikidata:Q3375004,brand:wikipedia:en:Correios,opening_hours:Mo-Fr 08:30-17:00,operator:AGF,phone:+55 47 3435 3660","lat":-26.2760697,"lng":-48.8494718},{"id":"3613809226","name":"Itália Massas e Pizzas","tags":"addr:city:Joinville,addr:housenumber:2287,addr:postcode:89204-005,addr:street:Rua Doutor João Colin,addr:suburb:América,amenity:restaurant,cuisine:pizza","lat":-26.2799897,"lng":-48.8496875},{"id":"3618591970","name":"Zumba","tags":"leisure:sports_centre","lat":-26.2454767,"lng":-48.8114904},{"id":"3630210516","name":"Show Animal Petshop","tags":"addr:city:Joinville,addr:housenumber:42,addr:postcode:89226-260,addr:street:Rua Antônio Jorge Cecyn,addr:suburb:Aventureiro,shop:pet","lat":-26.2385598,"lng":-48.8180918},{"id":"3647689674","name":"Big Pizza","tags":"addr:street:Rua Tuiuti,amenity:restaurant,cuisine:pizza,delivery:yes,smoking:no,takeaway:only","lat":-26.2637107,"lng":-48.8196605},{"id":"3647728767","name":"Curves","tags":"brand:Curves,brand:wikidata:Q5196080,brand:wikipedia:en:Curves International,leisure:fitness_centre","lat":-26.2837452,"lng":-48.8402652},{"id":"3652033608","name":"Rizzò Pizza","tags":"addr:city:Joinville,addr:housenumber:2600,addr:postcode:89208-751,addr:street:Avenida Paulo Schroeder,addr:suburb:Petrópolis,amenity:restaurant,cuisine:pizza","lat":-26.3459509,"lng":-48.8312318},{"id":"3652039469","name":"Academia Yolo","tags":"leisure:sports_centre","lat":-26.3407678,"lng":-48.8314197},{"id":"3880352558","name":"Academia Danlucas","tags":"leisure:fitness_centre","lat":-26.2497192,"lng":-48.8083091},{"id":"4117896891","name":"Biblioteca Universitária","tags":"amenity:library,internet_access:wlan,opening_hours:Mo-Fr 07:30-22:00; Sa 07:30-11:30","lat":-26.2517678,"lng":-48.854777},{"id":"4117897090","name":"Escola Felipe Schmidt","tags":"addr:housenumber:87,addr:street:Rua Doutor Felipe Schmidt,amenity:school,short_name:EEB Felipe Schmidt","lat":-26.2484134,"lng":-48.6393071},{"id":"4154624522","name":"Apae de Joinville","tags":"addr:city:Joinville,addr:housenumber:111,addr:postcode:89205-310,addr:street:Rua José Elias Giuliari,addr:suburb:Boa Vista,alt_name:Associação de Pais e Amigos dos Excepcionais de Joinville,amenity:school,email:apae@apaejoinville.com.br,phone:+55 47 3431 7400,website:http://joinville.apaebrasil.org.br/","lat":-26.3047642,"lng":-48.8320716},{"id":"4382417907","name":"Drogaria Drogão","tags":"addr:city:Joinville,addr:housenumber:597,addr:postcode:89218-501,addr:street:Rua Guilherme,addr:suburb:Costa e Silva,amenity:pharmacy","lat":-26.2790986,"lng":-48.8659187},{"id":"4382417908","name":"Drogaria Princesa","tags":"addr:city:Joinville,addr:housenumber:726,addr:postcode:89218-500,addr:street:Rua Guilherme,addr:suburb:Costa e Silva,amenity:pharmacy","lat":-26.2782386,"lng":-48.8652923},{"id":"4411013988","name":"Restaurante Beira Mar","tags":"addr:city:Joinville,addr:housenumber:3632,addr:postcode:89228-800,addr:street:Rua Prefeito Baltazar Buschle,addr:suburb:Espinheiros,amenity:restaurant,cuisine:seafood","lat":-26.2910993,"lng":-48.7752954},{"id":"4412092990","name":"Instituto de Treinamento Funcional","tags":"addr:housenumber:617,addr:street:Rua João Pessoa,leisure:fitness_centre,name:pt:Instituto de Treinamento Funcional","lat":-26.2777196,"lng":-48.8527657},{"id":"4412639377","name":"Restaurante Angélicos","tags":"addr:city:Joinville,addr:housenumber:870,addr:postcode:89216-120,addr:street:Rua Luiz Delfino,addr:suburb:Glória,amenity:restaurant","lat":-26.2861136,"lng":-48.8659768},{"id":"4536678338","name":"Copa 70","tags":"amenity:restaurant","lat":-26.284366,"lng":-48.8490119},{"id":"4558866973","name":"Azul Cargo Express","tags":"addr:city:Joinville,addr:housenumber:874,addr:postcode:89204-322,addr:street:Rua Blumenau,addr:suburb:América,amenity:post_office,opening_hours:Mo-Fr 08:00-18:00,phone:+55 47 3043 1921","lat":-26.2925196,"lng":-48.8498077},{"id":"4558867197","name":"Mozzafiatto Gastronomia","tags":"addr:city:Joinville,addr:housenumber:92,addr:postcode:89204-210,addr:street:Rua José de Alencar,addr:suburb:América,amenity:restaurant,cuisine:pizza,opening_hours:Tu-Su 18:00-23:00,opening_hours:covid19:open,phone:+554734673467,website:@pizzariamozzafiatto","lat":-26.2811721,"lng":-48.8505437},{"id":"4558867375","name":"Parque Opa Bier","tags":"addr:housenumber:1589,addr:street:Rua Max Colin,addr:suburb:América,amenity:bar","lat":-26.2945098,"lng":-48.8581577},{"id":"4560095760","name":"Farmácia Joinville","tags":"addr:city:Joinville,addr:housenumber:284,addr:street:Rua Iririú,addr:suburb:Saguaçu,amenity:pharmacy,drive_through:no,healthcare:pharmacy,operator:Masterfarma,phone:+55 47 3472 0343","lat":-26.2819386,"lng":-48.8386288},{"id":"4560097022","name":"Império das Pizzas","tags":"addr:housenumber:437,addr:street:Rua Piratuba,addr:suburb:Saguaçu,amenity:restaurant,cuisine:pizza,delivery:yes,outdoor_seating:no,phone:+55 47 3435-0292,takeaway:only","lat":-26.2704722,"lng":-48.8340101},{"id":"4560097970","name":"Supermercado Promocional","tags":"addr:city:Joinville,addr:housenumber:352,addr:street:Rua Iririú,addr:suburb:Saguaçu,phone:+55 47 3472 1850,shop:supermarket","lat":-26.2814919,"lng":-48.838075},{"id":"4560098181","name":"Cercal Pet","tags":"addr:housenumber:591,addr:street:Rua Iririú,addr:suburb:Saguaçu,shop:pet","lat":-26.2795061,"lng":-48.8368959},{"id":"4560098378","name":"Sabor Pastel","tags":"addr:housenumber:2440,addr:street:Rua Dona Francisca,addr:suburb:Saguaçu,amenity:restaurant","lat":-26.2823948,"lng":-48.8418693},{"id":"4562748237","name":"Sicredi","tags":"addr:city:Joinville,addr:housenumber:230,addr:postcode:89216-222,addr:street:Rua Camboriú,addr:suburb:Glória,amenity:bank,atm:yes,brand:Sicredi,brand:wikidata:Q3483060,brand:wikipedia:pt:Sistema de Crédito Cooperativo,drive_through:no,opening_hours:Mo-Fr 10:00-16:00,phone:+55 47 3433 7356","lat":-26.3045897,"lng":-48.8624557},{"id":"4562751655","name":"La Fontana","tags":"addr:city:Joinville,addr:housenumber:586,addr:place:La Fontana,addr:postcode:89216-280,addr:state:SC,addr:street:Rua Campo Alegre,addr:suburb:Glória,amenity:restaurant,cuisine:italian,delivery:no,level:0,outdoor_seating:yes,phone:+55 47 3445-1140,takeaway:no","lat":-26.3014437,"lng":-48.8638039},{"id":"4567618707","name":"Mini Mercado do Miro","tags":"addr:housenumber:549,addr:street:Rua Major Navarro Lins,addr:suburb:Anita Garibaldi,shop:convenience","lat":-26.3140077,"lng":-48.8508406},{"id":"4567620133","name":"Restaurante e Pizzaria Anita","tags":"addr:housenumber:1913,addr:street:Rua Anita Garibaldi,addr:suburb:Anita Garibaldi,amenity:restaurant","lat":-26.3245558,"lng":-48.8601838},{"id":"4567620937","name":"Correios","tags":"addr:city:Joinville,addr:housenumber:1446,addr:postcode:89202-973,addr:street:Avenida Getúlio Vargas,addr:suburb:Anita Garibaldi,amenity:post_office,brand:Correios,brand:wikidata:Q3375004,brand:wikipedia:en:Correios,opening_hours:Mo-Fr 09:30-19:00; Sa 09:00-14:00,operator:AGF,phone:+55 47 3455 3930","lat":-26.3204632,"lng":-48.8461934},{"id":"4567621211","name":"Mercado e Panificadora Keunecke","tags":"addr:housenumber:1694,addr:street:Rua Anita Garibaldi,addr:suburb:Anita Garibaldi,shop:convenience","lat":-26.3240111,"lng":-48.8582865},{"id":"4567623192","name":"Volksbar Joinville","tags":"addr:city:Joinville,addr:housenumber:683,addr:postcode:89203-400,addr:street:Rua Gothard Kaesemodel,addr:suburb:Anita Garibaldi,alt_name:Volksbier Bar Joinville,amenity:restaurant,cuisine:german,delivery:no,outdoor_seating:yes,phone:+55 47 99117-0324,takeaway:no,website:https://www.facebook.com/volksbarrestaurante,wheelchair:yes","lat":-26.3185262,"lng":-48.8563828},{"id":"4614990179","name":"Academia Smart Fit","tags":"addr:city:Joinville,addr:housenumber:910,addr:postcode:89211-700,addr:street:Rua São Paulo,addr:suburb:Bucarein,leisure:fitness_centre,opening_hours:Mo-Fr 07:00-22:00; Sa 09:00-18:00; Su 09:00-15:00","lat":-26.3159245,"lng":-48.8428492},{"id":"4614991176","name":"Banco24Horas","tags":"addr:city:Joinville,addr:housenumber:173,addr:postcode:89202-310,addr:street:Rua Inácio Bastos,addr:suburb:Bucarein,amenity:atm,brand:Banco24Horas,brand:wikidata:Q4854069,brand:wikipedia:pt:Banco24Horas,drive_through:no,operator:Banco24Horas","lat":-26.3156632,"lng":-48.8431407},{"id":"4633674408","tags":"addr:housenumber:5304,addr:street:Rua Albano Schmidt,addr:suburb:Comasa,amenity:bank","lat":-26.2717089,"lng":-48.8114407},{"id":"4639462676","name":"Farmácia Mercúrio","tags":"addr:housenumber:490,addr:street:Rua Carlos Roberto Vilpert,addr:suburb:Aventureiro,amenity:pharmacy,name:pt:Farmácia Mercúrio","lat":-26.2516693,"lng":-48.8056448},{"id":"4639465310","tags":"addr:city:Joinville,addr:housenumber:1500,addr:postcode:89226-000,addr:street:Rua Tuiuti,addr:suburb:Aventureiro,amenity:atm,drive_through:no,network:Banco24Horas,operator:Banco24Horas","lat":-26.2582531,"lng":-48.8197653},{"id":"4646241824","name":"Banco24Horas","tags":"addr:housenumber:1148,addr:street:Rua Minas Gerais,addr:suburb:Nova Brasília,amenity:atm,drive_through:no,operator:Banco24Horas","lat":-26.3283516,"lng":-48.8651633},{"id":"4649563355","name":"Academia do SESC","tags":"leisure:fitness_centre,sport:fitness","lat":-26.2877116,"lng":-48.8437208},{"id":"4649563356","name":"Lanchonete do SESC","tags":"amenity:cafe","lat":-26.2876272,"lng":-48.8444602},{"id":"4649563357","name":"Restaurante do SESC","tags":"amenity:restaurant","lat":-26.2876458,"lng":-48.8441486},{"id":"4662277885","name":"Bradesco","tags":"addr:city:Joinville,addr:housenumber:3686,addr:postcode:89209-505,addr:street:Rua Monsenhor Gercino,addr:suburb:João Costa,amenity:bank,atm:yes,brand:Bradesco,brand:wikidata:Q806181,brand:wikipedia:en:Banco Bradesco,drive_through:no,opening_hours:Mo-Fr 10:00-16:00,phone:+55 47 3463 9963","lat":-26.3408147,"lng":-48.8171943},{"id":"4687646981","name":"Banco24Horas","tags":"addr:city:Joinville,addr:housenumber:333,addr:postcode:89223-005,addr:street:Avenida Rolf Wiest,addr:suburb:Zona Industrial Norte,amenity:atm,brand:Banco24Horas,brand:wikidata:Q4854069,drive_through:no,network:Banco24Horas,operator:Banco24Horas","lat":-26.254336,"lng":-48.8532076},{"id":"4688833091","name":"Masterfarma","tags":"amenity:pharmacy,name:pt:Masterfarma","lat":-26.2377304,"lng":-48.8339983},{"id":"4688833092","name":"Farmácia Bom Retiro","tags":"amenity:pharmacy,healthcare:pharmacy","lat":-26.265432,"lng":-48.8446471},{"id":"4688851390","name":"Farmácia Super Popular","tags":"amenity:pharmacy,name:pt:Farmácia Super Popular","lat":-26.2142474,"lng":-48.8221394},{"id":"4688851391","name":"Farmácia Dom Gregório","tags":"amenity:pharmacy,name:pt:Farmácia Dom Gregório","lat":-26.2608837,"lng":-48.8066613},{"id":"4688871690","name":"VipFarma","tags":"amenity:pharmacy,name:pt:VipFarma","lat":-26.2392797,"lng":-48.8073324},{"id":"4688874492","name":"Masterfarma Aventureiro","tags":"amenity:pharmacy,name:pt:Masterfarma Aventureiro","lat":-26.2531749,"lng":-48.8191111},{"id":"4688876889","name":"Farma Única","tags":"amenity:pharmacy,name:pt:Farma Única","lat":-26.2683892,"lng":-48.8646194},{"id":"4688877089","name":"BioFarma","tags":"amenity:pharmacy,name:pt:BioFarma","lat":-26.2574548,"lng":-48.8472379},{"id":"4688877789","name":"Farmácia Antério","tags":"amenity:pharmacy,contact:facebook:https://www.facebook.com/anterio25/","lat":-26.2174763,"lng":-48.8188429},{"id":"4688877790","name":"Farmácia Ponto Popular","tags":"amenity:pharmacy,name:pt:Farmácia Ponto Popular","lat":-26.2078757,"lng":-48.828348},{"id":"4688878189","name":"Masterfarma","tags":"amenity:pharmacy,name:pt:Masterfarma","lat":-26.2421593,"lng":-48.8018827},{"id":"4688878290","name":"Farmácia Jardim","tags":"amenity:pharmacy,healthcare:pharmacy","lat":-26.2654625,"lng":-48.8012911},{"id":"4688878689","name":"Farmácia Real","tags":"amenity:pharmacy,healthcare:pharmacy,name:pt:Farmácia Real","lat":-26.2688609,"lng":-48.8102529},{"id":"4688887290","name":"Drogaria Maciel","tags":"amenity:pharmacy,healthcare:pharmacy,name:pt:Drogaria Maciel","lat":-26.271099,"lng":-48.8250051},{"id":"4688890389","name":"Masterfarma","tags":"amenity:pharmacy,name:pt:Masterfarma","lat":-26.2607641,"lng":-48.8188742},{"id":"4688890490","name":"Drog Nunes","tags":"amenity:pharmacy,healthcare:pharmacy,name:pt:Drog Nunes","lat":-26.283704,"lng":-48.7967063},{"id":"4688947791","name":"Drogaria Coradelli","tags":"addr:city:Joinville,addr:housenumber:762,addr:postcode:89204-000,addr:street:Rua Doutor João Colin,addr:suburb:América,amenity:pharmacy,brand:Masterfarma,drive_through:no,healthcare:pharmacy,phone:+55 47 3423 1712","lat":-26.2939878,"lng":-48.8477246},{"id":"4695641396","name":"Farmácia Drogashop","tags":"amenity:pharmacy,name:pt:Farmácia Drogashop","lat":-26.360551,"lng":-48.8297367},{"id":"4695641397","name":"Farmácia Mais Saúde","tags":"amenity:pharmacy,name:pt:Farmácia Mais Saúde","lat":-26.3510731,"lng":-48.7815633},{"id":"4695681693","name":"Farmácia","tags":"amenity:pharmacy,name:pt:Farmácia","lat":-26.3404891,"lng":-48.8167597},{"id":"4695681996","name":"Farmácia Estrela","tags":"amenity:pharmacy,name:pt:Farmácia Estrela","lat":-26.3481936,"lng":-48.8538801},{"id":"4695681997","name":"Farmácia das Nações","tags":"amenity:pharmacy,name:pt:Farmácia das Nações","lat":-26.3231014,"lng":-48.8406145},{"id":"4695681998","name":"Masterfarma","tags":"amenity:pharmacy,name:pt:Masterfarma","lat":-26.3462759,"lng":-48.8321174},{"id":"4695681999","name":"Farmácia Eduarda","tags":"amenity:pharmacy,name:pt:Farmácia Eduarda","lat":-26.3334406,"lng":-48.8169346},{"id":"4695682000","name":"Farmácia Farma e Farma","tags":"amenity:pharmacy,name:pt:Farmácia Farma e Farma","lat":-26.3250644,"lng":-48.8083583},{"id":"4695682793","name":"Masterfarma","tags":"addr:city:Joinville,addr:housenumber:173,addr:postcode:89202-310,addr:street:Rua Inácio Bastos,addr:suburb:Bucarein,amenity:pharmacy,healthcare:pharmacy,name:pt:Masterfarma,phone:+55 47 3278 9998","lat":-26.31588,"lng":-48.8434959},{"id":"4695682795","name":"Farmácia Floresta","tags":"amenity:pharmacy,healthcare:pharmacy,name:pt:Farmácia Floresta","lat":-26.3409918,"lng":-48.8473202},{"id":"4695682796","name":"Farmácia Guanabara","tags":"amenity:pharmacy,name:pt:Farmácia Guanabara","lat":-26.3254845,"lng":-48.8334526},{"id":"4695682797","name":"Farmácia Coradelli","tags":"amenity:pharmacy,name:pt:Farmácia Coradelli","lat":-26.3395647,"lng":-48.8114474},{"id":"4695682798","name":"Farmácia Bom Jesus","tags":"amenity:pharmacy,name:pt:Farmácia Bom Jesus","lat":-26.3471056,"lng":-48.7909923},{"id":"4695715690","name":"Farmácia Farma e Farma","tags":"amenity:pharmacy","lat":-26.3298189,"lng":-48.8665867},{"id":"4695715693","name":"Farmácia Nossa Farma","tags":"amenity:pharmacy,name:pt:Farmácia Nossa Farma","lat":-26.3287098,"lng":-48.8332893},{"id":"4695715694","name":"Farmácia Coradelli","tags":"amenity:pharmacy,name:pt:Farmácia Coradelli","lat":-26.3455175,"lng":-48.7867249},{"id":"4695716492","name":"Farma Trevo","tags":"amenity:pharmacy,name:pt:Farma Trevo","lat":-26.3253086,"lng":-48.8083229},{"id":"4695716591","name":"Drogaria Itaum","tags":"amenity:pharmacy,name:pt:Drogaria Itaum","lat":-26.3409135,"lng":-48.8205008},{"id":"4695716890","name":"Farmácia Ivo Coradelli","tags":"addr:housenumber:2160,addr:street:Rua Anita Garibaldi,amenity:pharmacy,healthcare:pharmacy,name:pt:Farmácia Ivo Coradelli","lat":-26.3244365,"lng":-48.863029},{"id":"4695728489","name":"Farmácia Coradelli","tags":"amenity:pharmacy,healthcare:pharmacy,name:pt:Farmácia Coradelli","lat":-26.3337913,"lng":-48.8348631},{"id":"4695728490","name":"Farmácia Leobet","tags":"amenity:pharmacy,name:pt:Farmácia Leobet","lat":-26.357094,"lng":-48.8461926},{"id":"4695728492","name":"Farmácia","tags":"amenity:pharmacy,name:pt:Farmácia","lat":-26.3461293,"lng":-48.7916688},{"id":"4695728889","name":"Farmácia","tags":"amenity:pharmacy,name:pt:Farmácia","lat":-26.3658251,"lng":-48.8295817},{"id":"4695729291","name":"Farmácia Rocha","tags":"amenity:pharmacy,name:pt:Farmácia Rocha","lat":-26.3313369,"lng":-48.8002809},{"id":"4695733689","name":"Farmácia Coradelli","tags":"amenity:pharmacy,name:pt:Farmácia Coradelli","lat":-26.3444222,"lng":-48.7731863},{"id":"4695989789","name":"Farmácia Ulysses","tags":"amenity:pharmacy,name:pt:Farmácia Ulysses","lat":-26.3241384,"lng":-48.7941782},{"id":"4698259890","name":"Farmácia Super Popular","tags":"amenity:pharmacy,healthcare:pharmacy,name:pt:Farmácia Super Popular","lat":-26.2697333,"lng":-48.6410424},{"id":"4698259891","name":"Farmais","tags":"amenity:pharmacy,healthcare:pharmacy,name:pt:Farmais","lat":-26.2487583,"lng":-48.6354227},{"id":"4698266994","name":"Masterfarma","tags":"amenity:pharmacy,healthcare:pharmacy,name:pt:Masterfarma","lat":-26.2693915,"lng":-48.6410685},{"id":"4698266995","tags":"amenity:pharmacy,healthcare:pharmacy","lat":-26.2229022,"lng":-48.5216059},{"id":"4698276290","name":"Masterfarma","tags":"amenity:pharmacy,healthcare:pharmacy,name:pt:Masterfarma","lat":-26.2474897,"lng":-48.6344245},{"id":"4698276291","name":"Farmácia Vitória","tags":"amenity:pharmacy,healthcare:pharmacy,name:pt:Farmácia Vitória","lat":-26.246572,"lng":-48.6335803},{"id":"4698276292","name":"Farmácia Rodrigues","tags":"amenity:pharmacy,dispensing:yes,healthcare:pharmacy","lat":-26.2419773,"lng":-48.636247},{"id":"4698276293","name":"Masterfarma","tags":"amenity:pharmacy,healthcare:pharmacy,name:pt:Masterfarma","lat":-26.2437769,"lng":-48.6397004},{"id":"4698276294","name":"Farmácia Super Popular","tags":"amenity:pharmacy,healthcare:pharmacy,name:pt:Farmácia Super Popular","lat":-26.2217602,"lng":-48.5223013},{"id":"4698287791","name":"Farmácia Fortefarma","tags":"amenity:pharmacy,healthcare:pharmacy,name:pt:Farmácia Fortefarma","lat":-26.2086052,"lng":-48.5272748},{"id":"4698287991","name":"Farmácia Vitória","tags":"addr:street:Rodovia Duque de Caxias,amenity:pharmacy,healthcare:pharmacy","lat":-26.2071652,"lng":-48.540654},{"id":"4698288289","name":"Farmácia São Chico","tags":"amenity:pharmacy,healthcare:pharmacy,name:pt:Farmácia São Chico","lat":-26.217816,"lng":-48.5238952},{"id":"4698288389","name":"Farmácia Ubatuba","tags":"amenity:pharmacy,healthcare:pharmacy,name:pt:Farmácia Ubatuba","lat":-26.2198089,"lng":-48.5232409},{"id":"4727953744","name":"Auto Center H2O","tags":"amenity:car_wash,phone:+55 47 3423-0821","lat":-26.2915174,"lng":-48.8448126},{"id":"4910896818","name":"Mercado Pavão","tags":"addr:housenumber:538,addr:street:Rua Doutor João Colin,shop:supermarket","lat":-26.2964538,"lng":-48.847594},{"id":"5017193825","name":"Tokiomaki","tags":"amenity:restaurant,cuisine:japanese,name:pt:Tokiomaki","lat":-26.2980277,"lng":-48.8474864},{"id":"5034885121","name":"4All","tags":"leisure:fitness_centre,name:pt:4All","lat":-26.2672608,"lng":-48.8497905},{"id":"5035352121","name":"Santander","tags":"amenity:bank,brand:Santander,brand:wikidata:Q5835668,brand:wikipedia:en:Santander Bank,name:pt:Santander","lat":-26.2732809,"lng":-48.8299239},{"id":"5036875121","name":"Avelã","tags":"amenity:cafe,name:pt:Avelã","lat":-26.3039152,"lng":-48.8545338},{"id":"5044860966","tags":"amenity:library","lat":-26.2638806,"lng":-48.859919},{"id":"5044862838","name":"Churrascaria Baby Búfalo","tags":"addr:city:Joinville,addr:housenumber:158,addr:street:Rua Iguaçu,addr:suburb:Santo Antônio,amenity:restaurant,cuisine:barbecue","lat":-26.2659699,"lng":-48.858074},{"id":"5048908177","name":"Lavação Stop Car","tags":"addr:housenumber:1634,addr:street:Rua Armando Salles,addr:suburb:Bom Retiro,amenity:car_wash","lat":-26.266512,"lng":-48.8422842},{"id":"5075637722","name":"Restaurante e Petisqueira Polinésia","tags":"amenity:restaurant,cuisine:seafood,name:pt:Restaurante e Petisqueira Polinésia","lat":-26.2898563,"lng":-48.776888},{"id":"5075669421","name":"Restaurante e Petisqueira do Paulinho","tags":"amenity:restaurant,cuisine:seafood;fish,name:pt:Restaurante e Petisqueira do Paulinho","lat":-26.2900892,"lng":-48.7767014},{"id":"5105388322","name":"Graça Lanches","tags":"amenity:restaurant","lat":-26.3151037,"lng":-48.8572747},{"id":"5125447095","tags":"amenity:parking","lat":-26.3649243,"lng":-48.8584221},{"id":"5210568327","name":"Mercado Santa Rosa","tags":"shop:supermarket","lat":-26.267303,"lng":-48.858209},{"id":"5307441307","tags":"amenity:bar","lat":-26.3411249,"lng":-48.8504088},{"id":"5335213470","tags":"leisure:fitness_centre","lat":-26.2849463,"lng":-48.8430476},{"id":"5372929804","name":"Restaurante Harry","tags":"amenity:restaurant","lat":-26.2148123,"lng":-48.5251877},{"id":"5372929807","name":"Restaurante Caiçara","tags":"amenity:restaurant","lat":-26.1951115,"lng":-48.5285278},{"id":"5434156623","name":"Casa da Dinda Churrasco e Comida Campeira","tags":"amenity:restaurant","lat":-26.1977798,"lng":-48.5289599},{"id":"5438276036","name":"Portal de Acesso Parque Ecológico Municipal Celso Amorim Salazar Pessoa","tags":"addr:city:São Francisco do Sul,alt_name:Portal de Acesso Morro do Hospício,opening_hours:08:30-17:30,phone:+55 47 3444-6682,tourism:attraction","lat":-26.2420411,"lng":-48.6392311},{"id":"5438280278","name":"Museu Histórico Prefeito José Schmidt","tags":"addr:city:São Francisco do Sul,addr:housenumber:1,addr:street:Rua Coronel Carvalho,phone:+55 47 3444-5443,tourism:museum,wikidata:Q56694673","lat":-26.2490887,"lng":-48.641702},{"id":"5443845277","name":"Salvador Café","tags":"amenity:cafe,diet:vegan:only,diet:vegetarian:only","lat":-26.3010418,"lng":-48.8505817},{"id":"5595047322","name":"Mercado Pitanga","tags":"shop:supermarket","lat":-26.219195,"lng":-48.8126365},{"id":"5900065604","name":"Peixaria do Mercado Público","tags":"addr:city:São Francisco do Sul,addr:postcode:89240-000,addr:street:Rua Babitonga,addr:suburb:Centro Histórico,shop:seafood,start_date:1928,tourism:attraction","lat":-26.2433361,"lng":-48.6400905},{"id":"5900065605","name":"Museu Diocesano de Arte Sacra Padre Antônio de Nóbrega","tags":"addr:city:São Francisco do Sul,addr:postcode:89240-000,addr:street:Praça Getúlio Vargas,addr:suburb:Centro Histórico,description:O museu está localizado na parte anexa à Igreja Matriz Nossa Senhora da Graça e, atualmente, seu acervo conta com 800 peças. É voltado à preservação, pesquisa e exposição de objetos relacionados à arte sacra.,opening_hours:Tu-Fr 09:00-17:00; Sa,Su,PH 10:00-16:00,tourism:museum","lat":-26.2437715,"lng":-48.6385192},{"id":"5970250207","name":"Farmácia Coradelli","tags":"amenity:pharmacy,dispensing:yes,healthcare:pharmacy","lat":-26.2415707,"lng":-48.8142721},{"id":"6016387129","name":"São Francisco do Sul - Terminal Turístico","tags":"amenity:ferry_terminal,ferry:yes,public_transport:station","lat":-26.2411976,"lng":-48.6409674},{"id":"6077371804","name":"Best Cake in Town","tags":"amenity:cafe","lat":-26.3044275,"lng":-48.8430124},{"id":"6223379290","name":"Revivare Bem Estar","tags":"contact:facebook:https://www.facebook.com/revivare.bemestareestetica/,shop:beauty","lat":-26.2827966,"lng":-48.8473445},{"id":"6233019835","name":"fiquebem","tags":"alt_name:Fique Bem,amenity:pharmacy,brand:Usifarma,dispensing:yes,healthcare:pharmacy,level:0","lat":-26.315325,"lng":-48.8623343},{"id":"6288942608","name":"Agropecuária Agrocity","tags":"shop:pet","lat":-26.3435474,"lng":-48.8326595},{"id":"6288942609","name":"Darlon Beer","tags":"addr:city:Joinville,addr:housenumber:1050,addr:postcode:89208-300,addr:street:Rua Petrópolis,addr:suburb:Petrópolis,outdoor_seating:yes,shop:convenience","lat":-26.3435713,"lng":-48.8325894},{"id":"6681578427","name":"Fit Mais","tags":"addr:city:Joinville,addr:housenumber:3531,addr:postcode:89221-009,addr:street:Rua Dona Francisca,addr:suburb:Saguaçu,description:Na FIT Academia você vai ter: Metodologia exclusiva de treinamento, atendimento profissional, acompanhamento individualizado e aulas que realmente entregam resultados. Venha nos conhecer!,leisure:fitness_centre,opening_hours:06:30 - 22:00,payment:coins:yes,payment:credit_cards:yes,phone:+55 47 3227.0095,sport:fitness;gymnastics;exercise,website:https://www.fitmaissaude.com.br/","lat":-26.2747011,"lng":-48.8487716},{"id":"7141305317","name":"Fernanda Krelling - Espaço da Beleza","tags":"addr:city:Joinville,addr:housenumber:48,addr:street:Rua Iririú,addr:suburb:Saguaçu,phone:+55 47 3207 2500,shop:beauty","lat":-26.2831717,"lng":-48.8404579},{"id":"7154969830","name":"Animalis","tags":"shop:pet","lat":-26.2930615,"lng":-48.845817},{"id":"7154969834","name":"Farmácia Preço Popular","tags":"amenity:pharmacy,healthcare:pharmacy","lat":-26.2905714,"lng":-48.8447937},{"id":"7155095427","name":"Santander Select","tags":"amenity:bank,atm:yes","lat":-26.2997272,"lng":-48.8479762},{"id":"7155095431","name":"A Página","tags":"contact:phone:+55 47 3027-7600,shop:books","lat":-26.2970857,"lng":-48.8479547},{"id":"7155095460","name":"Pague Menos","tags":"addr:city:Joinville,addr:housenumber:642,addr:postcode:89204-000,addr:street:Rua Doutor João Colin,addr:suburb:Centro,amenity:pharmacy,brand:Pague Menos,brand:wikidata:Q7124466,brand:wikipedia:pt:Pague Menos,drive_through:no,healthcare:pharmacy,phone:+55 47 3433 5023","lat":-26.295548,"lng":-48.8476691},{"id":"7156972285","name":"Joigrill","tags":"amenity:restaurant,cuisine:japanese","lat":-26.2939388,"lng":-48.8477524},{"id":"7156972286","name":"Toscana's","tags":"amenity:restaurant","lat":-26.2937462,"lng":-48.8477421},{"id":"7158935537","name":"Gisele Tomasi Studio de Alongamento de Cílios","tags":"addr:housenumber:613,addr:street:Rua Iririú,addr:suburb:Saguaçu,beauty:eyelash,shop:beauty","lat":-26.2793907,"lng":-48.836732},{"id":"7159714365","name":"Mercado Saguaçu","tags":"addr:city:Joinville,addr:housenumber:362,addr:postcode:89221-400,addr:street:Rua Indaial,addr:suburb:Saguaçu,not:name:Mercado_Três_Amigos;Mercado_3_Amigos,opening_hours:Mo-Fr 08:00-12:00,14:00-19:00; Sa 08:00-19:00; Mo 08:00-13:00,phone:+55 47 3202 7452,shop:convenience","lat":-26.2784062,"lng":-48.8400848},{"id":"7159714366","name":"Sushi'n'Roll","tags":"addr:city:Joinville,addr:housenumber:362,addr:postcode:89221-265,addr:street:Rua Professor Ricardo Buss,addr:suburb:Saguaçu,amenity:restaurant,cuisine:sushi,opening_hours:18:00-24:00,phone:+55 47 3472 2122,website:https://sushinroll.com.br/","lat":-26.2831103,"lng":-48.8432122},{"id":"7160958197","name":"Rúbia Pacher Estética","tags":"shop:beauty","lat":-26.2915682,"lng":-48.8474639},{"id":"7173953550","name":"Piano Café","tags":"amenity:cafe","lat":-26.2971795,"lng":-48.847838},{"id":"7178303288","name":"Magrass","tags":"contact:email:joinvillecentro@magrass.com.br,contact:phone:+55 47 3026-5006,contact:website:https://www.magrass.com.br,shop:beauty","lat":-26.2980536,"lng":-48.8473056},{"id":"7178303304","name":"Acredicoop","tags":"amenity:bank,atm:yes","lat":-26.2977867,"lng":-48.8450123},{"id":"7178392545","name":"Rema Livraria Evangélica","tags":"shop:books","lat":-26.3006517,"lng":-48.8486105},{"id":"7178392569","name":"Sicoob","tags":"addr:city:Joinville,addr:housenumber:86,addr:postcode:89201-340,addr:street:Rua Comandante Frederico Stoll,addr:suburb:Centro,amenity:bank,atm:yes,brand:Sicoob,brand:wikidata:Q28679754,brand:wikipedia:pt:Sistema de Cooperativas de Crédito do Brasil,drive_through:no,email:joinville@multicredi.coop.br,opening_hours:Mo-Fr 10:00-16:00,phone:+55 47 3422 0666;+55 47 99613 1645","lat":-26.299839,"lng":-48.8492583},{"id":"7178403017","name":"Mari's Restaurante","tags":"amenity:restaurant","lat":-26.298585,"lng":-48.8476181},{"id":"7242387408","tags":"amenity:police","lat":-26.2236516,"lng":-48.5193932},{"id":"7253103662","name":"Bradesco","tags":"addr:city:Joinville,addr:housenumber:333,addr:postcode:89223-005,addr:street:Avenida Rolf Wiest,addr:suburb:Bom Retiro,amenity:bank,atm:yes,brand:Bradesco,brand:wikidata:Q806181,brand:wikipedia:en:Banco Bradesco,drive_through:no,email:1826.gerencia@bradesco.com.br,opening_hours:Mo-Fr 11:00-18:30,operator:1826,phone:+55  47 3043 9227","lat":-26.2546429,"lng":-48.8528817},{"id":"7253261144","name":"Bradesco","tags":"addr:city:Joinville,addr:housenumber:1446,addr:postcode:89202-002,addr:street:Avenida Getúlio Vargas,addr:suburb:Anita Garibaldi,amenity:bank,atm:yes,brand:Bradesco,brand:wikidata:Q806181,brand:wikipedia:en:Banco Bradesco,drive_through:no,email:2150.gerencia@bradesco.com.br,opening_hours:Mo-Fr 10:00-16:00,operator:2150-4,phone:+55 47 3177 2400","lat":-26.3207877,"lng":-48.8456147},{"id":"7253662098","name":"Correios","tags":"addr:city:Joinville,addr:housenumber:100,addr:postcode:89210-971,addr:street:Rua Florianópolis,addr:suburb:Itaum,amenity:post_office,brand:Correios,brand:wikidata:Q3375004,brand:wikipedia:en:Correios,opening_hours:Mo-Fr 09:00-21:00,operator:Correios,operator:wikidata:Q3375004,operator:wikipedia:en:Correios,phone:+55 47 3455 3930","lat":-26.3223376,"lng":-48.8403107},{"id":"7253708495","name":"Sicredi","tags":"addr:city:Joinville,addr:housenumber:2550,addr:postcode:89221-750,addr:street:Avenida Aluísio Pires Condeixa,addr:suburb:Saguaçu,amenity:bank,atm:yes,brand:Sicredi,brand:wikidata:Q3483060,brand:wikipedia:pt:Sistema de Crédito Cooperativo,drive_through:no,opening_hours:Mo-Fr 10:00-16:00","lat":-26.2809658,"lng":-48.8456763},{"id":"7258115394","name":"Sicoob","tags":"addr:city:Joinville,addr:housenumber:36,addr:postcode:89231-530,addr:street:Avenida Kurt Meinert,addr:suburb:Paranaguamirim,amenity:bank,atm:yes,brand:Sicoob,brand:wikidata:Q28679754,brand:wikipedia:pt:Sistema de Cooperativas de Crédito do Brasil,drive_through:no,opening_hours:Mo-Fr 09:00-16:00,phone:+55 47 3429 2808","lat":-26.3469047,"lng":-48.7898616},{"id":"7259522839","tags":"amenity:atm,drive_through:no,network:Sicoob,operator:Sicoob","lat":-26.2942114,"lng":-48.8475153},{"id":"7259554845","tags":"addr:city:Joinville,addr:housenumber:106,addr:postcode:89201-330,addr:street:Rua dos Ginásticos,addr:suburb:Centro,amenity:atm,cash_in:no,drive_through:no,network:banco24horas,operator:banco24horas","lat":-26.2985788,"lng":-48.8484552},{"id":"7259572755","name":"Banco24Horas","tags":"amenity:atm,brand:Banco24Horas,brand:wikidata:Q4854069,cash_in:no,drive_through:no,network:Banco24horas,operator:Banco24horas","lat":-26.2378637,"lng":-48.8187196},{"id":"7259589105","name":"banco24horas","tags":"addr:city:Joinville,addr:housenumber:2500,addr:postcode:89204-002,addr:street:Rua Doutor João Colin,addr:suburb:América,amenity:atm,atm:yes,cash_in:no,drive_through:no,network:banco24horas,operator:banco24horas","lat":-26.2781301,"lng":-48.848949},{"id":"7259595021","name":"banco24horas","tags":"addr:city:Joinville,addr:housenumber:716,addr:postcode:89204-200,addr:street:Rua Almirante Barroso,addr:suburb:América,amenity:atm,atm:yes,cash_in:no,drive_through:no,network:banco24horas,operator:banco24horas","lat":-26.2821435,"lng":-48.851548},{"id":"7259595193","tags":"addr:city:Joinville,addr:housenumber:720,addr:postcode:89204-110,addr:street:Rua Orestes Guimarães,addr:suburb:América,amenity:atm,atm:yes,cash_in:no,drive_through:no,network:Banco24Horas,operator:Banco24Horas","lat":-26.2908783,"lng":-48.843835},{"id":"7259596214","tags":"addr:city:Joinville,addr:housenumber:235,addr:postcode:89201-440,addr:street:Rua Visconde de Taunay,addr:suburb:Centro,amenity:atm,atm:yes,cash_in:no,drive_through:no,network:Banco24Horas,operator:Banco24Horas","lat":-26.304238,"lng":-48.8494855},{"id":"7259598212","tags":"addr:city:Joinville,addr:housenumber:762,addr:postcode:89204-000,addr:street:Rua Doutor João Colin,addr:suburb:América,amenity:atm,atm:yes,cash_in:no,drive_through:no,network:Banco24Horas,operator:Banco24Horas","lat":-26.293674,"lng":-48.8475783},{"id":"7259610515","name":"Banco24Horas","tags":"amenity:atm,brand:Banco24Horas,brand:wikidata:Q4854069,brand:wikipedia:pt:Banco24Horas,cash_in:no,drive_through:no,network:banco24horas,operator:banco24horas","lat":-26.3173659,"lng":-48.8419836},{"id":"7271715623","name":"Litoral Supermercado","tags":"shop:supermarket","lat":-26.2069356,"lng":-48.5403853},{"id":"7309229602","name":"Escola Técnica Tupy","tags":"addr:city:Joinville,addr:housenumber:3333,addr:postcode:89206-001,addr:street:Rua Albano Schmidt,addr:suburb:Boa Vista,amenity:school,phone:+55 47 3461 0191","lat":-26.288406,"lng":-48.8134715},{"id":"7319610426","name":"Centro de Artes e Esportes Unificados do Aventureiro","tags":"addr:city:Joinville,addr:housenumber:955,addr:postcode:89226-300,addr:street:Rua Santa Luzia,addr:suburb:Aventureiro,government:yes,leisure:sports_centre","lat":-26.2379011,"lng":-48.8110066},{"id":"7331743608","name":"Sendex Express","tags":"addr:city:Joinville,addr:housenumber:737,addr:postcode:89201-400,addr:street:Rua Nove de Março,addr:suburb:Centro,amenity:post_office,phone:+55 47 3030 2060,website:https://sendexexpress.com","lat":-26.3016236,"lng":-48.8488054},{"id":"7346561530","tags":"amenity:atm,drive_through:no,operator:Banco24Horas","lat":-26.2722888,"lng":-48.8117679},{"id":"7354300068","name":"Colégio Bonja","tags":"addr:city:Joinville,addr:country:BR,addr:housenumber:438,addr:postcode:89201-270,addr:state:SC,addr:street:Rua Princesa Isabel,addr:suburb:Centro,alt_name:Colégio Bonja – Unidade Centro,amenity:school,network:IELUSC,website:https://www.colegiobonja.com.br/","lat":-26.2987341,"lng":-48.8467518},{"id":"7363188299","tags":"addr:city:Joinville,addr:housenumber:1639,addr:postcode:89202-005,addr:street:Rua Ministro Calógeras,addr:suburb:Anita Garibaldi,amenity:atm,drive_through:no,network:Banco24Horas,operator:Banco24Horas","lat":-26.3110932,"lng":-48.8546747},{"id":"7363236951","name":"Bradesco","tags":"addr:city:Joinville,addr:housenumber:2500,addr:postcode:89204-002,addr:street:Rua Doutor João Colin,addr:suburb:América,amenity:bank,atm:yes,brand:Bradesco,brand:wikidata:Q806181,brand:wikipedia:en:Banco Bradesco,drive_through:no,opening_hours:Mo-Fr 10:00-16:00,operator:1595-4,phone:+55 47 3467 2909","lat":-26.2779499,"lng":-48.8489318},{"id":"7363259197","tags":"addr:city:Joinville,addr:housenumber:1446,addr:postcode:89202-000,addr:street:Avenida Getúlio Vargas,addr:suburb:Anita Garibaldi,amenity:atm,atm:yes,drive_through:no,operator:Banco24Horas","lat":-26.3204752,"lng":-48.8468357},{"id":"7363367628","name":"Banco24Horas","tags":"addr:city:Joinville,addr:housenumber:9000,addr:postcode:89226-435,addr:street:Avenida Santos Dumont,addr:suburb:Aventureiro,amenity:atm,atm:yes,brand:Banco24Horas,brand:wikidata:Q4854069,brand:wikipedia:pt:Banco24Horas,drive_through:no,network:Banco24Horas,operator:Banco24Horas","lat":-26.2244805,"lng":-48.8015982},{"id":"7364590778","name":"Academia Bonja","tags":"addr:city:Joinville,addr:housenumber:168,addr:postcode:89221-665,addr:street:Rua Professora Ada Xavier da Silveira,addr:suburb:Saguaçu,leisure:fitness_centre,opening_hours:Mo-Fr 06:00-22:00,phone:+55 47 3032 8888","lat":-26.279452,"lng":-48.8429296},{"id":"7385180417","tags":"shop:supermarket","lat":-26.2176234,"lng":-48.8181878},{"id":"7394549869","tags":"addr:city:Joinville,addr:housenumber:235,addr:postcode:89201-908,addr:street:Rua Visconde de Taunay,addr:suburb:Centro,amenity:atm,drive_through:no,network:CEF,operator:Caixa Econômica Federal","lat":-26.3039482,"lng":-48.8492908},{"id":"7448812045","name":"Caixa Econômica Federal","tags":"amenity:bank,atm:yes,brand:Caixa,brand:wikidata:Q835283,brand:wikipedia:pt:Caixa Econômica Federal,drive_through:no,opening_hours:Mo-Fr 10:00-16:00,operator:CEF,phone:+55 47 4009 2700","lat":-26.3041831,"lng":-48.845385},{"id":"7703042794","name":"Sebo Universo Cultural","tags":"addr:city:Joinville,addr:housenumber:66,addr:postcode:89201-160,addr:street:Rua Engenheiro Niemeyer,addr:suburb:Centro,opening_hours:Mo-Fr 09:00-18:30; Sa 09:00-13:00,phone:+55 47 3432 3612,shop:books","lat":-26.3028371,"lng":-48.8464203},{"id":"8047364202","tags":"amenity:parking","lat":-26.2621722,"lng":-48.8632094},{"id":"8113641989","tags":"access:customers,amenity:parking,parking:underground","lat":-26.3112965,"lng":-48.8542809},{"id":"8225964772","name":"Correios Condor","tags":"addr:city:Joinville,addr:housenumber:100,addr:postcode:89210-085,addr:street:Rua Florianópolis,addr:suburb:Bucarein,amenity:post_office,opening_hours:Mo-Su 09:00-21:00","lat":-26.3232048,"lng":-48.8409023},{"id":"8254695889","name":"Escola Municipal Lúcio Patricio de Mira","tags":"amenity:school,operator:Municipal,operator:type:public","lat":-26.3636012,"lng":-48.6264937},{"id":"8254695896","name":"Escola Municipal Morro da Cruz","tags":"amenity:school","lat":-26.3026885,"lng":-48.6408551},{"id":"8254695899","name":"Escola Municipal Morro Grande","tags":"amenity:school","lat":-26.2825545,"lng":-48.6325453},{"id":"8254695901","name":"Escola Familiar do Mar","tags":"amenity:school","lat":-26.2779398,"lng":-48.6448438},{"id":"8254695902","name":"Hospital e Maternidade Nossa Senhora da Graça","tags":"amenity:hospital,healthcare:hospital","lat":-26.2546197,"lng":-48.6429893},{"id":"8254695904","name":"Escola Municipal Waldemar da Costa","tags":"amenity:school","lat":-26.2601064,"lng":-48.6331562},{"id":"8254695906","name":"Escola Municipal Álvaro Tancredo Dippold","tags":"amenity:school","lat":-26.2591087,"lng":-48.6211201},{"id":"8254695908","name":"Escola Estadual Carlos da Costa Pereira","tags":"amenity:school","lat":-26.2527243,"lng":-48.6271163},{"id":"8254695909","name":"Batalhão de Polícia 27","tags":"amenity:police","lat":-26.2495094,"lng":-48.6352916},{"id":"8254696951","name":"Colégio Adventista","tags":"amenity:school","lat":-26.2478228,"lng":-48.6388726},{"id":"8254696955","name":"Escola Estadual Engenheiro Annes Gualberto","tags":"amenity:school","lat":-26.2304392,"lng":-48.6151864},{"id":"8254696956","name":"Escola Municipal Doutor Franklin de Oliveira","tags":"amenity:school","lat":-26.244139,"lng":-48.6011941},{"id":"8254696970","name":"Escola Municipal Anselmo Correa","tags":"amenity:school","lat":-26.2936518,"lng":-48.6814014},{"id":"8254696972","name":"Escola Municipal Estaleiro","tags":"amenity:school","lat":-26.2394426,"lng":-48.6912316},{"id":"8254696976","name":"Posto Polícia Militar Vila da Glória","tags":"amenity:police","lat":-26.2052315,"lng":-48.6611642},{"id":"8563927717","name":"Yo","tags":"addr:housenumber:1800,addr:street:Rua Frontin,internet_access:wlan,leisure:fitness_centre,name:en:Academy Yokohama - Jardim Iririu,name:pt:Academia Yokohama - Jardim Iririu,opening_hours:Mo-Fr 06:00-23:59; Sa 09:00-12:00,phone:+55 47 3278 0328,website:http://www.academiayokohama.com.br/","lat":-26.2613411,"lng":-48.8066123},{"id":"8563948617","name":"Brutti","tags":"addr:housenumber:1083,addr:street:Rua Riacho de Santana,name:en:Supermarket Brutty,name:pt:Supermercado Brutty,opening_hours:Mo-Su 08:00-21:00,phone:+55 47 3026 3992,shop:supermarket","lat":-26.2591412,"lng":-48.802864},{"id":"8622994417","name":"Aquários Restaurante","tags":"addr:city:São Francisco do Sul,addr:street:Rodovia Duque de Caxias,addr:suburb:Ubatuba,amenity:restaurant,internet_access:wlan,opening_hours:Mo-Su 11:00-14:00,phone:+55 47 3444-3300","lat":-26.2202503,"lng":-48.5231715},{"id":"8626234060","tags":"amenity:grave_yard","lat":-26.3632685,"lng":-48.6246563},{"id":"8626234062","tags":"amenity:grave_yard","lat":-26.2162166,"lng":-48.6681924},{"id":"8636261913","name":"Biblioteca Pública Municipal José Augusto Ribeiro","tags":"amenity:library","lat":-26.240977,"lng":-48.637685},{"id":"8813188513","name":"Quinta de Olivares","tags":"addr:city:Joinville,addr:housenumber:480,addr:street:Rua Orestes Guimarães,addr:suburb:América,amenity:cafe,cuisine:portuguese,internet_access:wlan,wheelchair:yes","lat":-26.2933304,"lng":-48.8454975},{"id":"9062563817","name":"Restaurante Ki Gostoso","tags":"addr:city:São Francisco do Sul,addr:street:Rodovia Duque de Caxias,amenity:restaurant,phone:+55 47 99988-2401","lat":-26.2072101,"lng":-48.5407022},{"id":"9175649738","name":"Academia Smart Fit","tags":"addr:city:Joinville,addr:housenumber:276,addr:postcode:89221-605,addr:street:Rua João Pessoa,addr:suburb:Saguaçu,leisure:fitness_centre,opening_hours:Mo-Fr 07:00-22:00; Sa 09:00-18:00; Su 09:00-15:00","lat":-26.2773156,"lng":-48.8493241},{"id":"9697739767","name":"Grupo Escolar Victor Konder","tags":"addr:street:Rua Almirante Barroso,amenity:school","lat":-26.2440353,"lng":-48.6221348},{"id":"9697875423","name":"Residência do Capitão Cabecinha","tags":"historic:ruins,inscription:Ruínas do Século XVI. Residência do Capitão Mor \\O Cabecinha\\.,ruins:building,tourism:attraction","lat":-26.2796534,"lng":-48.6591793},{"id":"9698009359","name":"Escola de Educação Básica de Santa Catarina","tags":"addr:street:Rua Barão do Rio Branco,amenity:school","lat":-26.2454371,"lng":-48.632538},{"id":"9698034722","name":"Caic Irmã Joaquina Bussarello","tags":"amenity:school","lat":-26.2493667,"lng":-48.6303525},{"id":"9866527697","name":"Restaurante Tia Maria","tags":"addr:city:São Francisco do Sul,addr:housenumber:292,addr:postcode:89240-000,addr:street:Rua João Pereira Liberato,addr:suburb:Rocio Grande,amenity:restaurant,cuisine:brazilian,opening_hours:Mo-Fr 11:00-14:00,phone:+55 47 3442-1425","lat":-26.2688669,"lng":-48.6389334},{"id":"9883191192","name":"Zinho Batista Trapiche","tags":"amenity:restaurant","lat":-26.2185166,"lng":-48.6659144},{"id":"4560098162","name":"Farmácia Preço Popular","tags":"amenity:pharmacy,healthcare:pharmacy,opening_hours:Mo-Fr 08:00-21:00; Sa 08:00-18:00","lat":-26.2862126,"lng":-48.8395613},{"id":"10099899531","name":"Drogaria Catarinense","tags":"amenity:pharmacy,healthcare:pharmacy,opening_hours:24/7,phone:+55 47 3433 1844","lat":-26.2885406,"lng":-48.8458157},{"id":"10099899532","name":"Proformula - Farmácia de Manipulação","tags":"amenity:pharmacy,healthcare:pharmacy,opening_hours:Mo-Fr 08:00-20:00; Sa 08:00-13:00,phone:+55 47 3027 1238,website:https://www.proformula.far.br","lat":-26.2885213,"lng":-48.846096},{"id":"10101813221","name":"Aquários Restaurante","tags":"addr:city:São Francisco do Sul,addr:street:Rodovia Senador Luiz Henrique da Silveira,amenity:restaurant,check_date:2022-10-01,contact:whatsapp:+55 47 98455-2702,phone:+55 47 3444-3300","lat":-26.3045164,"lng":-48.6411813}]