[{"id":"2720351155","name":"9º BPM - Batalhão de Polícia Militar","tags":"addr:city:Paranaguá,addr:housenumber:2001,addr:postcode:83209-340,addr:street:Alameda Domingos Peneda,amenity:police,phone:+55 41 3420 2450,website:http://www.pm.pr.gov.br,wikidata:Q16144593,wikipedia:pt:9º Batalhão de Polícia Militar (PMPR)","lat":-25.539929,"lng":-48.5286196},{"id":"2997919224","name":"Cachoeira da Quintilha - Alto","tags":"tourism:attraction,waterway:waterfall","lat":-25.6388823,"lng":-48.6161506},{"id":"2997919225","name":"O Sabor da Quintilha","tags":"amenity:restaurant,cuisine:regional,internet_access:no,phone:+55 41 3427 3536,smoking:no","lat":-25.636166,"lng":-48.6102561},{"id":"3324256407","name":"SAU","tags":"amenity:parking","lat":-25.5740286,"lng":-48.8270655},{"id":"4324588239","name":"Pedra","tags":"tourism:attraction","lat":-25.610777,"lng":-48.8463155},{"id":"4596325791","name":"Ballaio di Frango","tags":"addr:housenumber:2663,addr:street:Rua Manoel Correa,amenity:restaurant,name:pt:Ballaio di Frango","lat":-25.5285681,"lng":-48.5204122},{"id":"4711042091","name":"Dona Bega","tags":"addr:housenumber:50,addr:street:Rua Topázio,amenity:cafe,internet_access:wlan,name:pt:Dona bega,opening_hours:24/7","lat":-25.5736967,"lng":-48.5680415},{"id":"4758648722","name":"Thiago Lanches","tags":"amenity:restaurant,internet_access:wlan,name:en:Thiago Lanches,name:pt:Thiago Lanches","lat":-25.5632705,"lng":-48.5644576},{"id":"5480459403","name":"Polícia Rodoviária Federal","tags":"addr:street:Rodovia do Café Governador Ney Braga,amenity:police,email:del01.pr@prf.gov.br,opening_hours:24/7,operator:Polícia Rodoviária Federal,operator:wikidata:Q1158853,operator:wikipedia:pt:Polícia Rodoviária Federal,phone:+55 41 3535 2117,police:traffic_police","lat":-25.5640179,"lng":-48.6327321},{"id":"5902816762","name":"Escola Municipal Presidente Costa e Silva","tags":"amenity:school","lat":-25.5080305,"lng":-48.5287968},{"id":"5939376648","name":"Mercado Girardi","tags":"shop:supermarket","lat":-25.5101058,"lng":-48.5263325},{"id":"6383818926","name":"Salto do Sagrado","tags":"tourism:attraction,waterway:waterfall","lat":-25.6025175,"lng":-48.8058494},{"id":"6383818928","name":"Cachoeira do Quintilha - Baixo","tags":"tourism:attraction,waterway:waterfall","lat":-25.6389765,"lng":-48.6154567},{"id":"6553604372","tags":"tourism:attraction,waterway:waterfall","lat":-25.5432212,"lng":-48.8571244},{"id":"6558588383","name":"SAU","tags":"amenity:parking","lat":-25.5668165,"lng":-48.6225826},{"id":"6737520068","tags":"amenity:parking,operator:Santafé","lat":-25.5501435,"lng":-48.55609},{"id":"6763946249","name":"Balança / Pesagem","tags":"amenity:police","lat":-25.5507762,"lng":-48.7978116},{"id":"8494434992","name":"Hipermercado Condor","tags":"shop:supermarket","lat":-25.518862,"lng":-48.5190017},{"id":"9095367962","name":"Supermercado Bavaresco","tags":"shop:supermarket","lat":-25.5725288,"lng":-48.5748539},{"id":"9381817794","name":"Cachoeira da Macumba","tags":"tourism:attraction,waterway:waterfall","lat":-25.594319,"lng":-48.6519478},{"id":"9388178011","tags":"tourism:attraction,waterway:waterfall","lat":-25.5937069,"lng":-48.6514403},{"id":"9388202942","tags":"tourism:attraction,waterway:waterfall","lat":-25.5947561,"lng":-48.6523853},{"id":"9977135432","name":"Pedra Queimada","tags":"tourism:attraction","lat":-25.5753763,"lng":-48.6743131},{"id":"10179123842","name":"Terminal Parque S João","tags":"addr:housenumber:S/N,addr:street:Avenida Sebastião Marques,addr:suburb:Parque São João,amenity:bus_station,bus:yes,operator:Viação Rocio,public_transport:station","lat":-25.5524467,"lng":-48.548721},{"id":"10216954528","tags":"amenity:parking","lat":-25.6038947,"lng":-48.8069874},{"id":"10232161363","name":"Chácara Rio das Pedras","tags":"addr:city:Morretes,addr:street:Estrada da Limeira,addr:suburb:Marta,description:Condominio de chácaras,leisure:park","lat":-25.5915012,"lng":-48.7207549},{"id":"10262674756","name":"Lagoa Azul de Paranaguá","tags":"tourism:attraction","lat":-25.5148956,"lng":-48.695577},{"id":"10727129488","name":"Terminal do Vila Guarani","tags":"amenity:bus_station,bus:yes,operator:Viação Rocio,public_transport:station","lat":-25.514621,"lng":-48.5423039}]