[{"id":"833467974","name":"Bar e mercearia do Sr. Sérgio (desativado)","tags":"amenity:bar","lat":-25.1428114,"lng":-49.9611507},{"id":"859537393","name":"Escola Municipal Agenoridas Stadler","tags":"addr:street:Rua Dourados,amenity:school,source_ref:http://wiki.openstreetmap.org/wiki/Pt-br:WikiProject_Brazil/PR/Ponta_Grossa/Agreement","lat":-25.1720237,"lng":-50.1329261},{"id":"859537422","name":"Escola Municipal Doutor Ávaro Faria da Rocha","tags":"addr:housenumber:332,addr:street:Rua Bernardo Guimarães,amenity:school,source_ref:http://wiki.openstreetmap.org/wiki/Pt-br:WikiProject_Brazil/PR/Ponta_Grossa/Agreement","lat":-25.1566075,"lng":-50.1881765},{"id":"859537436","name":"Colégio Estadual Francisco Pires Machado","tags":"addr:housenumber:318,addr:postcode:84031-120,addr:street:Rua Carajás,amenity:school,source_ref:http://wiki.openstreetmap.org/wiki/Pt-br:WikiProject_Brazil/PR/Ponta_Grossa/Agreement","lat":-25.1777802,"lng":-50.1422484},{"id":"859537460","name":"Escola Municipal Professora Armida Frare Grácia","tags":"addr:housenumber:160,addr:postcode:84046130,addr:street:Rua Inambú,amenity:school,source_ref:http://wiki.openstreetmap.org/wiki/Pt-br:WikiProject_Brazil/PR/Ponta_Grossa/Agreement","lat":-25.145997,"lng":-50.166843},{"id":"859537472","name":"Escola Municipal Professor Guitil Federmann","tags":"addr:housenumber:422,addr:postcode:84001970,addr:street:Rua Furiel,amenity:school,source_ref:http://wiki.openstreetmap.org/wiki/Pt-br:WikiProject_Brazil/PR/Ponta_Grossa/Agreement","lat":-25.1456456,"lng":-50.1700701},{"id":"1094921503","tags":"amenity:parking","lat":-25.1409389,"lng":-50.1536491},{"id":"1094921755","tags":"amenity:parking","lat":-25.1393418,"lng":-50.1514433},{"id":"1095484298","tags":"amenity:parking","lat":-25.1577619,"lng":-50.1317993},{"id":"2329533792","name":"Cachoeira da Mariquinha","tags":"tourism:attraction,waterway:waterfall","lat":-25.2028869,"lng":-49.9439047},{"id":"2650438633","name":"Poço das Andorinhas","tags":"natural:cave_entrance,tourism:attraction","lat":-25.159873,"lng":-49.930285},{"id":"2878425023","name":"Buraco do Padre","tags":"natural:cave_entrance,tourism:attraction,wheelchair:no,wikidata:Q18464939,wikipedia:pt:Buraco do Padre","lat":-25.1719374,"lng":-49.9688266},{"id":"3091697630","name":"Fenda da Freira","tags":"tourism:attraction","lat":-25.1722786,"lng":-49.9685306},{"id":"3131486951","name":"Furna 4 - PE Vila Velha","tags":"natural:cave_entrance,tourism:attraction","lat":-25.2338038,"lng":-50.0472258},{"id":"3131532944","name":"Furna sem nome 2 (SW das Gêmeas)","tags":"natural:cave_entrance,tourism:attraction","lat":-25.1498372,"lng":-49.9597975},{"id":"3131538020","name":"Furna sem nome 1 (NE da Grande)","tags":"natural:cave_entrance,tourism:attraction","lat":-25.1533131,"lng":-49.9587765},{"id":"3133043208","name":"Sítio fossilífero da Fazenda Rivadávia","tags":"natural:palaeontological_site,tourism:attraction","lat":-25.3059307,"lng":-49.9897488},{"id":"3133051386","name":"Sumidouro (Abrigo Quebra-Perna)","tags":"natural:cave_entrance,tourism:attraction","lat":-25.2063851,"lng":-49.9714536},{"id":"3154416720","name":"Arcos da Fazenda Rivadávia","tags":"tourism:attraction","lat":-25.2751872,"lng":-49.9705508},{"id":"3197906870","name":"Furna 2 - PE Vila Velha","tags":"natural:cave_entrance,tourism:attraction","lat":-25.2231587,"lng":-50.0412812},{"id":"3197906871","name":"Furna 1 - PE Vila Velha","tags":"natural:cave_entrance,tourism:attraction","lat":-25.2231986,"lng":-50.0398233},{"id":"3675732950","name":"Parque Estadual de Vila Velha","tags":"tourism:attraction","lat":-25.2525552,"lng":-50.0066033},{"id":"3739808385","name":"Arenitos Fortaleza PE Vila Velha","tags":"tourism:attraction","lat":-25.2268219,"lng":-49.9870536},{"id":"3739808387","name":"Arenitos PE Vila Velha","tags":"tourism:attraction","lat":-25.2530908,"lng":-49.9986161},{"id":"3739811478","name":"Maciço das Toquinhas","tags":"tourism:attraction","lat":-25.2254788,"lng":-49.9493647},{"id":"3740767978","name":"Arcos de Pedra da Fazenda Rivadávia","tags":"tourism:attraction","lat":-25.2688399,"lng":-50.0029841},{"id":"3744016151","name":"Pedra Solitária","tags":"natural:stone,tourism:attraction","lat":-25.13874,"lng":-49.9450261},{"id":"4250469989","name":"Mini Vila Velha","tags":"tourism:attraction","lat":-25.2228463,"lng":-49.9263821},{"id":"4290500959","name":"Gruta da Fortaleza","tags":"natural:cave_entrance,tourism:attraction","lat":-25.2261188,"lng":-49.9914767},{"id":"4290634893","name":"Caverna das Andorinhas","tags":"natural:cave_entrance,tourism:attraction","lat":-25.1457215,"lng":-49.9257696},{"id":"4674492607","name":"Taça PE Vila Velha","tags":"natural:rock,tourism:attraction","lat":-25.2529788,"lng":-49.9971598},{"id":"4687350698","name":"Abrigo Cambiju","tags":"natural:cave_entrance,tourism:attraction","lat":-25.2032045,"lng":-49.9470054},{"id":"5010956422","name":"Penitenciária Estadual de Ponta Grossa","tags":"addr:street:Rua Batuíra,amenity:police,name:pt:Penitenciária Estadual de Ponta Grossa,opening_hours:24/7","lat":-25.1536386,"lng":-50.1649327},{"id":"7516035689","name":"Farmácia Bom Jesus","tags":"addr:city:Ponta Grossa,addr:street:Rua 14 Bis,addr:suburb:Cará-Cará,amenity:pharmacy,dispensing:yes,healthcare:pharmacy","lat":-25.1782388,"lng":-50.1423671},{"id":"7516035690","name":"Minimercado Cará-Cará","tags":"shop:convenience","lat":-25.1778512,"lng":-50.1431256},{"id":"7516035691","name":"Mercado Galvão","tags":"shop:convenience","lat":-25.1765054,"lng":-50.140023},{"id":"7516035692","name":"Escola Municipal Deodoro Alves Quintiliano","tags":"addr:city:Ponta Grossa,addr:street:Rua Carajás,amenity:school","lat":-25.1776605,"lng":-50.1427224},{"id":"7516035693","name":"Centro Municipal de Educação Infantil Augusto Canto","tags":"amenity:school","lat":-25.1774935,"lng":-50.1421923},{"id":"7870634299","name":"Lanchonte/Cafeteria do Camping da Mariquinha","tags":"amenity:cafe,cuisine:regional,internet_access:yes,wheelchair:yes","lat":-25.196083,"lng":-49.9493175}]