[{"id":"1079820824","name":"Panelões do Arroio Pedregulho","tags":"addr:city:Tibagi,addr:street:PE do Guartelá,tourism:attraction","lat":-24.5624745,"lng":-50.2549165},{"id":"2212290771","name":"Terminal Rodoviário de Piraí do Sul","tags":"amenity:bus_station","lat":-24.531869,"lng":-49.9415924},{"id":"3117390994","name":"Cachoeira da Paulina","tags":"tourism:attraction,waterway:waterfall","lat":-24.4516541,"lng":-50.0380538},{"id":"3117390995","name":"Canyon Palmeirinha","tags":"geological:yes,tourism:attraction","lat":-24.4507389,"lng":-50.0408313},{"id":"3133113302","name":"Gruta da Pedra Ume","tags":"natural:cave_entrance,tourism:attraction","lat":-24.5719467,"lng":-50.2379413},{"id":"3133118970","name":"Lapa Floriano","tags":"addr:city:Tibagi,addr:street:Pe do Guartelá,natural:palaeontological_site,tourism:attraction","lat":-24.5764415,"lng":-50.2411243},{"id":"3133118971","name":"Lapa Ponciano","tags":"addr:city:Tibagi,addr:street:PE do Guartelá,natural:palaeontological_site,tourism:attraction","lat":-24.5688459,"lng":-50.2491062},{"id":"3133124444","name":"Gruta das Andorinhas","tags":"addr:city:Tibagi,addr:street:PE do Guartelá,natural:cave_entrance,tourism:attraction","lat":-24.5578485,"lng":-50.2557046},{"id":"4060045732","name":"Restaurante Idaza","tags":"amenity:restaurant","lat":-24.5403615,"lng":-49.9272048},{"id":"4234001846","name":"Cachoeira da Gruta das Andorinhas","tags":"tourism:attraction,waterway:waterfall","lat":-24.5581294,"lng":-50.255637},{"id":"4234001853","name":"Cachoeira do Arco de Pedra","tags":"tourism:attraction,waterway:waterfall","lat":-24.5589311,"lng":-50.2545831},{"id":"4238337663","name":"Cachoeira do Butiá","tags":"tourism:attraction,waterway:waterfall","lat":-24.4701132,"lng":-49.9734921},{"id":"4851628064","name":"Caixa Econômica Federal","tags":"amenity:bank","lat":-24.53133,"lng":-49.9364962},{"id":"4856543671","name":"Polícia Militar","tags":"amenity:police","lat":-24.5332166,"lng":-49.9348795},{"id":"4856543674","name":"Polícia Militar Rodoviária","tags":"amenity:police,police:traffic_police","lat":-24.5935388,"lng":-49.9483707},{"id":"5107758778","name":"Pedra do Buraco","tags":"tourism:attraction","lat":-24.5741181,"lng":-50.2499103},{"id":"5107758779","name":"Pedra do gavião","tags":"tourism:attraction","lat":-24.572463,"lng":-50.2518682},{"id":"5846072985","name":"Fanelli","tags":"shop:supermarket","lat":-24.5358767,"lng":-49.9444324}]