[{"id":"903396600","tags":"amenity:parking","lat":-24.6359198,"lng":-48.4046178},{"id":"903396604","name":"Caverna do Diabo","tags":"addr:street:ES CAVERNA DO DIABO,name:en:Caverna da Tapagem,natural:cave_entrance,tourism:attraction,wikidata:Q5055055,wikipedia:en:Caverna da Tapagem","lat":-24.6380341,"lng":-48.4012399},{"id":"2702087723","name":"Polícia Rodoviária Federal","tags":"amenity:police,police:traffic_police","lat":-24.7750433,"lng":-48.1714378},{"id":"2702087725","name":"Polícia Rodoviária Federal","tags":"amenity:police,police:traffic_police","lat":-24.7766634,"lng":-48.1712782},{"id":"3302897272","name":"Cachoeira do Assentado","tags":"tourism:attraction","lat":-24.7425786,"lng":-48.3226884},{"id":"3370209695","name":"Cachoeira Queda do Meu Deus","tags":"tourism:attraction,waterway:waterfall","lat":-24.6223828,"lng":-48.3847386},{"id":"3872037064","name":"Cachoeira Véu de Noiva","tags":"tourism:attraction,waterway:waterfall","lat":-24.7205902,"lng":-48.4530381},{"id":"3929288331","name":"Kisnner 51","tags":"amenity:restaurant","lat":-24.776938,"lng":-48.1936026},{"id":"5361834736","tags":"amenity:parking","lat":-24.6181516,"lng":-48.3867536},{"id":"5361834737","name":"Cachoeira das Andorinhas","tags":"tourism:attraction,waterway:waterfall","lat":-24.611917,"lng":-48.3913395},{"id":"5361834755","name":"Cachoeira Escondida","tags":"tourism:attraction,waterway:waterfall","lat":-24.6142873,"lng":-48.388153},{"id":"5361834757","name":"Cachoeira do Funil","tags":"tourism:attraction,waterway:waterfall","lat":-24.6170842,"lng":-48.3868039},{"id":"5361835727","name":"Cachoeira das Tres Quedas","tags":"tourism:attraction,waterway:waterfall","lat":-24.6148018,"lng":-48.3878794}]