[{"id":"2576618983","name":"Colégio Casucha","tags":"amenity:school","lat":-23.2921085,"lng":-50.0631718},{"id":"2577422730","name":"Polícia Militar","tags":"amenity:police","lat":-23.2939343,"lng":-50.0738921},{"id":"2577833883","name":"Colégio Estadual Rio Branco (CERB)","tags":"amenity:school","lat":-23.2914292,"lng":-50.0776027},{"id":"2577833886","name":"Supercenter Molini's","tags":"operator:Grupo Molinis,shop:supermarket","lat":-23.293173,"lng":-50.0766473},{"id":"2577833887","name":"Colégio Santa Terezinha / Sagrada Família","tags":"amenity:school","lat":-23.294536,"lng":-50.0777288},{"id":"2581307257","name":"Banco do Brasil","tags":"amenity:bank,atm:yes,brand:Banco do Brasil,brand:wikidata:Q610817,brand:wikipedia:en:Banco do Brasil","lat":-23.2925752,"lng":-50.0740823},{"id":"2581307268","name":"Bella Center Cosméticos","tags":"shop:chemist","lat":-23.2966637,"lng":-50.0780744},{"id":"2581307272","tags":"amenity:pharmacy,healthcare:pharmacy","lat":-23.2958166,"lng":-50.0769689},{"id":"2581307273","tags":"amenity:pharmacy,healthcare:pharmacy","lat":-23.2956541,"lng":-50.0767247},{"id":"2581307274","tags":"amenity:pharmacy,healthcare:pharmacy","lat":-23.2953875,"lng":-50.076346},{"id":"2581307275","tags":"amenity:pharmacy,healthcare:pharmacy","lat":-23.296704,"lng":-50.0762646},{"id":"2581307276","tags":"amenity:pharmacy","lat":-23.2951827,"lng":-50.0773582},{"id":"2581307277","tags":"amenity:pharmacy,healthcare:pharmacy","lat":-23.2949519,"lng":-50.077022},{"id":"2581307278","name":"Sicredi","tags":"amenity:bank","lat":-23.2939702,"lng":-50.0747569},{"id":"2581309181","tags":"amenity:school","lat":-23.2940769,"lng":-50.0766253},{"id":"2581309182","tags":"amenity:school","lat":-23.2904395,"lng":-50.0782224},{"id":"5250489361","name":"Salto do Jacaré","tags":"tourism:attraction,waterway:waterfall","lat":-23.2942821,"lng":-49.9328598},{"id":"5256026756","name":"Escola Agroceres","tags":"amenity:school","lat":-23.2426448,"lng":-50.0070839},{"id":"5306320528","name":"Polícia Rodoviária Federal","tags":"amenity:police,opening_hours:24/7,operator:Polícia Rodoviária Federal,operator:wikidata:Q1158853,operator:wikipedia:pt:Polícia Rodoviária Federal,phone:+55 41 3535 2175,police:traffic_police,short_name:PRF","lat":-23.2843506,"lng":-50.0568764},{"id":"6178328987","name":"Mini Mercado Prado","tags":"shop:supermarket","lat":-23.3042044,"lng":-50.0578308},{"id":"8791985627","name":"ampm","tags":"brand:ampm,brand:wikidata:Q306960,brand:wikipedia:en:Ampm,shop:convenience","lat":-23.2924053,"lng":-50.0711997},{"id":"8910197665","name":"Correios","tags":"amenity:post_office,brand:Correios,brand:wikidata:Q3375004,brand:wikipedia:en:Correios","lat":-23.2963663,"lng":-50.0793509}]