[{"id":"321448936","name":"Hospital Municipal Santa Alice","tags":"addr:city:Santa Mariana,addr:housenumber:550,addr:postcode:86350-000,addr:street:Rua Manoel da Silva Machado,amenity:hospital","lat":-23.1476022,"lng":-50.5176971},{"id":"321453038","name":"praça da Matriz","tags":"tourism:attraction","lat":-23.1466355,"lng":-50.5197669},{"id":"321492344","name":"monumento à Bíblia","tags":"tourism:attraction","lat":-23.1453089,"lng":-50.5222675},{"id":"321513761","name":"Itapoã Clube de Campo","tags":"tourism:attraction","lat":-23.1438646,"lng":-50.5207397},{"id":"1042081522","name":"Bandeirantes","tags":"aeroway:aerodrome,wikidata:Q9585693","lat":-23.0749327,"lng":-50.4206297},{"id":"1042083461","name":"Guaiacuruzinho","tags":"aeroway:aerodrome","lat":-23.0312462,"lng":-50.4940695},{"id":"2643992877","name":"Birutas Bar","tags":"amenity:bar","lat":-23.0945776,"lng":-50.3725019},{"id":"2643994177","name":"Restaurante da Val","tags":"amenity:restaurant","lat":-23.0945412,"lng":-50.3720731},{"id":"5870048853","name":"Praça Brasil","tags":"leisure:park","lat":-23.0383239,"lng":-50.571947},{"id":"5907296111","name":"Policia Rodoviária Federal","tags":"addr:city:Cornélio Procópio,addr:postcode:86300-000,addr:street:Rodovia Melo Peixoto,amenity:police","lat":-23.1600745,"lng":-50.6083718}]