[{"id":"745608349","name":"Restaurante do Lago","tags":"amenity:restaurant,cuisine:regional","lat":-22.6048084,"lng":-47.861492},{"id":"1975694014","tags":"tourism:attraction,waterway:waterfall","lat":-22.550275,"lng":-47.9258801},{"id":"1985069216","name":"Enfermaria","tags":"amenity:pharmacy","lat":-22.5508191,"lng":-47.9236842},{"id":"1985069221","name":"Piano's Bar e Drink's Bar","tags":"amenity:bar","lat":-22.5508488,"lng":-47.9235803},{"id":"1985069225","name":"Salão Tropical","tags":"amenity:restaurant,internet_access:no","lat":-22.551018,"lng":-47.9231629},{"id":"1985069526","tags":"leisure:sports_centre,location:underground,sport:gymnastics","lat":-22.5509029,"lng":-47.9230218},{"id":"2111179097","name":"Drogaria Estância","tags":"amenity:pharmacy","lat":-22.5993914,"lng":-47.8760304},{"id":"2111179098","name":"E.M.E.F Maria Luiza Fornasier Franzin","tags":"amenity:school","lat":-22.6036255,"lng":-47.8773485},{"id":"2111179480","name":"Banco do Brasil","tags":"amenity:bank,atm:yes,brand:Banco do Brasil,operator:Banco do Brasil S/A","lat":-22.5987344,"lng":-47.8772083},{"id":"2658846207","name":"Cristo Redentor","tags":"historic:monument,tourism:attraction","lat":-22.5188142,"lng":-47.9262279},{"id":"4812387588","tags":"amenity:bus_station","lat":-22.6006048,"lng":-47.8742719},{"id":"4812387589","tags":"amenity:bus_station","lat":-22.6006279,"lng":-47.8743111},{"id":"4812387590","tags":"amenity:bus_station","lat":-22.6006524,"lng":-47.8743534},{"id":"4812387591","tags":"amenity:bus_station","lat":-22.6006751,"lng":-47.8743972},{"id":"6253681728","tags":"addr:city:Águas de São Pedro,addr:housenumber:360,addr:postcode:13525-970,addr:street:Rua Vereador Luiz Antonio de Mitry Neto,addr:suburb:Centro,amenity:post_office,phone:+55 19 3482-1983","lat":-22.6005736,"lng":-47.8755353},{"id":"7787476485","name":"Rodoviária de São Pedro","tags":"addr:city:São Pedro,addr:state:SP,amenity:bus_station,public_transport:station","lat":-22.5531422,"lng":-47.9108116},{"id":"8744017844","name":"Dona Rosa Emporium","tags":"addr:city:São Pedro,addr:housenumber:746,addr:postcode:13520-000,addr:street:Rua Joaquim Teixeira de Toledo,addr:suburb:centro,amenity:cafe,cuisine:coffee_shop,opening_hours:Mo-Su 08:00-20:00","lat":-22.5504718,"lng":-47.9149835},{"id":"9364415208","name":"Banco do Brasil","tags":"amenity:bank","lat":-22.5519106,"lng":-47.9083717},{"id":"9364435548","name":"Chopão","tags":"amenity:restaurant","lat":-22.5101006,"lng":-47.9242801},{"id":"9364438330","name":"Venda do Brito","tags":"amenity:restaurant","lat":-22.5013326,"lng":-47.9212583},{"id":"9364462023","name":"Scoton","tags":"shop:supermarket","lat":-22.5520488,"lng":-47.9072482},{"id":"9364462833","name":"Santo Antonio","tags":"amenity:restaurant","lat":-22.5001227,"lng":-47.9232775},{"id":"9364463850","name":"Santander","tags":"amenity:bank","lat":-22.5491926,"lng":-47.9151637},{"id":"9967918620","name":"Centro Universitário SENAC - Águas de São Pedro","tags":"amenity:university","lat":-22.5974356,"lng":-47.8835625}]