[{"id":"460149340","name":"Poupa Farma","tags":"addr:city:Santos,addr:street:Praça da Independência,addr:suburb:Gonzaga,amenity:pharmacy,healthcare:pharmacy,opening_hours:open","lat":-23.9675923,"lng":-46.3332133},{"id":"938415845","name":"Sta. Margarida","tags":"amenity:pharmacy,healthcare:pharmacy","lat":-23.9619689,"lng":-46.4058673},{"id":"938415860","name":"Talismã II","tags":"shop:supermarket","lat":-23.9663171,"lng":-46.4056795},{"id":"940491954","name":"Padaria Kalunga","tags":"shop:convenience","lat":-23.962049,"lng":-46.4053637},{"id":"1042138747","name":"Capital Disco","tags":"addr:city:Santos,addr:housenumber:206,addr:street:Avenida General Francisco Glicério,addr:suburb:Campo Grande,amenity:nightclub,email:capitaldisco@capitaldisco.com.br,phone:+55 13 3228-7507,website:http://capitaldisco.com.br/","lat":-23.9590246,"lng":-46.3349771},{"id":"1416789376","name":"Carrefour","tags":"brand:Carrefour,brand:wikidata:Q217599,brand:wikipedia:fr:Carrefour (enseigne),shop:supermarket","lat":-23.9782159,"lng":-46.3082184},{"id":"1653767606","name":"Restaurante - Residencial Marina Guarujá","tags":"amenity:restaurant,cuisine:seafood","lat":-23.9238401,"lng":-46.2131105},{"id":"1739975777","name":"Fish Maria","tags":"amenity:restaurant,cuisine:japanese","lat":-23.9568308,"lng":-46.3379409},{"id":"1815365942","tags":"amenity:ferry_terminal,ferry:yes,public_transport:station","lat":-23.9983472,"lng":-46.3136616},{"id":"1995798114","name":"Segunda CIA de São Vicente","tags":"amenity:police","lat":-23.9507732,"lng":-46.4061211},{"id":"1995798115","name":"PS Cidade Náutica","tags":"amenity:hospital","lat":-23.9503766,"lng":-46.4061667},{"id":"1996012854","name":"Supermercado Talismã","tags":"shop:supermarket","lat":-23.9672498,"lng":-46.4035323},{"id":"1996055155","name":"Banco do Brasil","tags":"amenity:bank,brand:Banco do Brasil,brand:wikidata:Q610817,brand:wikipedia:en:Banco do Brasil,wheelchair:yes","lat":-23.9672689,"lng":-46.3827537},{"id":"1996055159","name":"Banco do Brasil","tags":"amenity:bank,atm:yes,brand:Banco do Brasil,brand:wikidata:Q610817,brand:wikipedia:en:Banco do Brasil","lat":-23.9670586,"lng":-46.3840755},{"id":"1999231444","name":"Memorial","tags":"alt_name:Cemitério Memorial,amenity:grave_yard","lat":-23.9672398,"lng":-46.3953333},{"id":"2000795044","name":"Primeiro DP de São Vicente","tags":"amenity:police","lat":-23.9644378,"lng":-46.3858341},{"id":"2013137841","name":"Ilha Porchat","tags":"tourism:attraction,wikidata:Q9009663,wikipedia:pt:Ilha Porchat","lat":-23.9797539,"lng":-46.3702485},{"id":"2060840335","name":"Praiamar Shopping","tags":"amenity:restaurant","lat":-23.9768124,"lng":-46.3100637},{"id":"2061038414","name":"Supermercado Central","tags":"shop:supermarket","lat":-23.9740135,"lng":-46.3021061},{"id":"2061038427","name":"Policlínica de Aparecida","tags":"amenity:hospital,emergency:no,healthcare:hospital","lat":-23.9755429,"lng":-46.3101844},{"id":"2061043334","name":"Bar do Toninho 1","tags":"amenity:bar","lat":-23.974644,"lng":-46.3163455},{"id":"2061051460","name":"Terminal de Passageiros","tags":"amenity:ferry_terminal,ferry:yes,public_transport:station","lat":-23.9521891,"lng":-46.3107448},{"id":"2061335869","name":"Pão de Açúcar","tags":"brand:Pão de Açúcar,brand:wikidata:Q3411543,brand:wikipedia:pt:Pão de Açúcar (supermercado brasileiro),shop:supermarket","lat":-23.9812974,"lng":-46.3084676},{"id":"2061368222","name":"Clube Estrela de Ouro","tags":"leisure:sports_centre","lat":-23.9880304,"lng":-46.2964312},{"id":"2061368228","tags":"amenity:bus_station","lat":-23.9868431,"lng":-46.2957873},{"id":"2061368235","name":"Restaurante Estrela de Ouro","tags":"addr:city:Santos,addr:housenumber:372,addr:street:Avenida Rei Alberto I,addr:suburb:Ponta da Praia,amenity:restaurant,cuisine:japanese,phone:+55 13 3261-2179,wheelchair:yes","lat":-23.9876567,"lng":-46.2969233},{"id":"2061371618","name":"Maurício","tags":"amenity:restaurant","lat":-23.9892354,"lng":-46.2995095},{"id":"2061384033","name":"Unifesp - Universidade Federal de São Paulo","tags":"addr:city:Santos,addr:housenumber:89,addr:postcode:11030-401,addr:street:Avenida Almirante Saldanha da Gama,addr:suburb:Ponta da Praia,amenity:school,phone:+55 13 3229-0100","lat":-23.9903597,"lng":-46.3008931},{"id":"2061384041","name":"Gotissô","tags":"addr:city:Santos,addr:housenumber:159,addr:street:Avenida Almirante Saldanha da Gama,addr:suburb:Ponta da Praia,amenity:restaurant,cuisine:japanese,phone:+55 13 3261-1188","lat":-23.9882645,"lng":-46.2968322},{"id":"2061384064","tags":"amenity:restaurant,cuisine:japanese","lat":-23.9747784,"lng":-46.3039081},{"id":"2061384082","name":"Pizzaria Bella Roma","tags":"amenity:restaurant,cuisine:pizza","lat":-23.9752002,"lng":-46.3028615},{"id":"2061448974","tags":"amenity:bus_station","lat":-23.979979,"lng":-46.295846},{"id":"2061507070","name":"PetCenter Marginal","tags":"shop:supermarket","lat":-23.9581906,"lng":-46.3181882},{"id":"2061529847","name":"Drogaria São Paulo","tags":"addr:city:Santos,addr:housenumber:860,addr:postcode:11045-002,addr:street:Avenida Conselheiro Nébias,addr:suburb:Boqueirão,amenity:pharmacy,brand:Drogaria São Paulo,brand:wikidata:Q5308184,brand:wikipedia:en:Grupo DPSP,healthcare:pharmacy,phone:+55 13 3284-0420","lat":-23.9721757,"lng":-46.3244533},{"id":"2061529859","name":"Pinacoteca Benedito Calixto","tags":"tourism:museum,wikidata:Q10349779","lat":-23.973244,"lng":-46.3222107},{"id":"2061529861","name":"Pão de Açúcar","tags":"addr:city:Santos,addr:housenumber:45,addr:street:Avenida Bartholomeu de Gusmão,addr:suburb:Embaré,brand:Pão de Açúcar,brand:wikidata:Q3411543,brand:wikipedia:pt:Pão de Açúcar (supermercado brasileiro),phone:+55 13 3231-3021,shop:supermarket","lat":-23.9754718,"lng":-46.3186036},{"id":"2061594769","name":"Casa de Saúde de Santos","tags":"amenity:hospital,emergency:yes,healthcare:hospital","lat":-23.9622986,"lng":-46.3234714},{"id":"2061594770","name":"Hospital Ana Costa","tags":"amenity:hospital,emergency:yes,healthcare:hospital","lat":-23.9574214,"lng":-46.3335508},{"id":"2061621092","tags":"amenity:post_office","lat":-23.9593235,"lng":-46.3231975},{"id":"2061621101","name":"Correios","tags":"addr:city:Santos,addr:housenumber:2721,addr:street:Avenida Doutor Pedro Lessa,addr:suburb:Embaré,amenity:post_office,brand:Correios,brand:wikidata:Q3375004,brand:wikipedia:en:Correios,operator:Correios,operator:wikidata:Q3375004,operator:wikipedia:en:Correios","lat":-23.9662816,"lng":-46.3162298},{"id":"2061621103","name":"Agência Pedro Lessa","tags":"amenity:post_office,operator:Correios,operator:wikidata:Q3375004,operator:wikipedia:en:Correios","lat":-23.9727628,"lng":-46.3069536},{"id":"2061621112","name":"Unilus","tags":"amenity:school,wikidata:Q30294092","lat":-23.9632596,"lng":-46.3252899},{"id":"2061634133","name":"Estilo do Corpo","tags":"leisure:sports_centre,sport:gymnastics","lat":-23.9697736,"lng":-46.3035863},{"id":"2061634141","name":"Rialfy","tags":"addr:city:Santos,addr:housenumber:197,addr:street:Rua Januário dos Santos,addr:suburb:Aparecida,phone:+55 13 3238-6247,shop:convenience","lat":-23.9820884,"lng":-46.3099917},{"id":"2061634146","tags":"amenity:restaurant","lat":-23.9802527,"lng":-46.304244},{"id":"2061634180","tags":"amenity:restaurant,cuisine:pizza","lat":-23.9685976,"lng":-46.3053083},{"id":"2061754105","tags":"amenity:school","lat":-23.9716994,"lng":-46.307199},{"id":"2062357732","tags":"amenity:car_wash","lat":-23.9728521,"lng":-46.3077543},{"id":"2062357739","name":"Galeria","tags":"addr:city:Santos,addr:housenumber:681,addr:street:Rua Prefeito Antenor Bué,addr:suburb:Aparecida,shop:convenience","lat":-23.9721738,"lng":-46.3082658},{"id":"2062357759","name":"Forno de Ouro","tags":"amenity:restaurant","lat":-23.9715192,"lng":-46.30881},{"id":"2062380070","name":"Drogasil","tags":"addr:city:Santos,addr:housenumber:387,addr:postcode:11045-301,addr:street:Avenida Doutor Epitácio Pessoa,addr:suburb:Aparecida,amenity:pharmacy,brand:Drogasil,brand:wikidata:Q5308185,brand:wikipedia:pt:Drogasil,healthcare:pharmacy,phone:+55 13 3227-2971,wheelchair:yes","lat":-23.9774782,"lng":-46.3121095},{"id":"2062380072","name":"Poupafarma","tags":"addr:city:Santos,addr:housenumber:372,addr:postcode:11030-600,addr:street:Avenida Doutor Epitácio Pessoa,addr:suburb:Aparecida,amenity:pharmacy,healthcare:pharmacy,phone:+55 13 3227-3998","lat":-23.9779123,"lng":-46.311892},{"id":"2062380079","name":"Restaurante Giani","tags":"amenity:restaurant","lat":-23.9746265,"lng":-46.3093475},{"id":"2062380083","tags":"shop:convenience","lat":-23.9774488,"lng":-46.3118101},{"id":"2062380085","name":"Sunset","tags":"addr:city:Santos,addr:housenumber:389,addr:street:Avenida Doutor Epitácio Pessoa,addr:suburb:Aparecida,amenity:restaurant,phone:+55 13 3349-9001","lat":-23.9775247,"lng":-46.3120375},{"id":"2062380095","name":"Rosa Gálica","tags":"addr:city:Santos,addr:housenumber:385,addr:street:Avenida Doutor Epitácio Pessoa,addr:suburb:Aparecida,amenity:pharmacy,healthcare:pharmacy,phone:+55 13 3271-1177","lat":-23.9774332,"lng":-46.312181},{"id":"2062380102","name":"Supermercado Varandas","tags":"shop:supermarket","lat":-23.9750466,"lng":-46.3096782},{"id":"2062380106","name":"Colégio Jean Piaget","tags":"amenity:school","lat":-23.9740724,"lng":-46.3118366},{"id":"2062423071","name":"Banco do Brasil","tags":"addr:city:Santos,addr:housenumber:484,addr:postcode:11060-002,addr:street:Avenida Anna Costa,addr:suburb:Gonzaga,amenity:bank,atm:yes,brand:Banco do Brasil,brand:wikidata:Q610817,brand:wikipedia:en:Banco do Brasil,drive_through:no,opening_hours:10:00-16:00,operator:Banco do Brasil","lat":-23.9657156,"lng":-46.3328744},{"id":"2062423072","tags":"amenity:atm","lat":-23.9664416,"lng":-46.3346447},{"id":"2062423073","name":"Caixa Econômica Federal","tags":"addr:city:Santos,addr:housenumber:47,addr:street:Avenida Presidente Wilson,amenity:bank,atm:yes,brand:Caixa Econômica Federal,brand:wikidata:Q835283,brand:wikipedia:pt:Caixa Econômica Federal,opening_hours:Mo-Fr 09:00-16:00 open","lat":-23.9690101,"lng":-46.3344516},{"id":"2062423983","name":"Caixa Econômica Federal","tags":"amenity:bank,atm:yes,brand:Caixa Econômica Federal,brand:wikidata:Q835283,brand:wikipedia:pt:Caixa Econômica Federal","lat":-23.976979,"lng":-46.3106721},{"id":"2062423985","name":"Estacionamento Praiamar Shopping","tags":"amenity:parking,parking:surface","lat":-23.9765572,"lng":-46.3103186},{"id":"2062423990","tags":"amenity:atm","lat":-23.976842,"lng":-46.309868},{"id":"2062424178","name":"Carrefour","tags":"amenity:parking,layer:-1,operator:Carrefour,parking:underground","lat":-23.9783813,"lng":-46.3080815},{"id":"2062425353","tags":"amenity:restaurant,cuisine:ice_cream","lat":-23.972287,"lng":-46.3239952},{"id":"2062425356","tags":"amenity:restaurant","lat":-23.9720492,"lng":-46.3239791},{"id":"2062518527","name":"Colégio Afonso Pena","tags":"addr:city:Santos,addr:housenumber:630,addr:postcode:11025-032,addr:street:Rua da Liberdade,addr:suburb:Aparecida,amenity:school","lat":-23.9723175,"lng":-46.302582},{"id":"2062518533","name":"Petshop","tags":"shop:convenience","lat":-23.972764,"lng":-46.3024326},{"id":"2062518720","name":"Bradesco","tags":"amenity:bank,atm:yes,brand:Bradesco,brand:wikidata:Q806181,brand:wikipedia:en:Banco Bradesco,operator:Bradesco,website:https://banco.bradesco/","lat":-23.976494,"lng":-46.3015126},{"id":"2062518721","name":"Petshop","tags":"shop:convenience","lat":-23.9764204,"lng":-46.301011},{"id":"2062518722","name":"Bar & Laches Janga","tags":"addr:city:Santos,addr:housenumber:395,addr:street:Avenida Joaquim Montenegro,addr:suburb:Aparecida,amenity:restaurant,cuisine:regional,shop:clothes","lat":-23.9768198,"lng":-46.3003512},{"id":"2062518723","tags":"amenity:restaurant,cuisine:ice_cream","lat":-23.9763517,"lng":-46.3011129},{"id":"2062518724","tags":"amenity:pharmacy,healthcare:pharmacy","lat":-23.9767953,"lng":-46.3009252},{"id":"2062518726","name":"Extra","tags":"brand:Extra,brand:wikidata:Q5422131,brand:wikipedia:pt:Extra (rede varejista),operator:Grupo Pão de Açucar,shop:supermarket","lat":-23.9793699,"lng":-46.3007818},{"id":"2062519048","name":"Edinho","tags":"amenity:car_wash","lat":-23.9699554,"lng":-46.3039266},{"id":"2062519051","name":"Estilo do Corpo","tags":"amenity:parking,parking:surface","lat":-23.9698255,"lng":-46.304286},{"id":"2062521550","tags":"amenity:pharmacy,healthcare:pharmacy","lat":-23.9713008,"lng":-46.3085798},{"id":"2062521552","tags":"amenity:car_wash","lat":-23.972149,"lng":-46.30781},{"id":"2062521553","tags":"amenity:restaurant,cuisine:pizza","lat":-23.9692078,"lng":-46.3064448},{"id":"2062521554","name":"Drogasil","tags":"amenity:pharmacy,brand:Drogasil,brand:wikidata:Q5308185,brand:wikipedia:pt:Drogasil,healthcare:pharmacy,wheelchair:yes","lat":-23.9684897,"lng":-46.3064019},{"id":"2062521557","tags":"amenity:restaurant","lat":-23.9714132,"lng":-46.3084245},{"id":"2062521558","tags":"leisure:sports_centre,sport:gymnastics","lat":-23.9737248,"lng":-46.3084269},{"id":"2062521921","name":"Caixa Econômica Federal","tags":"amenity:bank,atm:yes,brand:Caixa Econômica Federal,brand:wikidata:Q835283,brand:wikipedia:pt:Caixa Econômica Federal","lat":-23.9733424,"lng":-46.306021},{"id":"2062521922","tags":"amenity:restaurant","lat":-23.9724112,"lng":-46.3069946},{"id":"2062521923","name":"HSBC","tags":"amenity:atm,brand:HSBC,brand:wikidata:Q190464,brand:wikipedia:en:HSBC,operator:HSBC,operator:wikidata:Q190464,operator:wikipedia:en:HSBC","lat":-23.9722983,"lng":-46.3071019},{"id":"2062521924","tags":"shop:convenience","lat":-23.9721763,"lng":-46.3067074},{"id":"2062521926","tags":"amenity:restaurant,cuisine:pizza","lat":-23.9720487,"lng":-46.3065842},{"id":"2062522722","name":"Dia","tags":"brand:Dia,brand:wikidata:Q925132,brand:wikipedia:es:Supermercados DIA,shop:supermarket,website:https://www.dia.com.br/","lat":-23.9739172,"lng":-46.3047167},{"id":"2062522726","tags":"description:Produtos de Limpeza,shop:convenience","lat":-23.9732538,"lng":-46.3056927},{"id":"2062522729","tags":"shop:convenience","lat":-23.9734258,"lng":-46.3058949},{"id":"2062522731","tags":"amenity:pharmacy,healthcare:pharmacy","lat":-23.9735582,"lng":-46.3052431},{"id":"2062527788","name":"Kokimbos Pizzas & Picanha","tags":"amenity:restaurant","lat":-23.9868651,"lng":-46.3035228},{"id":"2062527793","tags":"shop:pet","lat":-23.9786995,"lng":-46.3003431},{"id":"2062527797","name":"La Tratoria Trianon","tags":"amenity:restaurant","lat":-23.9879199,"lng":-46.3015025},{"id":"2062530328","name":"Memorial das Conquistas","tags":"addr:city:Santos,addr:housenumber:s/n,addr:postcode:11075-501,addr:street:Rua Princesa Isabel,addr:suburb:Vila Belmiro,operator:Santos Futebol Clube,start_date:2003-11-17,tourism:museum,website:http://www.memorialdasconquistas.com.br/,wikidata:Q30939734,wikipedia:pt:Memorial das Conquistas (Santos Futebol Clube)","lat":-23.950766,"lng":-46.339475},{"id":"2062560694","tags":"amenity:pharmacy,healthcare:pharmacy","lat":-23.9834733,"lng":-46.3072708},{"id":"2062560697","name":"Extra","tags":"brand:Extra,brand:wikidata:Q5422131,brand:wikipedia:pt:Extra (rede varejista),shop:supermarket,website:https://www.extra.com.br/","lat":-23.9840033,"lng":-46.3079719},{"id":"2067231425","name":"Itaú","tags":"amenity:bank,atm:yes,brand:Itaú Unibanco,brand:wikidata:Q1424293,brand:wikipedia:pt:Itaú Unibanco,wheelchair:yes","lat":-23.974938,"lng":-46.3036503},{"id":"2067231426","tags":"amenity:restaurant","lat":-23.9740286,"lng":-46.3050232},{"id":"2067231427","name":"Farma Conde","tags":"amenity:pharmacy,brand:Farma Conde,brand:wikidata:Q100492677,healthcare:pharmacy","lat":-23.9750432,"lng":-46.3035055},{"id":"2067231428","tags":"shop:convenience","lat":-23.974389,"lng":-46.3040902},{"id":"2067255460","tags":"leisure:sports_centre,sport:gymnastics","lat":-23.9746854,"lng":-46.3040422},{"id":"2067255466","name":"Santa Felicidade Restaurante & Chopperia","tags":"amenity:restaurant,cuisine:regional","lat":-23.9824551,"lng":-46.3103815},{"id":"2067255499","tags":"amenity:bar","lat":-23.9804782,"lng":-46.3121919},{"id":"2067255507","name":"Bradesco","tags":"amenity:bank,atm:yes,brand:Bradesco,brand:wikidata:Q806181,brand:wikipedia:en:Banco Bradesco,website:https://banco.bradesco/","lat":-23.9719159,"lng":-46.3076304},{"id":"2067255513","tags":"amenity:bar","lat":-23.9788025,"lng":-46.3109883},{"id":"2067255521","tags":"amenity:bar","lat":-23.9789201,"lng":-46.3110688},{"id":"2067255536","name":"Baraçai - Sushi","tags":"amenity:restaurant,cuisine:japanese","lat":-23.9822241,"lng":-46.3101571},{"id":"2067255560","tags":"leisure:sports_centre,sport:gymnastics","lat":-23.9746317,"lng":-46.3041387},{"id":"2067255563","tags":"leisure:sports_centre,sport:gymnastics","lat":-23.9697151,"lng":-46.3114979},{"id":"2067281361","tags":"amenity:cafe,cuisine:ice_cream","lat":-23.9876882,"lng":-46.3077053},{"id":"2067281399","tags":"amenity:restaurant,cuisine:regional","lat":-23.9858902,"lng":-46.3078052},{"id":"2067281427","name":"Restaurante Estuário","tags":"amenity:restaurant,cuisine:regional","lat":-23.9878306,"lng":-46.3077106},{"id":"2067285758","name":"Pronto Socorro Guilherme Álvaro","tags":"amenity:hospital,emergency:yes,healthcare:hospital","lat":-23.9632301,"lng":-46.3195124},{"id":"2067292709","name":"Bar do Jorge 2","tags":"addr:city:Santos,addr:housenumber:475,addr:postcode:11045-201,addr:street:Avenida Siqueira Campos,addr:suburb:Embaré,amenity:bar,phone:+55 13 3227-2673","lat":-23.9651673,"lng":-46.319173},{"id":"2067292711","name":"Kawabanga Snack & Bar","tags":"amenity:bar","lat":-23.9637513,"lng":-46.3190991},{"id":"2067292714","name":"A Rainha - Pizza & Grill","tags":"amenity:restaurant,cuisine:seafood","lat":-23.9649825,"lng":-46.319055},{"id":"2067292716","name":"Supermercado Bolshoi Embaré","tags":"addr:city:Santos,addr:housenumber:22,addr:postcode:11040-220,addr:street:Rua Frei Francisco Sampaio,addr:suburb:Embaré,phone:+55 13 3307-6951,shop:supermarket","lat":-23.9655914,"lng":-46.3188378},{"id":"2067315374","name":"Escola Municipal Olívia Fernandes","tags":"addr:city:Santos,addr:street:Praça Coronel Fernando Prestes,addr:suburb:Embaré,amenity:school","lat":-23.9645757,"lng":-46.3115985},{"id":"2069209881","name":"Aquarium Beer Choperia","tags":"addr:city:Santos,addr:housenumber:36,addr:street:Rua São José,addr:suburb:Embaré,amenity:bar","lat":-23.9658045,"lng":-46.316003},{"id":"2069209883","tags":"amenity:cafe","lat":-23.9702342,"lng":-46.310238},{"id":"2069209884","tags":"amenity:restaurant","lat":-23.9673233,"lng":-46.3142237},{"id":"2069209886","tags":"shop:convenience","lat":-23.9707001,"lng":-46.3094655},{"id":"2069209887","tags":"amenity:bar","lat":-23.9653282,"lng":-46.317109},{"id":"2069209888","name":"D' Boa","tags":"amenity:restaurant,cuisine:mexican","lat":-23.9683772,"lng":-46.3129631},{"id":"2069209889","name":"Itaú","tags":"amenity:bank,brand:Itaú Unibanco,brand:wikidata:Q1424293,brand:wikipedia:pt:Itaú Unibanco","lat":-23.9706117,"lng":-46.3101682},{"id":"2069209890","name":"Poupafarma","tags":"addr:street:Avenida Doutor Pedro Lessa,amenity:pharmacy,healthcare:pharmacy","lat":-23.9659701,"lng":-46.3165296},{"id":"2069209891","tags":"amenity:bar","lat":-23.967534,"lng":-46.3146682},{"id":"2069209892","tags":"leisure:sports_centre","lat":-23.9649654,"lng":-46.3168461},{"id":"2069209893","name":"Itaú","tags":"amenity:bank,brand:Itaú Unibanco,brand:wikidata:Q1424293,brand:wikipedia:pt:Itaú Unibanco","lat":-23.9700627,"lng":-46.3109514},{"id":"2069209895","tags":"amenity:restaurant","lat":-23.9700678,"lng":-46.3104472},{"id":"2069209896","tags":"amenity:restaurant,cuisine:pizza","lat":-23.9678037,"lng":-46.3142771},{"id":"2069213134","tags":"amenity:bar","lat":-23.9689703,"lng":-46.3119975},{"id":"2069223821","tags":"amenity:bar","lat":-23.9655537,"lng":-46.3097069},{"id":"2069249423","name":"Unilus","tags":"amenity:school","lat":-23.9583819,"lng":-46.3169588},{"id":"2069249443","name":"Cadilac Bar","tags":"amenity:nightclub","lat":-23.9327454,"lng":-46.3345487},{"id":"2069259470","name":"UME Colégio Santista","tags":"addr:city:Santos,addr:housenumber:34,addr:street:Rua Sete de Setembro,addr:suburb:Vila Nova,amenity:school","lat":-23.9401761,"lng":-46.323998},{"id":"2069272309","tags":"amenity:atm","lat":-23.9649946,"lng":-46.3212712},{"id":"2069272315","tags":"amenity:bar","lat":-23.9649461,"lng":-46.3211103},{"id":"2069272319","tags":"amenity:cafe","lat":-23.9649755,"lng":-46.3207563},{"id":"2069272320","tags":"amenity:restaurant","lat":-23.9649162,"lng":-46.3209386},{"id":"2091655300","name":"Restaurante Vista ao Mar","tags":"addr:city:Santos,addr:housenumber:68,addr:street:Avenida Bartholomeu de Gusmão,addr:suburb:Embaré,amenity:restaurant,cuisine:seafood","lat":-23.9775437,"lng":-46.3158671},{"id":"2091655318","tags":"shop:supermarket","lat":-23.9812384,"lng":-46.3011721},{"id":"2091670071","name":"Gaveta Sul","tags":"amenity:ferry_terminal,ferry:yes,old_operator:Dersa,operator:Departamento Hidroviário,public_transport:station","lat":-23.9869175,"lng":-46.2937932},{"id":"2091670089","name":"Embarque Velho de Santos","tags":"amenity:ferry_terminal,ferry:yes,old_operator:Dersa,operator:Departamento Hidroviário,public_transport:station","lat":-23.9876728,"lng":-46.2942726},{"id":"2091670106","tags":"amenity:ferry_terminal,ferry:yes,old_operator:Dersa,operator:Departamento Hidroviário,public_transport:station","lat":-23.9867203,"lng":-46.2936284},{"id":"2401960406","name":"Banco do Brasil","tags":"amenity:bank,atm:no,brand:Banco do Brasil,brand:wikidata:Q610817,brand:wikipedia:en:Banco do Brasil,website:https://www.bb.com.br/","lat":-23.9873724,"lng":-46.2954073},{"id":"2426208267","name":"Itaú","tags":"amenity:bank,brand:Itaú Unibanco,brand:wikidata:Q1424293,brand:wikipedia:pt:Itaú Unibanco","lat":-23.9896765,"lng":-46.2997407},{"id":"2429299903","name":"Drogaria São Paulo","tags":"amenity:pharmacy,brand:Drogaria São Paulo,brand:wikidata:Q5308184,brand:wikipedia:en:Grupo DPSP,healthcare:pharmacy","lat":-23.9885741,"lng":-46.3005306},{"id":"2430655862","tags":"amenity:ferry_terminal,ferry:yes,public_transport:station","lat":-23.9742359,"lng":-46.293322},{"id":"2432374965","name":"Barao do Café","tags":"amenity:bar","lat":-23.968344,"lng":-46.332782},{"id":"2432375019","name":"Casa de vitaminas","tags":"amenity:cafe","lat":-23.9682066,"lng":-46.3327779},{"id":"2453383614","tags":"amenity:atm","lat":-23.9262974,"lng":-46.3844116},{"id":"2453489447","tags":"amenity:parking","lat":-23.9678364,"lng":-46.3341376},{"id":"2453489449","tags":"amenity:parking","lat":-23.9680839,"lng":-46.3342181},{"id":"2453489480","tags":"amenity:parking","lat":-23.9677751,"lng":-46.3341081},{"id":"2588212726","name":"Itaú","tags":"amenity:bank,atm:no,brand:Itaú Unibanco,brand:wikidata:Q1424293,brand:wikipedia:pt:Itaú Unibanco","lat":-23.9437887,"lng":-46.3253672},{"id":"2588259701","name":"LPark","tags":"amenity:parking,parking:surface","lat":-23.9442776,"lng":-46.3293791},{"id":"2595752505","name":"Caixa Econômica Federal","tags":"amenity:bank,atm:yes,brand:Caixa Econômica Federal,brand:wikidata:Q835283,brand:wikipedia:pt:Caixa Econômica Federal","lat":-23.9961334,"lng":-46.2590496},{"id":"2595752510","name":"Joia","tags":"shop:supermarket","lat":-23.9958493,"lng":-46.2603791},{"id":"2595752515","name":"Carrefour Hiper","tags":"addr:street:Avenida Dom Pedro I,air_conditioning:yes,brand:Carrefour Market,brand:wikidata:Q2689639,brand:wikipedia:fr:Carrefour Market,internet_access:wlan,shop:supermarket,website:https://www.carrefour.com.br/,wheelchair:yes","lat":-23.9807544,"lng":-46.2317302},{"id":"2614129182","name":"Banco do Brasil","tags":"amenity:bank,brand:Banco do Brasil,brand:wikidata:Q610817,brand:wikipedia:en:Banco do Brasil,website:https://www.bb.com.br/","lat":-23.9706675,"lng":-46.3236613},{"id":"2813379302","name":"Hospital Ana Costa","tags":"addr:street:Avenida Dom Pedro I,amenity:hospital,healthcare:hospital,website:http://www.anacostasaude.com.br/","lat":-23.9877104,"lng":-46.2480096},{"id":"2813379303","name":"Pão de Açúcar","tags":"addr:street:Avenida Emílio Carlos,brand:Pão de Açúcar,brand:wikidata:Q3411543,brand:wikipedia:pt:Pão de Açúcar (supermercado brasileiro),shop:supermarket,website:https://www.paodeacucar.com/","lat":-23.9883868,"lng":-46.248546},{"id":"2813379304","name":"Hospital Santo Amaro","tags":"addr:city:Guarujá,addr:housenumber:40,addr:postcode:11410-140,addr:street:Rua Quinto Bertoldi,addr:suburb:Vila Maia,amenity:hospital,emergency:yes,healthcare:hospital,operator:type:public","lat":-23.9904062,"lng":-46.253518},{"id":"2813399132","tags":"amenity:car_wash","lat":-23.982942,"lng":-46.2357007},{"id":"2813399135","tags":"amenity:bar","lat":-23.9810628,"lng":-46.2362316},{"id":"2813399140","name":"Drogaria São Paulo","tags":"amenity:pharmacy,brand:Drogaria São Paulo,brand:wikidata:Q5308184,brand:wikipedia:en:Grupo DPSP,dispensing:yes,drive_through:no,healthcare:pharmacy","lat":-23.9836011,"lng":-46.2361334},{"id":"2813399144","name":"Itaú","tags":"addr:street:Avenida Dom Pedro I,addr:suburb:Enseada,air_conditioning:yes,amenity:bank,atm:yes,brand:Itaú Unibanco,brand:wikidata:Q1424293,brand:wikipedia:pt:Itaú Unibanco,drive_through:no,opening_hours:covid19:open,parking:yes,wheelchair:yes","lat":-23.9837294,"lng":-46.2369058},{"id":"2813399146","name":"Bradesco","tags":"amenity:bank,atm:yes,brand:Bradesco,brand:wikidata:Q806181,brand:wikipedia:en:Banco Bradesco","lat":-23.9835346,"lng":-46.2382323},{"id":"2813458676","name":"Bar da Costela","tags":"amenity:restaurant,cuisine:COSTELA,smoking:yes","lat":-23.983583,"lng":-46.2399012},{"id":"2813458684","tags":"amenity:restaurant","lat":-23.9820772,"lng":-46.2323041},{"id":"2813458685","tags":"amenity:bar","lat":-23.9773217,"lng":-46.2227384},{"id":"2813458686","tags":"amenity:bar","lat":-23.9775815,"lng":-46.2226257},{"id":"2813458688","tags":"amenity:bar","lat":-23.9799121,"lng":-46.2262735},{"id":"2813458689","tags":"amenity:restaurant","lat":-23.979909,"lng":-46.2265218},{"id":"2813468468","name":"Shopping","tags":"shop:mall","lat":-23.9900184,"lng":-46.2428845},{"id":"2813489099","tags":"amenity:bar","lat":-23.9897146,"lng":-46.2427369},{"id":"2813489100","tags":"amenity:bar","lat":-23.9895823,"lng":-46.2428094},{"id":"2813489401","tags":"amenity:bar","lat":-23.9894867,"lng":-46.2428389},{"id":"2813489402","tags":"amenity:bar","lat":-23.9892857,"lng":-46.2429167},{"id":"2813489403","tags":"amenity:restaurant","lat":-23.989325,"lng":-46.2428979},{"id":"2813489404","tags":"amenity:restaurant","lat":-23.9898053,"lng":-46.2429649},{"id":"2813489405","tags":"amenity:restaurant","lat":-23.9897097,"lng":-46.2430052},{"id":"2813489406","tags":"amenity:pharmacy,healthcare:pharmacy","lat":-23.9891755,"lng":-46.2431554},{"id":"2813489407","name":"Shopping","tags":"shop:mall","lat":-23.9890529,"lng":-46.2432358},{"id":"2813489408","name":"Escola Municipal Professora Dirce Valério Gracia","tags":"addr:city:Guarujá,addr:housenumber:340,addr:street:Avenida Dom Pedro I,addr:suburb:Jardim Tejereba,air_conditioning:yes,amenity:school,grades:Ensino Fundamental II,operator:Prefeitura de Guarujá,operator:type:public","lat":-23.9889378,"lng":-46.2475945},{"id":"2813489409","tags":"amenity:restaurant","lat":-23.9897832,"lng":-46.2530366},{"id":"2813489410","name":"Poupa Farma","tags":"amenity:pharmacy,healthcare:pharmacy","lat":-23.9898812,"lng":-46.2532888},{"id":"2813489412","tags":"amenity:bar","lat":-23.9908026,"lng":-46.2451697},{"id":"2813489415","tags":"amenity:hospital,healthcare:hospital","lat":-23.9863083,"lng":-46.2483454},{"id":"2813489416","tags":"amenity:hospital,healthcare:hospital","lat":-23.9858672,"lng":-46.2487424},{"id":"2813489418","tags":"leisure:park","lat":-23.9833504,"lng":-46.2459958},{"id":"2813525198","name":"Dona Eva","tags":"amenity:bar","lat":-23.9887834,"lng":-46.2386488},{"id":"2813525705","tags":"shop:pet","lat":-23.9834468,"lng":-46.2361307},{"id":"2813525708","name":"Shopping de Móveis","tags":"shop:mall","lat":-23.983111,"lng":-46.2368174},{"id":"2813528547","tags":"amenity:pharmacy,healthcare:pharmacy","lat":-23.9834517,"lng":-46.2356319},{"id":"2813547098","name":"Pousada","tags":"shop:mall","lat":-23.9900976,"lng":-46.2432091},{"id":"2813547314","tags":"amenity:bar","lat":-23.9891076,"lng":-46.2396605},{"id":"2817015285","name":"UNIDON","tags":"amenity:university,internet_access:wlan,operator:type:private,website:https://unidon.edu.br/","lat":-23.9928525,"lng":-46.2537873},{"id":"2817015286","name":"Associação Desportiva - Vila Souza","tags":"leisure:sports_centre","lat":-23.9922864,"lng":-46.2541051},{"id":"2817016922","tags":"amenity:restaurant","lat":-23.9918477,"lng":-46.2590267},{"id":"2817016923","tags":"amenity:police","lat":-23.9912818,"lng":-46.258849},{"id":"2817016924","tags":"amenity:post_office","lat":-23.9910537,"lng":-46.2590459},{"id":"2817034178","tags":"amenity:restaurant","lat":-23.9908729,"lng":-46.2546465},{"id":"2817039303","name":"Poupa Farma","tags":"amenity:pharmacy,healthcare:pharmacy","lat":-23.9751244,"lng":-46.3155542},{"id":"2817046384","name":"Passarela Pizzaria","tags":"addr:city:Santos,addr:housenumber:153,addr:street:Avenida Doutor Epitácio Pessoa,addr:suburb:Embaré,amenity:restaurant","lat":-23.9733124,"lng":-46.3189115},{"id":"2817048216","name":"Rainha do Embaré","tags":"addr:city:Santos,addr:housenumber:121,addr:street:Avenida Doutor Epitácio Pessoa,addr:suburb:Embaré,amenity:cafe","lat":-23.9726829,"lng":-46.3200155},{"id":"2817048217","name":"Empório Dom José","tags":"amenity:cafe","lat":-23.9711648,"lng":-46.3198283},{"id":"2817050267","name":"Restaurante Canal 4","tags":"amenity:restaurant","lat":-23.9707996,"lng":-46.320286},{"id":"2817050268","name":"Supermercado Bolshoi Gourmet","tags":"shop:supermarket","lat":-23.9693671,"lng":-46.3196447},{"id":"2817054517","tags":"amenity:cafe","lat":-23.964746,"lng":-46.3196346},{"id":"2817054518","name":"Dia","tags":"addr:city:Santos,addr:housenumber:480,addr:street:Avenida Siqueira Campos,addr:suburb:Boqueirão,brand:Dia,brand:wikidata:Q925132,brand:wikipedia:es:Supermercados DIA,shop:supermarket,toilets:wheelchair:no,wheelchair:yes","lat":-23.9652708,"lng":-46.3198756},{"id":"2817054519","tags":"amenity:bar","lat":-23.9644573,"lng":-46.3217152},{"id":"2817057476","name":"Graminha Pizzaria","tags":"amenity:restaurant,cuisine:pizza","lat":-23.9626091,"lng":-46.3185871},{"id":"2817059508","name":"Chancelaria Universidade Santa Cecília","tags":"amenity:university,short_name:UNISANTA,wikidata:Q10387870","lat":-23.9656937,"lng":-46.3219854},{"id":"2817060142","name":"Itaú","tags":"amenity:bank,brand:Itaú Unibanco,brand:wikidata:Q1424293,brand:wikipedia:pt:Itaú Unibanco,operator:Itaú","lat":-23.9581666,"lng":-46.3227445},{"id":"2817060166","tags":"amenity:bar","lat":-23.9609363,"lng":-46.3230133},{"id":"2817060168","tags":"amenity:restaurant","lat":-23.9613812,"lng":-46.3231101},{"id":"2817060169","tags":"amenity:bar","lat":-23.9614186,"lng":-46.3231144},{"id":"2817060782","tags":"amenity:restaurant","lat":-23.9615858,"lng":-46.3217038},{"id":"2817060783","tags":"amenity:restaurant","lat":-23.9616741,"lng":-46.3217172},{"id":"2817061266","name":"Hospital Guilherme Álvaro","tags":"amenity:hospital,healthcare:hospital","lat":-23.9625785,"lng":-46.3212639},{"id":"2902894475","name":"Florença","tags":"addr:city:Santos,addr:housenumber:538,addr:postcode:11040-050,addr:street:Rua Conselheiro Ribas,amenity:restaurant,capacity:50,delivery:yes,smoking:outside,takeaway:yes","lat":-23.9740603,"lng":-46.3154338},{"id":"2903393694","name":"Droga Raia","tags":"addr:city:Santos,addr:street:Avenida Marechal Floriano Peixoto,amenity:pharmacy,brand:Droga Raia,brand:wikidata:Q10357101,brand:wikipedia:pt:RaiaDrogasil,healthcare:pharmacy","lat":-23.9672494,"lng":-46.3336359},{"id":"2903461858","name":"Bradesco","tags":"addr:city:Santos,addr:housenumber:551,addr:street:Avenida Anna Costa,addr:suburb:Gonzaga,amenity:bank,atm:yes,brand:Bradesco,brand:wikidata:Q806181,brand:wikipedia:en:Banco Bradesco,opening_hours:Mo-Fr 10:00-16:00 open","lat":-23.9690313,"lng":-46.3328714},{"id":"2903463762","name":"Drogasil","tags":"addr:city:Santos,addr:postcode:11060-002,addr:street:Avenida Anna Costa,amenity:pharmacy,brand:Drogasil,brand:wikidata:Q5308185,brand:wikipedia:pt:Drogasil,healthcare:pharmacy,wheelchair:yes","lat":-23.9686874,"lng":-46.3332118},{"id":"3024689776","name":"Picolla Forneria","tags":"amenity:restaurant,cuisine:pizza","lat":-23.9683006,"lng":-46.326265},{"id":"3024706289","name":"Okumura Temakeria","tags":"amenity:restaurant,cuisine:japanese","lat":-23.9702985,"lng":-46.3277997},{"id":"3024706403","name":"Kokimbos Pizzas & Picanha","tags":"amenity:restaurant,cuisine:pizza","lat":-23.968232,"lng":-46.3267163},{"id":"3050813623","name":"Hospital Zona Noroeste","tags":"amenity:hospital","lat":-23.9434409,"lng":-46.3774478},{"id":"3050814057","name":"Krill","tags":"shop:supermarket","lat":-23.9423157,"lng":-46.3822114},{"id":"3050814327","name":"Barros","tags":"shop:supermarket","lat":-23.9433085,"lng":-46.3806262},{"id":"3101345683","name":"J. Garcia Restaurante","tags":"amenity:restaurant","lat":-23.9907804,"lng":-46.3014409},{"id":"3101346944","name":"Dia Supermercado","tags":"shop:supermarket","lat":-23.9888342,"lng":-46.2986647},{"id":"3101348929","name":"Oishi Gastronomia","tags":"amenity:restaurant,cuisine:japanese","lat":-23.9893728,"lng":-46.2994947},{"id":"3101351003","name":"Extra","tags":"brand:Extra,brand:wikidata:Q5422131,brand:wikipedia:pt:Extra (rede varejista),shop:supermarket","lat":-23.9829571,"lng":-46.2972329},{"id":"3101356470","name":"Yê Simplesmente Saudável","tags":"amenity:restaurant","lat":-23.9857122,"lng":-46.2999267},{"id":"3101357317","name":"7ª Avenida Forneria","tags":"amenity:restaurant","lat":-23.9852748,"lng":-46.2999563},{"id":"3101359025","name":"Yow Sushi Lounge","tags":"amenity:restaurant,cuisine:japanese","lat":-23.9648984,"lng":-46.329976},{"id":"3101359280","name":"Dusk Lounge & Bar","tags":"amenity:bar","lat":-23.9649084,"lng":-46.3298835},{"id":"3101361229","name":"Restaurante Nagoya","tags":"amenity:restaurant,cuisine:japanese","lat":-23.9684699,"lng":-46.3200272},{"id":"3101361230","name":"Cheers Pub","tags":"amenity:bar","lat":-23.9715194,"lng":-46.3203238},{"id":"3101365190","name":"Boteco Madalena","tags":"amenity:bar","lat":-23.9331777,"lng":-46.3299794},{"id":"3101368418","tags":"amenity:parking","lat":-23.9337313,"lng":-46.3310362},{"id":"3101369273","name":"Bradesco","tags":"amenity:bank,brand:Bradesco,brand:wikidata:Q806181,brand:wikipedia:en:Banco Bradesco,website:https://banco.bradesco/","lat":-23.983456,"lng":-46.3090924},{"id":"3101374880","name":"Moby Dick","tags":"amenity:nightclub","lat":-23.971379,"lng":-46.3268484},{"id":"3101375439","name":"Bar Heinz","tags":"amenity:bar","lat":-23.9697024,"lng":-46.3284274},{"id":"3101377129","name":"Six Sports Bar","tags":"addr:city:Santos,addr:housenumber:44,addr:street:Rua Jorge Tibiriçá,addr:suburb:Gonzaga,amenity:bar","lat":-23.9693021,"lng":-46.3303904},{"id":"3101379390","name":"Sushi Garden","tags":"amenity:restaurant,cuisine:japanese","lat":-23.9664263,"lng":-46.3317597},{"id":"3101380629","name":"Wolf Bar","tags":"amenity:bar","lat":-23.9630176,"lng":-46.3419088},{"id":"3101382835","name":"Bodegaia","tags":"amenity:bar","lat":-23.9634976,"lng":-46.341793},{"id":"3101387934","name":"Forte da Barra Supermercado","tags":"shop:supermarket","lat":-23.9873122,"lng":-46.3022589},{"id":"3101393230","name":"Empório Casa Porto","tags":"shop:convenience","lat":-23.9844621,"lng":-46.3061952},{"id":"3101401153","name":"Dois Irmãos Bar & Restaurante","tags":"amenity:restaurant,capacity:30,cuisine:regional","lat":-23.9771076,"lng":-46.3034355},{"id":"3101426998","name":"Poupafarma","tags":"addr:city:Santos,addr:housenumber:101,addr:street:Avenida Dino Bueno,addr:suburb:Ponta da Praia,amenity:pharmacy,healthcare:pharmacy","lat":-23.9827714,"lng":-46.3010157},{"id":"3101429306","name":"Okumura Restaurante","tags":"amenity:restaurant,cuisine:japanese","lat":-23.9897173,"lng":-46.3033843},{"id":"3101440149","name":"Paulistânia Café","tags":"amenity:bar","lat":-23.9704479,"lng":-46.3286827},{"id":"3101441989","name":"Bar Armazém 29","tags":"amenity:bar","lat":-23.9699896,"lng":-46.3284147},{"id":"3102999271","name":"Kenzo Sushi Lounge","tags":"amenity:restaurant","lat":-23.9862895,"lng":-46.2965513},{"id":"3106301241","name":"Bradesco","tags":"addr:city:Santos,addr:housenumber:367,addr:street:Avenida Rei Alberto I,addr:suburb:Ponta da Praia,amenity:bank,brand:Bradesco,brand:wikidata:Q806181,brand:wikipedia:en:Banco Bradesco,website:https://banco.bradesco/","lat":-23.9872594,"lng":-46.2970936},{"id":"3106302854","name":"Nomad","tags":"amenity:bar","lat":-23.974397,"lng":-46.3161658},{"id":"3106303251","name":"Bar do Torto","tags":"amenity:bar","lat":-23.9736941,"lng":-46.3212721},{"id":"3106310693","name":"Rede Hebe Camargo de Combate ao Câncer","tags":"amenity:hospital,healthcare:hospital","lat":-23.963351,"lng":-46.3200297},{"id":"3144789932","name":"Bolshoi Supermercado","tags":"shop:supermarket","lat":-23.98343,"lng":-46.2982836},{"id":"3175087003","name":"Canal 8 Casual Bar","tags":"amenity:bar","lat":-23.986191,"lng":-46.296616},{"id":"3175123569","name":"Aiko Sushi","tags":"amenity:restaurant","lat":-23.9647606,"lng":-46.3312941},{"id":"3175123570","name":"Guadalupe","tags":"amenity:restaurant","lat":-23.9647441,"lng":-46.3314205},{"id":"3224267250","name":"Ocean Fitness","tags":"leisure:sports_centre","lat":-23.9834924,"lng":-46.2971449},{"id":"3224267255","name":"Capitães Gastronomia","tags":"amenity:restaurant","lat":-23.9911467,"lng":-46.3039725},{"id":"3225054151","name":"Gav. Central","tags":"amenity:ferry_terminal,ferry:yes,old_operator:Dersa,operator:Departamento Hidroviário,public_transport:station","lat":-23.9881345,"lng":-46.2893141},{"id":"3225054152","name":"Velho do Guarujá","tags":"amenity:ferry_terminal,ferry:yes,old_operator:Dersa,operator:Departamento Hidroviário,public_transport:station","lat":-23.9891406,"lng":-46.290896},{"id":"3225054153","name":"Gav. CCO","tags":"amenity:ferry_terminal,ferry:yes,old_operator:Dersa - BK,operator:Departamento Hidroviário,public_transport:station","lat":-23.988325,"lng":-46.2894351},{"id":"3225054158","name":"Gav.Iate Clube","tags":"amenity:ferry_terminal,ferry:yes,old_operator:Dersa,operator:Departamento Hidroviário,public_transport:station","lat":-23.9879186,"lng":-46.2891621},{"id":"3225536105","tags":"amenity:ferry_terminal,ferry:yes,public_transport:station","lat":-23.9918537,"lng":-46.3028622},{"id":"3227340960","name":"Barca Ferryboat - (Guarujá/ Santos)","tags":"amenity:ferry_terminal,ferry:yes,operator:BSG - Barcas,public_transport:station","lat":-23.9897404,"lng":-46.2909528},{"id":"3329944021","name":"Banco do Brasil","tags":"amenity:bank,atm:yes,brand:Banco do Brasil,brand:wikidata:Q610817,brand:wikipedia:en:Banco do Brasil,website:https://www.bb.com.br/","lat":-23.973106,"lng":-46.3063795},{"id":"3329944022","name":"Conceito Fit","tags":"leisure:sports_centre,sport:Bodybuilding","lat":-23.9725698,"lng":-46.304254},{"id":"3329944024","name":"Prefeitura","tags":"leisure:sports_centre","lat":-23.9734892,"lng":-46.302426},{"id":"3329944028","tags":"amenity:restaurant","lat":-23.9718452,"lng":-46.3082866},{"id":"3329944033","name":"Extra","tags":"brand:Extra,brand:wikidata:Q5422131,brand:wikipedia:pt:Extra (rede varejista),shop:supermarket,website:https://www.extra.com.br/","lat":-23.9713128,"lng":-46.3090982},{"id":"3329944035","tags":"amenity:restaurant","lat":-23.9715719,"lng":-46.3078505},{"id":"3329984395","tags":"amenity:restaurant","lat":-23.9713716,"lng":-46.3060226},{"id":"3329984398","tags":"amenity:restaurant,cuisine:regional,_nordestino","lat":-23.9722956,"lng":-46.3046573},{"id":"3329984407","name":"Moderno","tags":"amenity:school","lat":-23.9680334,"lng":-46.302944},{"id":"3329984411","name":"Santander","tags":"amenity:bank,brand:Santander,brand:wikidata:Q5835668,brand:wikipedia:en:Santander Bank,website:https://www.santander.com.br/","lat":-23.9743195,"lng":-46.3015375},{"id":"3329984416","tags":"amenity:parking","lat":-23.9772317,"lng":-46.3009162},{"id":"3360280105","name":"Pitangas","tags":"amenity:restaurant","lat":-23.9802462,"lng":-46.3070906},{"id":"3360280106","tags":"shop:pet","lat":-23.9802895,"lng":-46.3065212},{"id":"3360280107","tags":"amenity:school","lat":-23.9794327,"lng":-46.3054348},{"id":"3489267404","name":"Drogasil","tags":"amenity:pharmacy","lat":-23.9340447,"lng":-46.3288787},{"id":"3556978324","name":"Minimercado Extra","tags":"shop:convenience","lat":-23.9719716,"lng":-46.3957485},{"id":"3560956203","name":"Biquinha de Anchieta","tags":"addr:city:São Vicente,addr:housenumber:0,addr:postcode:11310090,addr:street:Praça Vinte e Dois de Janeiro,addr:suburb:Biquinha,alt_name:Biquinha de São Vicente,historic:drinking_water,opening_hours:24/7,tourism:attraction,website:https://www.saovicente.sp.gov.br/publico/,wikidata:Q52389799,wikipedia:pt:Biquinha de Anchieta","lat":-23.9714183,"lng":-46.3859349},{"id":"3700967359","name":"Gaveta Entreposto","tags":"amenity:ferry_terminal,ferry:yes,old_operator:Dersa,operator:Departamento Hidroviário,public_transport:station","lat":-23.9865367,"lng":-46.2935433},{"id":"3705164223","name":"Correio","tags":"amenity:post_office,opening_hours:Mo-Fr 09:00-17:00","lat":-23.9332516,"lng":-46.3279888},{"id":"3705462438","name":"Estação Bistrô","tags":"addr:street:Largo Marquês de Monte Alegre,amenity:restaurant,cuisine:regional,delivery:no,opening_hours:Tu-Sa 12:00-15:00,outdoor_seating:no,phone:1332193494,smoking:no,takeaway:no,website:https://www.estacaobistro.com.br/","lat":-23.9312592,"lng":-46.333416},{"id":"3705465963","name":"Fogão de Ouro","tags":"addr:street:Rua Frei Gaspar,amenity:restaurant","lat":-23.9330939,"lng":-46.330314},{"id":"3705475709","name":"Prato","tags":"amenity:restaurant","lat":-23.9328998,"lng":-46.3275722},{"id":"3705478778","name":"Cafeteria do Museu","tags":"addr:city:Santos,addr:housenumber:95,addr:street:Rua Quinze de Novembro,addr:suburb:Centro,amenity:cafe,cuisine:coffee_shop,smoking:no","lat":-23.9324842,"lng":-46.3300089},{"id":"3749264607","name":"Americana Express","tags":"operator:Lojas Americanas,shop:convenience","lat":-23.9833485,"lng":-46.3092189},{"id":"3758372984","name":"Camelódromo","tags":"shop:mall","lat":-23.943834,"lng":-46.3000561},{"id":"3758373000","name":"Avelinos","tags":"addr:city:Guarujá,addr:housenumber:1771,addr:street:Avenida Marechal Deodoro da Fonseca,addr:suburb:Pitangueiras,amenity:restaurant,phone:+55 13 3355-5043","lat":-24.0018348,"lng":-46.2649015},{"id":"3758373009","tags":"amenity:pharmacy,healthcare:pharmacy","lat":-24.0098492,"lng":-46.2712274},{"id":"3962570127","name":"All Beef's","tags":"addr:city:Praia Grande,addr:housenumber:1511,addr:street:Avenida Ayrton Senna da Silva,amenity:restaurant,indoor:yes,level:0,phone:+55 13 3476-2000,website:http://www.litoralplazashopping.com.br/lojav.asp?LOJA=136","lat":-23.9989209,"lng":-46.4058861},{"id":"3962570135","name":"Café com Leite","tags":"amenity:cafe,indoor:yes,level:0","lat":-23.9985949,"lng":-46.4060221},{"id":"3962570139","name":"Divino Fogão","tags":"amenity:restaurant,indoor:yes,level:0","lat":-23.9989851,"lng":-46.4061032},{"id":"3962570143","name":"Jin Jin Wok","tags":"amenity:restaurant,cuisine:asian,indoor:yes,level:0","lat":-23.9988265,"lng":-46.405814},{"id":"3962570148","name":"Michelangelo","tags":"amenity:restaurant,cuisine:pizza,indoor:yes,level:0","lat":-23.9989815,"lng":-46.4058785},{"id":"3962570150","name":"Oka Sushi","tags":"amenity:restaurant,cuisine:japanese,indoor:yes,level:0","lat":-23.9989897,"lng":-46.4059765},{"id":"3962570152","name":"Plaza Express Grill","tags":"amenity:restaurant,indoor:yes,level:0","lat":-23.9985903,"lng":-46.405926},{"id":"3962570153","name":"Raízes da Terra","tags":"amenity:restaurant,indoor:yes,level:0","lat":-23.9988826,"lng":-46.4058484},{"id":"3962570156","name":"Sabores do Mar Express","tags":"amenity:restaurant,indoor:yes,level:0","lat":-23.9989507,"lng":-46.4061491},{"id":"3962580858","name":"Sushi Garden","tags":"amenity:restaurant,cuisine:japanese,indoor:yes,level:0","lat":-23.9989122,"lng":-46.406198},{"id":"3962580859","name":"Vivenda do Camarão","tags":"amenity:restaurant,cuisine:fish,indoor:yes,level:0","lat":-23.9986004,"lng":-46.4057648},{"id":"4018487913","name":"Minimercado Extra","tags":"shop:convenience","lat":-23.9703815,"lng":-46.3848584},{"id":"4018488975","tags":"shop:convenience","lat":-23.9850771,"lng":-46.3959714},{"id":"4103664190","name":"Monte Carlo","tags":"addr:street:Avenida Miguel Alonso Gonzalez,amenity:restaurant,cuisine:brazilian;fish;seafood;regional;steak_house","lat":-24.0099309,"lng":-46.2711211},{"id":"4103692990","name":"Chopp Halle","tags":"addr:city:Guarujá,addr:housenumber:1520,addr:postcode:11410-222,addr:street:Avenida Marechal Deodoro da Fonseca,addr:suburb:Pitangueiras,amenity:restaurant,cuisine:brazilian;barbecue;fish;local;regional,phone:+55 13 3382-1040","lat":-24.0001741,"lng":-46.2626762},{"id":"4103693089","name":"Boca e Sabor","tags":"addr:street:Rua Rio de Janeiro,amenity:restaurant,cuisine:brazilian;burger;fish","lat":-23.9967728,"lng":-46.2608796},{"id":"4103693189","name":"Rufino's","tags":"addr:street:Avenida Marjori Prado,amenity:restaurant,cuisine:brazilian;fish;fine_dining;regional;seafood","lat":-23.9878689,"lng":-46.2047605},{"id":"4103693289","name":"Bucefalus Restaurante Grill","tags":"addr:street:José Avelino de Oliveira,amenity:restaurant,cuisine:brazilian;fish;seafood;steak_house","lat":-24.0138466,"lng":-46.2766632},{"id":"4124632889","name":"All Beefs","tags":"amenity:restaurant,cuisine:grill;sausage;pasta;italian;chicken;brazilian;kebab;barbecue,opening_hours:Mo-Su 11:30-22:00,website:http://www.allbeefs.com.br","lat":-23.9988768,"lng":-46.4058257},{"id":"4135952844","name":"Pista de Motocross","tags":"leisure:sports_centre,sport:motocross","lat":-23.9913428,"lng":-46.405907},{"id":"4178824424","name":"OP 28 - Academia","tags":"addr:city:Santos,addr:housenumber:109,addr:street:Rua 1º de Maio,addr:suburb:Aparecida,leisure:sports_centre,opening_hours:07:00-22:00,sport:exercise","lat":-23.9794266,"lng":-46.3065606},{"id":"4178835451","tags":"amenity:school","lat":-23.9793748,"lng":-46.3061252},{"id":"4178835452","name":"Colégio Átrio - Tatibitati","tags":"addr:city:Santos,addr:housenumber:70,addr:street:Rua Januário dos Santos,addr:suburb:Aparecida,amenity:school,phone:+55 13 3271-8040","lat":-23.9811297,"lng":-46.3092366},{"id":"4324768991","name":"Bar do Tonho","tags":"addr:street:Rua Vinte e Um de Setembro,amenity:bar","lat":-23.9645641,"lng":-46.3962429},{"id":"4344394690","name":"Ao Chopp do Gonzaga","tags":"addr:city:Santos,addr:housenumber:512,addr:postcode:11060-002,addr:street:Avenida Anna Costa,addr:suburb:Gonzaga,amenity:restaurant,cuisine:barbecue,delivery:yes,smoking:no,takeaway:yes","lat":-23.9660512,"lng":-46.3328566},{"id":"4344407856","name":"Bradesco","tags":"addr:city:Santos,addr:housenumber:482,addr:postcode:11060-002,addr:street:Avenida Anna Costa,addr:suburb:Gonzaga,amenity:bank,atm:yes,brand:Bradesco,brand:wikidata:Q806181,brand:wikipedia:en:Banco Bradesco,drive_through:no,opening_hours:10:00-16:00,operator:Bradesco","lat":-23.9655145,"lng":-46.3328489},{"id":"4353924209","name":"EE Azevedo Júnior","tags":"addr:city:Santos,addr:housenumber:50,addr:street:Rua Dom Pedro I,addr:suburb:Vila Belmiro,amenity:school","lat":-23.9524788,"lng":-46.3395165},{"id":"4436676204","name":"Estacionamento Bandeirantes","tags":"amenity:parking","lat":-23.9341118,"lng":-46.3260612},{"id":"4473453604","name":"Supermercado Extra","tags":"name:pt:Supermercado Extra,shop:supermarket,wheelchair:limited","lat":-23.9602572,"lng":-46.3969426},{"id":"4545011289","tags":"amenity:bus_station,bus:yes,public_transport:station","lat":-23.9873401,"lng":-46.2951499},{"id":"4546533291","name":"Supermercado Joia","tags":"addr:housenumber:3255,addr:postcode:11430-005,addr:street:Avenida Ademar de Barros,opening_hours:Mo-Su 08:00-21:00,phone:551333582813,shop:supermarket","lat":-23.9897205,"lng":-46.2890687},{"id":"4557832493","name":"Sorveteira Cremuche","tags":"addr:housenumber:921,addr:street:Avenida Santos Dumont,name:pt:Sorveteira Cremuche,phone:33418002,shop:convenience","lat":-23.9500281,"lng":-46.2948438},{"id":"4595525944","name":"Paulaner","tags":"amenity:bar","lat":-23.9963816,"lng":-46.2610806},{"id":"4612309183","name":"Banco do Brasil","tags":"addr:city:Santos,addr:housenumber:47,addr:postcode:11040-001,addr:street:Avenida Almirante Cochrane,addr:suburb:Embaré,amenity:bank,atm:yes,brand:Banco do Brasil,brand:wikidata:Q610817,brand:wikipedia:en:Banco do Brasil,website:https://www.bb.com.br/","lat":-23.9758073,"lng":-46.3142661},{"id":"4612823611","name":"Simpatia do Embaré","tags":"addr:city:Santos,addr:housenumber:418,addr:street:Avenida Senador Dantas,amenity:restaurant,cuisine:regional,wheelchair:yes","lat":-23.9661375,"lng":-46.3141131},{"id":"4618119822","name":"Caixa Econômica Federal","tags":"addr:city:Santos,addr:housenumber:194,addr:postcode:11060-000,addr:street:Avenida Anna Costa,addr:suburb:Vila Belmiro,amenity:bank,brand:Caixa Econômica Federal,brand:wikidata:Q835283,brand:wikipedia:pt:Caixa Econômica Federal","lat":-23.9522046,"lng":-46.3312484},{"id":"4622707759","name":"Dia","tags":"brand:Dia,brand:wikidata:Q925132,brand:wikipedia:es:Supermercados DIA,shop:supermarket,website:https://www.dia.com.br/","lat":-23.9740567,"lng":-46.3161584},{"id":"4653493477","name":"Palácio Saturnino de Brito","tags":"addr:city:Santos,addr:housenumber:128,addr:postcode:11013-210,addr:street:Avenida São Francisco,addr:suburb:Centro,opening_hours:Tu-Su 11:00-17:00,phone:+55 13 3201-2500,tourism:museum","lat":-23.9369652,"lng":-46.3291786},{"id":"4653910357","name":"Boteco Valongo","tags":"addr:city:Santos,addr:housenumber:43,addr:postcode:11010-035,addr:street:Rua São Bento,addr:suburb:Valongo,amenity:restaurant,cuisine:regional,outdoor_seating:no,smoking:outside,takeaway:no","lat":-23.9326138,"lng":-46.3341467},{"id":"4653910358","name":"Pare Aqui","tags":"addr:street:Rua São Bento,amenity:parking,parking:surface","lat":-23.9325141,"lng":-46.3344017},{"id":"4653910361","name":"Paulista","tags":"addr:street:Rua São Bento,amenity:restaurant,cuisine:regional,outdoor_seating:no","lat":-23.9319892,"lng":-46.3337367},{"id":"4653910363","tags":"amenity:parking","lat":-23.9326191,"lng":-46.3316536},{"id":"4653910364","name":"Estacionamento 60","tags":"amenity:parking,parking:surface","lat":-23.932716,"lng":-46.3315166},{"id":"4653910365","tags":"amenity:parking","lat":-23.932922,"lng":-46.3315608},{"id":"4653910366","name":"SanPark","tags":"amenity:parking","lat":-23.9336259,"lng":-46.3316262},{"id":"4653910367","name":"Bodegaia","tags":"amenity:restaurant,cuisine:regional,outdoor_seating:pedestrian_zone","lat":-23.9334025,"lng":-46.3312118},{"id":"4653910368","name":"Porto Brasil","tags":"addr:street:Rua 15 de Novembro,amenity:restaurant,cuisine:regional,outdoor_seating:pedestrian_zone","lat":-23.9336347,"lng":-46.3314018},{"id":"4653910369","name":"Alvorada","tags":"addr:street:Rua do Comércio,amenity:restaurant,cuisine:regional,outdoor_seating:no","lat":-23.9332814,"lng":-46.3308075},{"id":"4653910370","name":"Berillos II","tags":"addr:street:Rua do Comércio,amenity:restaurant,cuisine:regional,outdoor_seating:no","lat":-23.9334288,"lng":-46.3306308},{"id":"4653910371","name":"Cumbuco","tags":"amenity:restaurant,cuisine:regional,outdoor_seating:no,smoking:outside","lat":-23.93356,"lng":-46.3304342},{"id":"4653910372","name":"Café Paulista","tags":"addr:street:Rua do Comércio,amenity:restaurant,cuisine:regional,outdoor_seating:no,smoking:outside","lat":-23.9336617,"lng":-46.3304532},{"id":"4653910373","name":"Rei do Mate","tags":"addr:street:Rua General Câmara,amenity:cafe,cuisine:coffee_shop,outdoor_seating:no,smoking:outside","lat":-23.9337115,"lng":-46.330326},{"id":"4653910374","name":"Itaú","tags":"addr:street:Rua General Câmara,amenity:bank","lat":-23.9337539,"lng":-46.3298554},{"id":"4653910375","name":"Caixa Econômica Federal","tags":"amenity:bank","lat":-23.9337599,"lng":-46.3296633},{"id":"4653910376","name":"Fino Paladar","tags":"addr:street:Rua Frei Gaspar,amenity:restaurant,cuisine:regional,outdoor_seating:no,smoking:outside","lat":-23.9333036,"lng":-46.3303043},{"id":"4653910377","name":"Dumaria","tags":"addr:street:Rua Frei Gaspar,amenity:restaurant","lat":-23.9328675,"lng":-46.330319},{"id":"4685671456","name":"UME Professor Florestan Fernandes","tags":"addr:city:Santos,addr:housenumber:91,addr:postcode:11040-111,addr:street:Rua Oswaldo Cochrane,addr:suburb:Embaré,amenity:school,phone:+55 13 3227-2120","lat":-23.9739057,"lng":-46.3160926},{"id":"4692742854","name":"Clube XV","tags":"addr:city:Santos,addr:housenumber:565,addr:street:Avenida Washington Luiz,addr:suburb:Boqueirão,leisure:sports_centre,phone:+55 13 3302-3004","lat":-23.970409,"lng":-46.3289504},{"id":"4692800401","name":"Pavilhão da Maria Fumaça","tags":"building:yes,historic:locomotive,locomotive:type:steam,tourism:attraction,wikidata:Q97009680","lat":-23.9949506,"lng":-46.2573064},{"id":"4693830946","name":"Aston Park Estaciomento","tags":"amenity:parking,parking:surface","lat":-23.97441,"lng":-46.3167917},{"id":"4693843156","name":"Estacionamento e Lava-Rápido","tags":"amenity:parking","lat":-23.9737897,"lng":-46.3182385},{"id":"4695988885","name":"UME Professora Emília Maria Reis","tags":"addr:city:Santos,addr:street:Rua Dom Pedro I,addr:suburb:Vila Belmiro,amenity:school","lat":-23.9528367,"lng":-46.3399397},{"id":"4695990152","name":"EE Professor Primo Ferreira","tags":"addr:city:Santos,addr:housenumber:58,addr:street:Rua Dom Pedro I,addr:suburb:Vila Belmiro,amenity:school","lat":-23.9530544,"lng":-46.3402035},{"id":"4698273116","name":"Velório do Memorial Necrópole Ecumênica","tags":"addr:city:Santos,addr:housenumber:50,addr:postcode:11070-050,addr:street:Avenida Doutor Nilo Peçanha,addr:suburb:Marapé,amenity:grave_yard,wikidata:Q1615173","lat":-23.9483246,"lng":-46.3434588},{"id":"4698288852","name":"Estacionamento do Memorial Necrópole Ecumênica","tags":"addr:city:Santos,addr:housenumber:50,addr:postcode:11070-050,addr:street:Avenida Doutor Nilo Peçanha,addr:suburb:Marapé,amenity:parking","lat":-23.9479332,"lng":-46.3435451},{"id":"4704038566","name":"Passeio de Escuna","tags":"addr:city:Santos,addr:street:Avenida Almirante Saldanha da Gama,addr:suburb:Ponta da Praia,tourism:attraction","lat":-23.9915752,"lng":-46.3028649},{"id":"4707483051","name":"Estacionamento do SESC","tags":"addr:street:Rua Conselheiro Ribas,amenity:parking","lat":-23.9763081,"lng":-46.3113104},{"id":"4712046735","name":"Catraia (Santos/ Vicente de Carvalho)","tags":"amenity:ferry_terminal,ferry:yes,operator:Associação dos Catraieiros (Santos),public_transport:station","lat":-23.9406707,"lng":-46.3177453},{"id":"4714053241","name":"Trapiche Frutos do Mar","tags":"addr:city:Santos,addr:street:Avenida Almirante Saldanha da Gama,addr:suburb:Ponta da Praia,amenity:restaurant,cuisine:seafood","lat":-23.9915959,"lng":-46.3029262},{"id":"4714076746","name":"Clube de Pesca de Santos - Ilha das Palmas","tags":"addr:city:Guarujá,leisure:sports_centre","lat":-24.0088272,"lng":-46.3242778},{"id":"4714146388","name":"Mahaoo Deck Bar","tags":"addr:city:Santos,addr:housenumber:23,addr:postcode:11040-100,addr:street:Rua Delfim Moreira,addr:suburb:Embaré,amenity:restaurant,phone:+55 13 3227-4177","lat":-23.9744552,"lng":-46.315237},{"id":"4715104717","name":"Ferryboat - Barca Ponta da Praia - (Santos/ Guarujá)","tags":"amenity:ferry_terminal,ferry:yes,operator:BSG - Barcas,public_transport:station","lat":-23.9878131,"lng":-46.2949298},{"id":"4725937948","name":"Museu do Mar","tags":"addr:city:Santos,addr:housenumber:81,addr:postcode:11030151,addr:street:Rua República do Equador,addr:suburb:Ponta da Praia,opening_hours:09:00 - 18:00,tourism:museum,wikidata:Q30939579","lat":-23.9841391,"lng":-46.2973711},{"id":"4725941858","name":"Museu Marítimo","tags":"addr:city:Santos,addr:housenumber:343,addr:postcode:11030181,addr:street:Rua Governador Fernando Costa,addr:suburb:Ponta da Praia,opening_hours:09:00 - 18:00,tourism:museum,wikidata:Q44632231","lat":-23.9845697,"lng":-46.2977217},{"id":"4745592908","name":"Clube de Pesca de Santos","tags":"addr:city:Santos,addr:housenumber:85,addr:postcode:11030-400,addr:street:Avenida Almirante Saldanha da Gama,addr:suburb:Ponta da Praia,leisure:sports_centre,phone:+55 13 3261-6188","lat":-23.9904249,"lng":-46.3011189},{"id":"4758835393","name":"Drogasil","tags":"addr:city:Santos,addr:housenumber:1,addr:postcode:11045-301,addr:street:Avenida Doutor Epitácio Pessoa,addr:suburb:Boqueirão,amenity:pharmacy,brand:Drogasil,brand:wikidata:Q5308185,brand:wikipedia:pt:Drogasil,healthcare:pharmacy,wheelchair:yes","lat":-23.9705332,"lng":-46.3239082},{"id":"4758840477","name":"Drogaria São Paulo","tags":"addr:city:Santos,addr:housenumber:63,addr:postcode:11060-301,addr:street:Avenida Marechal Floriano Peixoto,addr:suburb:Gonzaga,amenity:pharmacy,brand:Drogaria São Paulo,brand:wikidata:Q5308184,brand:wikipedia:en:Grupo DPSP,healthcare:pharmacy,phone:+55 13 3284-5552","lat":-23.9673094,"lng":-46.3349243},{"id":"4780346131","name":"Escola de Futebol do Boca Juniors","tags":"addr:city:Santos,addr:street:Praça Coronel Fernando Prestes,addr:suburb:Embaré,amenity:school,phone:+55 13 3385-4877","lat":-23.9650923,"lng":-46.3117892},{"id":"4785086905","name":"La Panettiere","tags":"addr:city:Santos,addr:housenumber:268,addr:postcode:11030010,addr:street:Rua Vereador Henrique Soler,addr:suburb:Ponta da Praia,amenity:cafe,cuisine:bread_and_coffee,internet_access:wlan,outdoor_seating:no,smoking:outside","lat":-23.9843942,"lng":-46.2964483},{"id":"4864768421","name":"Plano de Saúde Santa Casa de Santos","tags":"addr:housenumber:222,addr:street:Rua Almeida de Moraes,amenity:hospital,healthcare:hospital,name:pt:Plano de Saúde Santa Casa de Santos,opening_hours:Mo-Fr 08:00-17:00","lat":-23.9480785,"lng":-46.33187},{"id":"4914969727","tags":"amenity:parking","lat":-23.9323487,"lng":-46.3323189},{"id":"5290249922","name":"Sávio Cafe","tags":"addr:housenumber:744,addr:street:Avenida General Monteiro de Barros,amenity:cafe,cuisine:ice_cream,phone:+55 13 3383-4672","lat":-24.0101502,"lng":-46.2681269},{"id":"5294725939","name":"Monumento do Zito","tags":"addr:city:Santos,addr:housenumber:s/n,addr:postcode:11075-500,addr:street:Rua Princesa Isabel,addr:suburb:Vila Belmiro,description:Zito appeared regularly for Santos in the following 15 years, playing 733 games and scoring 57 goals. He was the captain of the Os Santásticos team of the late 1950s and 1960s, playing alongside Pelé, Pepe and other Brazilian stars.,email:santosfc@santosfc.com.br,fax:+55 13 3239-1152,historic:monument,inscription:José Ely de Miranda (8 August 1932 – 14 June 2015), commonly known as Zito, was a Brazilian footballer who played as a midfielder.  His club career was spent mostly in the service of Santos, captaining a side including Pelé to domestic and international.,level:0,phone:+55 13 3257-4000,start_date:31/10/2017,tourism:attraction,website:https://www.santosfc.com.br/,wheelchair:yes,wikidata:Q372092,wikipedia:en:Zito (footballer)","lat":-23.9502141,"lng":-46.3391246},{"id":"5318824722","name":"Extra","tags":"brand:Extra,brand:wikidata:Q5422131,brand:wikipedia:pt:Extra (rede varejista),shop:supermarket","lat":-23.9826777,"lng":-46.2352531},{"id":"5318825721","name":"Hanger","tags":"amenity:restaurant","lat":-23.9871834,"lng":-46.2328097},{"id":"5320660222","name":"Boa Vida","tags":"amenity:restaurant","lat":-23.985898,"lng":-46.2251994},{"id":"5320660223","name":"Açai Bar","tags":"amenity:bar","lat":-23.9858748,"lng":-46.2249931},{"id":"5320660621","tags":"amenity:cafe","lat":-23.9851712,"lng":-46.2188891},{"id":"5320756234","name":"Dona Dolores","tags":"amenity:restaurant","lat":-23.9868505,"lng":-46.2314531},{"id":"5411180425","name":"Statue Pelé","tags":"addr:city:Santos,addr:housenumber:s/n,addr:postcode:11040-000,addr:street:Avenida Almirante Cochrane,addr:suburb:Embaré,description:Statue Pelé, Santos Futebol Clube,email:santosfc@santosfc.com.br,fax:+55 13 3239 1152,historic:monument,inscription:Statue Pelé, Santos FC,level:0,payment:credit_cards:yes,payment:telephone_cards:yes,phone:+55 13 3257 4000,start_date:www.sociorei.com.br,tourism:attraction,website:https://www.santosfc.com.br/,wheelchair:yes,wikidata:Q12897,wikipedia:en:Pelé","lat":-23.9761083,"lng":-46.3137212},{"id":"5474356453","name":"E.M. Profª Jacirema dos Santos Fontes","tags":"addr:city:Guarujá,addr:housenumber:63,addr:postcode:11495040,addr:street:Travessa Daniel Matos da Silva,addr:suburb:Morrinhos,amenity:school,operator:Prefeitura Municipal de Guarujá","lat":-23.9658121,"lng":-46.2570546},{"id":"5620881190","tags":"access:yes,amenity:parking,parking:surface","lat":-23.9474998,"lng":-46.3362985},{"id":"5632793788","name":"Casa Valongo","tags":"addr:street:Rua Marquês de Herval,amenity:restaurant,cuisine:regional","lat":-23.9315939,"lng":-46.334682},{"id":"5632846027","name":"Azulão","tags":"amenity:restaurant,cuisine:regional","lat":-23.9328592,"lng":-46.3279412},{"id":"5682854631","name":"Super Vegetariano","tags":"addr:housenumber:71,addr:street:Rua Frei Gaspar,amenity:restaurant,diet:vegan:yes,diet:vegetarian:only,wikidata:Q54918569","lat":-23.9345232,"lng":-46.3303806},{"id":"5764262613","name":"Quiosque Burgman Canal 4","tags":"air_conditioning:no,amenity:bar,brewery:Burgman,internet_access:no,min_age:0,opening_hours:24/7,outdoor_seating:yes,payment:cash:yes,payment:credit_cards:yes,smoking:outside,wheelchair:yes","lat":-23.9745128,"lng":-46.3214574},{"id":"5912431687","name":"Studio Rock","tags":"amenity:bar","lat":-23.963315,"lng":-46.3364316},{"id":"5915605985","name":"Esquina do Chopp","tags":"amenity:restaurant","lat":-23.9705013,"lng":-46.3294713},{"id":"5981825143","name":"Baraçaí","tags":"amenity:bar","lat":-23.964774,"lng":-46.3311549},{"id":"6069591903","name":"Terminal FerryBoat Guarujá","tags":"amenity:bus_station,building:public,bus:yes,operator:CITY Transporte Urbano,public_transport:station,wheelchair:yes","lat":-23.9898446,"lng":-46.2901225},{"id":"6069594655","name":"Estacionamento do Terminal","tags":"amenity:parking,operator:terminal do Guarujá","lat":-23.9900504,"lng":-46.2901493},{"id":"6086204395","name":"6º BPM/I","tags":"addr:housenumber:389,addr:street:Avenida Anna Costa,amenity:police,name:pt:Polícia Militar - 6º BPM/I,phone:(13) 3288-3865","lat":-23.9613202,"lng":-46.331969},{"id":"6086261766","name":"Policia Militar - 5ª Cia - 6ºBPM/I","tags":"amenity:police,phone:(13) 3251-3969","lat":-23.9623238,"lng":-46.3453962},{"id":"6086277581","name":"Polícia Militar - 2ª Cia - 6ºBPM/I","tags":"amenity:police,phone:(13) 3286-3775","lat":-23.9613089,"lng":-46.3372613},{"id":"6086283786","name":"Polícia Militar - 4ª Cia - 6ºBPM/I","tags":"amenity:police,phone:(13) 3299-8999","lat":-23.9350337,"lng":-46.3616029},{"id":"6126584885","name":"Nagasaki Ya","tags":"addr:street:Avenida Washington Luiz,amenity:restaurant,cuisine:japanese,diet:vegan:yes,diet:vegetarian:yes,opening_hours:Mo-Su 00:00-16:00,wikidata:Q60191837","lat":-23.9652133,"lng":-46.32886},{"id":"6192926576","name":"Drogaria São Paulo","tags":"amenity:pharmacy,brand:Drogaria São Paulo,brand:wikidata:Q5308184,brand:wikipedia:en:Grupo DPSP,dispensing:yes,drive_through:no,healthcare:pharmacy","lat":-23.9650093,"lng":-46.32368},{"id":"6192948164","name":"Outback Steakhouse","tags":"addr:street:Rua Guaiaó,amenity:restaurant,brand:Outback Steakhouse,brand:wikidata:Q1064893,brand:wikipedia:en:Outback Steakhouse,cuisine:american;steak,delivery:no,outdoor_seating:no","lat":-23.9785346,"lng":-46.3088147},{"id":"6195213294","name":"Gaudio","tags":"addr:city:São Vicente,addr:housenumber:191,addr:street:Avenida Embaixador Pedro de Toledo,addr:suburb:Centro,amenity:restaurant","lat":-23.9689445,"lng":-46.380133},{"id":"6195213295","name":"Marrocos","tags":"addr:city:São Vicente,addr:housenumber:4,addr:street:Praça Heróis de Trinta e Dois,addr:suburb:Cenrto,amenity:restaurant","lat":-23.9688493,"lng":-46.3785361},{"id":"6228418831","name":"Marathon Academia","tags":"leisure:fitness_centre","lat":-23.9888463,"lng":-46.3017482},{"id":"6228418838","name":"Minuto Pão de Açúcar","tags":"shop:supermarket","lat":-23.9890945,"lng":-46.3013953},{"id":"6230810753","name":"Hiná Fish & Lounge","tags":"amenity:restaurant","lat":-23.9911279,"lng":-46.3027014},{"id":"6230888782","name":"Caiçara Restaurante","tags":"amenity:restaurant","lat":-23.9596953,"lng":-46.3321077},{"id":"6236835184","tags":"amenity:parking","lat":-23.9888242,"lng":-46.3015414},{"id":"6394172713","name":"Ceeja Professor Luiz Carlos Romazzini","tags":"addr:city:Guarujá,addr:housenumber:374,addr:postcode:11432-270,addr:street:Alameda das Violetas,addr:suburb:Jardim Santo Antonio,amenity:school,phone:(13) 33837447,website:https://ceejalcr.blogspot.com/","lat":-23.9854909,"lng":-46.2714393},{"id":"6399257813","name":"Terminal Porto","tags":"alt_name:Estação Porto,light_rail:yes,operator:EMTU,public_transport:station,railway:station,station:light_rail,wikidata:Q30938402,wikipedia:pt:Estação Porto","lat":-23.9569233,"lng":-46.3135665},{"id":"6399257815","name":"Conselheiro Nébias","tags":"alt_name:Estação Conselheiro Nébias,light_rail:yes,operator:EMTU,public_transport:station,railway:station,station:light_rail,wikidata:Q30938333,wikipedia:pt:Estação Conselheiro Nébias","lat":-23.9576293,"lng":-46.3237297},{"id":"6399257900","name":"Bernardino de Campos","tags":"alt_name:Estação Bernardino de Campos,light_rail:yes,operator:EMTU,public_transport:station,railway:station,station:light_rail,wikidata:Q30938340,wikipedia:pt:Estação Bernardino de Campos","lat":-23.9616492,"lng":-46.3389731},{"id":"6399257902","name":"Pinheiro Machado","tags":"alt_name:Estação Pinheiro Machado,light_rail:yes,operator:EMTU,public_transport:station,railway:station,station:light_rail,wikidata:Q30938420,wikipedia:pt:Estação Pinheiro Machado","lat":-23.9631061,"lng":-46.3459345},{"id":"6399257910","name":"Nossa Senhora de Lourdes","tags":"alt_name:Estação Nossa Senhora de Lourdes,light_rail:yes,operator:EMTU,public_transport:station,railway:station,station:light_rail,wikidata:Q30938417,wikipedia:pt:Estação Nossa Senhora de Lourdes","lat":-23.9655544,"lng":-46.3525049},{"id":"6399257913","name":"João Ribeiro","tags":"alt_name:Estação João Ribeiro,light_rail:yes,operator:EMTU,public_transport:station,railway:station,station:light_rail,wikidata:Q30938423,wikipedia:pt:Estação João Ribeiro","lat":-23.9674238,"lng":-46.3577801},{"id":"6399257915","name":"Itararé","tags":"alt_name:Estação Itararé (EMTU),light_rail:yes,operator:EMTU,public_transport:station,railway:station,station:light_rail,wikidata:Q30939743,wikipedia:pt:Estação Itararé (EMTU)","lat":-23.9683887,"lng":-46.3623574},{"id":"6399257919","name":"José Monteiro","tags":"alt_name:Estação José Monteiro,light_rail:yes,operator:EMTU,public_transport:station,railway:station,station:light_rail,wikidata:Q30938438,wikipedia:pt:Estação José Monteiro","lat":-23.9682975,"lng":-46.3709355},{"id":"6399257920","name":"Nossa Senhora das Graças","tags":"alt_name:Estação Nossa Senhora das Graças,light_rail:yes,operator:EMTU,public_transport:station,railway:station,station:light_rail,wikidata:Q30938436,wikipedia:pt:Estação Nossa Senhora das Graças","lat":-23.966351,"lng":-46.3762705},{"id":"6399257932","name":"Emmerich","tags":"alt_name:Estação Antônio Emmerich,light_rail:yes,operator:EMTU,public_transport:station,railway:station,station:light_rail,wikidata:Q30938432,wikipedia:pt:Estação Antônio Emmerich","lat":-23.9647005,"lng":-46.3808345},{"id":"6399257934","name":"São Vicente","tags":"alt_name:Estação São Vicente,light_rail:yes,operator:EMTU,public_transport:station,railway:station,station:light_rail,wikidata:Q30938433,wikipedia:pt:Estação São Vicente","lat":-23.9626951,"lng":-46.387687},{"id":"6399257936","name":"Mascarenhas","tags":"alt_name:Estação Mascarenhas de Moraes,light_rail:yes,operator:EMTU,public_transport:station,railway:station,station:light_rail,wikidata:Q30938428,wikipedia:pt:Estação Mascarenhas de Moraes","lat":-23.9617168,"lng":-46.3979089},{"id":"6403156774","name":"Washington Luis","tags":"alt_name:Estação Washington Luís,light_rail:yes,operator:EMTU,public_transport:station,railway:station,station:light_rail,wikidata:Q30938405,wikipedia:pt:Estação Washington Luís","lat":-23.9578267,"lng":-46.3285479},{"id":"6403164591","name":"Ana Costa","tags":"alt_name:Estação Ana Costa,light_rail:yes,operator:EMTU,public_transport:station,railway:station,station:light_rail,wikidata:Q30938395,wikipedia:pt:Estação Ana Costa","lat":-23.9595573,"lng":-46.3331846},{"id":"6414277327","name":"Padaria Nossa Sra. das Graças","tags":"amenity:cafe,cuisine:coffee_shop","lat":-23.9421859,"lng":-46.3724857},{"id":"6414313472","name":"Estátua","tags":"tourism:attraction","lat":-23.9702094,"lng":-46.3862935},{"id":"6414313473","name":"Museu do Cinema","tags":"tourism:museum","lat":-23.9699111,"lng":-46.3870552},{"id":"6414357590","name":"Sorveteria","tags":"shop:convenience","lat":-23.9697216,"lng":-46.3862602},{"id":"6414357591","tags":"shop:convenience","lat":-23.9698697,"lng":-46.3859727},{"id":"6533252183","tags":"amenity:school","lat":-23.9417943,"lng":-46.2825935},{"id":"6549908906","name":"Supermercado J.G. Bastos","tags":"shop:supermarket","lat":-23.9623907,"lng":-46.2558479},{"id":"6572812028","name":"Banco24Horas","tags":"amenity:atm,brand:Banco24Horas,brand:wikidata:Q4854069,brand:wikipedia:pt:Banco24Horas,level:1","lat":-23.9673578,"lng":-46.3834385},{"id":"6575435478","name":"Takê Restaurante Natural","tags":"addr:city:Santos,addr:country:BR,addr:housenumber:33,addr:postcode:11065-120,addr:street:Rua Alagoas,addr:suburb:Gonzaga,amenity:restaurant,cuisine:asian;regional,diet:vegetarian:yes,email:take@terra.com.br,opening_hours:Mo-Fr 11:30-15:00,phone:+55 13 3284 7260,website:http://takerestaurantenatural.com.br","lat":-23.9653008,"lng":-46.3360114},{"id":"6580183138","name":"Pão de Açúcar","tags":"brand:Pão de Açúcar,brand:wikidata:Q3411543,brand:wikipedia:pt:Pão de Açúcar (supermercado brasileiro),organic:yes,shop:supermarket","lat":-23.9677104,"lng":-46.3427585},{"id":"6606950571","name":"Loja do R$$1,99","tags":"addr:city:Santos,addr:postcode:11080060,addr:street:Avenida Santista,addr:suburb:Nova Cintra,opening_hours:09:00-20:00,payment:coins:yes,shop:supermarket","lat":-23.9435917,"lng":-46.3496815},{"id":"6655614885","name":"Supermercado 1. Preço","tags":"addr:city:Guarujá,addr:housenumber:199,addr:postcode:11421-000,addr:street:Praça Walter Beliam,addr:suburb:Guaiuba,alt_name:Primeiro Preço Supermercados,shop:supermarket","lat":-24.0122947,"lng":-46.2803343},{"id":"6680139446","name":"Pizzaria Big","tags":"addr:city:São Vicente,addr:housenumber:208,addr:postcode:113803101,addr:street:Rua São Jorge,addr:suburb:vila voturuá,amenity:restaurant,cuisine:pizza;italian_pizza,opening_hours:Mo-Su 18:00-00:00,phone:+55 13 33268441","lat":-23.9596943,"lng":-46.374292},{"id":"6680139447","name":"Escola Educação Infantil Paschalis & Paschalis","tags":"addr:city:São Vicente,addr:housenumber:248,addr:postcode:113803101,addr:street:Rua São Jorge,addr:suburb:vila voturuá,amenity:school,website:http://www.artesemanhas.com.br/","lat":-23.9595897,"lng":-46.3740049},{"id":"6680144176","name":"Premium Bar e Restaurante","tags":"addr:city:São Vicente,addr:housenumber:131,addr:postcode:11380300,addr:street:Rua Dona Anita Costa,addr:suburb:vila voturuá,amenity:restaurant,cuisine:brazilian,delivery:yes,opening_hours:Mo-Su 10:00-00:00,outdoor_seating:yes,phone:+55 13 3395-3152","lat":-23.9602573,"lng":-46.3748656},{"id":"6681310631","tags":"amenity:restaurant","lat":-23.9527376,"lng":-46.3724254},{"id":"6681310640","name":"PLANETA ÁGUA AQUARIUM","tags":"addr:city:São Vicente,addr:housenumber:876,addr:postcode:11380020,addr:street:Rua Francisco Sá,addr:suburb:vila são jorge,opening_hours:Mo-Sa 10:00-18:00,payment:cash:yes,payment:credit_cards:yes,phone:+55 13 33564064,shop:pet","lat":-23.9517625,"lng":-46.3721222},{"id":"6700864654","tags":"amenity:parking","lat":-24.0161225,"lng":-46.4012022},{"id":"6700931387","name":"Praça Duque de Caxias","tags":"leisure:park","lat":-24.0168036,"lng":-46.400531},{"id":"6831821396","name":"Raia","tags":"amenity:pharmacy,dispensing:yes,healthcare:pharmacy","lat":-23.9758016,"lng":-46.3133713},{"id":"6836013771","name":"Ignis","tags":"amenity:nightclub","lat":-23.9320589,"lng":-46.3317048},{"id":"6848822924","name":"Alkimista","tags":"amenity:pharmacy,dispensing:yes,healthcare:pharmacy","lat":-23.9823421,"lng":-46.3075529},{"id":"7036150206","tags":"amenity:parking,parking:surface","lat":-23.9683929,"lng":-46.3502978},{"id":"7036559918","tags":"amenity:cafe","lat":-23.9312756,"lng":-46.3330928},{"id":"7298196180","name":"Praça Presidente Floriano Vieira Peixoto","tags":"leisure:park","lat":-24.0050962,"lng":-46.4000629},{"id":"7298196181","name":"Praça Dr. João P. P. de Barros","tags":"leisure:park","lat":-24.0099463,"lng":-46.4009547},{"id":"7298218886","name":"Praça Lenira Melo da Rocha","tags":"leisure:park","lat":-24.0061158,"lng":-46.3999801},{"id":"7320991697","tags":"amenity:cafe","lat":-23.9390103,"lng":-46.3304621},{"id":"7505511565","tags":"amenity:ferry_terminal,ferry:yes,public_transport:station","lat":-23.9953551,"lng":-46.3023585},{"id":"7732076642","name":"USAFA - Vila Aurea","tags":"amenity:hospital,healthcare:hospital","lat":-23.9422054,"lng":-46.2824543},{"id":"7768667748","name":"country bar","tags":"addr:city:Santos,addr:housenumber:1039,addr:street:Avenida Senador Pinheiro Machado,addr:suburb:José Menino,amenity:restaurant","lat":-23.96739,"lng":-46.3460036},{"id":"7829860343","name":"Supermercado Extra Forte","tags":"addr:city:Santos,addr:housenumber:286,addr:postcode:11095-210,addr:street:R. Dr. Mario Gracho,addr:suburb:São Manoel,payment:cash:yes,payment:credit_cards:yes,payment:debit_cards:yes,payment:mastercard:yes,payment:visa:yes,payment:visa_debit:yes,shop:supermarket,stroller:yes,wheelchair:yes","lat":-23.9298078,"lng":-46.3826946},{"id":"7829860345","name":"Escola Municipal José Carlos Azevedo Junior Unidade Municipal de Educação","tags":"addr:city:Santos,addr:housenumber:21,addr:postcode:11095070,addr:street:Rua Nicolau Moran,addr:suburb:São Manoel,amenity:school","lat":-23.9304306,"lng":-46.3811282},{"id":"7829860348","name":"Rei da Pizza","tags":"amenity:restaurant,cuisine:pizza","lat":-23.9326787,"lng":-46.3826088},{"id":"7829860349","tags":"amenity:pharmacy,dispensing:yes,healthcare:pharmacy","lat":-23.9330646,"lng":-46.3827026},{"id":"7829860350","name":"Loja do Paraíba","tags":"shop:convenience","lat":-23.933295,"lng":-46.3827026},{"id":"7829860354","name":"Leide Esteticista","tags":"beauty:nails,shop:beauty","lat":-23.9316868,"lng":-46.3828636},{"id":"7829860368","tags":"shop:beauty","lat":-23.9312749,"lng":-46.381324},{"id":"7829860378","tags":"amenity:childcare","lat":-23.9275925,"lng":-46.3835717},{"id":"8660285273","name":"Dia Market","tags":"brand:Dia Market,brand:wikidata:Q925132,brand:wikipedia:es:Supermercados DIA,shop:supermarket","lat":-23.9867729,"lng":-46.2433552},{"id":"8660285280","name":"Dia Market","tags":"brand:Dia Market,brand:wikidata:Q925132,brand:wikipedia:es:Supermercados DIA,shop:supermarket","lat":-23.9809384,"lng":-46.2265967},{"id":"8660717946","name":"Colégio Don Domênico","tags":"amenity:school,grades:Ensino Fundamental I, Fundamental II e Ensino Médio,operator:type:private,website:http://www.colegiodondomenico.com.br/","lat":-23.9927717,"lng":-46.2538503},{"id":"8660717956","name":"Hospital Casa de Saúde - Guarujá","tags":"addr:city:Guarujá,addr:housenumber:109,addr:postcode:11410-140,addr:street:Av. Emílio Carlos,addr:suburb:Vila Maia,amenity:hospital,emergency:yes,healthcare:hospital,operator:Casa de Saúde,operator:type:private","lat":-23.9899562,"lng":-46.2528559},{"id":"8660717970","name":"E.M. Profº Antônio Ferreira de Almeida Jr.","tags":"air_conditioning:yes,amenity:school,grades:Ensino Fundamental I,operator:Prefeitura de Guarujá,operator:type:public","lat":-23.9896348,"lng":-46.2469771},{"id":"8660717971","name":"E.M. Prof° Magdalena Maria Cardoso Lourenço","tags":"amenity:school,grades:Ensino Infantil,operator:Prefeitura de Guarujá,operator:type:public","lat":-23.9895797,"lng":-46.2468311},{"id":"8660746444","name":"Caixa Econômica Federal","tags":"amenity:bank,atm:yes,brand:Caixa Econômica Federal,brand:wikidata:Q835283,brand:wikipedia:pt:Caixa Econômica Federal,operator:Caixa Econômica Federal,website:https://www.caixa.gov.br/,wheelchair:yes","lat":-23.9809233,"lng":-46.2274448},{"id":"8714135315","name":"E. E. Ignacio Miguel Estefno","tags":"addr:city:Guarujá,addr:housenumber:695,addr:street:Rua Desembargador Plinio de Carvalho Pinto,addr:suburb:JOAO BATISTA JULIAO,amenity:school,grades:Ensino Fundamental e Médio,operator:Governo do estado de São Paulo,operator:type:public,website:http://www.educacao.sp.gov.br/cgrh/escolas/ignacio-miguel-estefno/","lat":-23.9780791,"lng":-46.2135137},{"id":"8714150942","name":"Compre Bem Supermercados","tags":"addr:city:Guarujá,addr:housenumber:319,addr:postcode:11451-390,addr:street:Avenida Santos Dumont,addr:suburb:Sítio Paecara (Vicente de Carvalho),air_conditioning:yes,operator:Grupo Pão de Açucar,parking:yes,shop:supermarket,website:https://comprebem.com.br/,wheelchair:yes","lat":-23.945586,"lng":-46.298291},{"id":"8714150943","name":"Santander","tags":"addr:city:Guarujá,addr:housenumber:203,addr:postcode:11460-003,addr:street:Avenida Santos Dumont,addr:suburb:Sítio Paecara (Vicente de Carvalho),amenity:bank,atm:yes,brand:Santander,brand:wikidata:Q5835668,brand:wikipedia:en:Santander Bank,opening_hours:covid19:open,operator:Santander","lat":-23.9448766,"lng":-46.2989079},{"id":"8714150977","name":"Santander","tags":"addr:city:Guarujá,addr:housenumber:633,addr:postcode:11410-150,addr:street:Rua Washington,addr:suburb:Vila Maia (Centro),air_conditioning:yes,amenity:bank,atm:yes,brand:Santander,brand:wikidata:Q5835668,brand:wikipedia:en:Santander Bank,opening_hours:covid19:open,operator:Santander,parking:yes,wheelchair:yes","lat":-23.9935783,"lng":-46.2568306},{"id":"9048761059","tags":"amenity:ferry_terminal,ferry:yes,public_transport:station","lat":-24.0083275,"lng":-46.3239503},{"id":"9048785019","tags":"amenity:ferry_terminal,ferry:yes,public_transport:station","lat":-23.9947081,"lng":-46.3062539},{"id":"9184073317","name":"Caixa Econômica Federal","tags":"addr:housenumber:701,addr:street:Avenida Conselheiro Nébias,amenity:bank,brand:Caixa Econômica Federal,brand:wikidata:Q835283,brand:wikipedia:pt:Caixa Econômica Federal,opening_hours:Mo-Fr 10:00-14:00","lat":-23.9654301,"lng":-46.3234652},{"id":"9201280906","name":"Posto Policial","tags":"amenity:police","lat":-23.9765102,"lng":-46.3888077},{"id":"9208361617","name":"Caixa Econômica Federal","tags":"addr:street:Rua Jacob Emerick,amenity:bank,brand:Caixa Econômica Federal,brand:wikidata:Q835283,brand:wikipedia:pt:Caixa Econômica Federal,opening_hours:Mo-Fr 10:00-14:00","lat":-23.9684587,"lng":-46.383632},{"id":"9208362217","name":"Atacadão","tags":"addr:housenumber:298,addr:street:Avenida Nossa Senhora de Fátima,brand:Atacadão,brand:wikidata:Q2868739,brand:wikipedia:en:Atacadão,opening_hours:Mo-Su 08:00-21:00,shop:supermarket","lat":-23.9346439,"lng":-46.3623769},{"id":"9212230917","name":"Assaí (Ciro Atacadista)","tags":"addr:street:Avenida Nossa Senhora de Fátima,opening_hours:Mo-Su 09:00-22:00,shop:supermarket","lat":-23.931525,"lng":-46.3571021},{"id":"9212230918","tags":"addr:street:Rua Alberto Baccarat,amenity:hospital,healthcare:hospital","lat":-23.9624652,"lng":-46.3244192},{"id":"9261989596","tags":"amenity:bar","lat":-24.0141658,"lng":-46.3997663},{"id":"9261989597","name":"Forte Boardshop Pub","tags":"addr:city:Praia Grande,addr:housenumber:97,addr:postcode:11700-405,addr:street:Avenida Marechal Mallet,addr:suburb:Canto do Forte,amenity:bar,opening_hours:Mo-Su 09:00-22:00","lat":-24.0151719,"lng":-46.3996239},{"id":"9744133808","name":"Espetto Carioca Santos","tags":"addr:city:Santos,addr:housenumber:56,addr:postcode:11060470,addr:street:Rua Tolentino Filgueiras,addr:suburb:Gonzaga,amenity:restaurant,brewery:Heineken;amstel,internet_access:yes,website:https://www.instagram.com/espettocariocasantos/,wheelchair:yes","lat":-23.9646582,"lng":-46.3302229},{"id":"9875316117","name":"Bom prato","tags":"addr:street:Praça Iguatemi Martins,amenity:restaurant,opening_hours:Mo-Su 09:00-18:00","lat":-23.9403291,"lng":-46.3184579},{"id":"9875316118","name":"CompreBem","tags":"addr:street:Avenida Conselheiro Nébias,opening_hours:Mo-Sa 09:00-20:00,shop:supermarket","lat":-23.9429432,"lng":-46.3217536},{"id":"9881689518","tags":"amenity:cafe","lat":-23.942115,"lng":-46.3212842},{"id":"9883344122","name":"DrogaRaia","tags":"addr:street:Avenida Anna Costa,amenity:pharmacy","lat":-23.9674831,"lng":-46.3324832},{"id":"9895445917","name":"Galeria","tags":"addr:street:Rua Djalma Dutra,shop:convenience","lat":-23.9675713,"lng":-46.3321174},{"id":"9927450517","tags":"amenity:bar","lat":-23.9534697,"lng":-46.3208772},{"id":"10197966517","name":"Quintas","tags":"addr:housenumber:180,addr:street:Rua Alexandre Herculano,amenity:restaurant,cuisine:brazilian","lat":-23.9590437,"lng":-46.3287814}]