[{"id":"598921006","tags":"shop:convenience","lat":-23.3254567,"lng":-47.5657779},{"id":"3235420325","name":"Farmaponte","tags":"amenity:pharmacy,healthcare:pharmacy","lat":-23.2854334,"lng":-47.6784725},{"id":"3235420326","name":"Academia Feminina Espaço FastFit","tags":"leisure:fitness_centre","lat":-23.2853819,"lng":-47.6784543},{"id":"3573283793","name":"Itaú","tags":"addr:postcode:18550-083,addr:street:Avenida Coronel Eugênio Motta,addr:suburb:Centro,amenity:bank,atm:yes,brand:Itaú Unibanco,brand:wikidata:Q1424293,brand:wikipedia:pt:Itaú Unibanco,description:Agência 6381,drive_through:no,operator:Itaú-Unibanco","lat":-23.2834149,"lng":-47.6706034},{"id":"3859913177","name":"Bradesco","tags":"addr:street:Avenida Coronel Eugênio Motta,addr:suburb:Centro,amenity:bank,atm:yes,brand:Bradesco,brand:wikidata:Q806181,brand:wikipedia:en:Banco Bradesco","lat":-23.284034,"lng":-47.672066},{"id":"3859913181","name":"Santander","tags":"addr:street:Avenida Coronel Eugênio Motta,amenity:bank,atm:yes,brand:Santander,brand:wikidata:Q5835668,brand:wikipedia:en:Santander Bank","lat":-23.2837662,"lng":-47.6716852},{"id":"3927505670","name":"Banco 24 Horas","tags":"amenity:atm,drive_through:no,network:Banco 24H","lat":-23.3256435,"lng":-47.5656522},{"id":"3927509390","tags":"amenity:cafe","lat":-23.3354315,"lng":-47.5460601},{"id":"4307731730","name":"Correios","tags":"amenity:post_office,brand:Correios,brand:wikidata:Q3375004,brand:wikipedia:en:Correios,operator:Correios,operator:wikidata:Q3375004","lat":-23.2848174,"lng":-47.672037},{"id":"5026833895","name":"Colégio Anglo","tags":"amenity:school","lat":-23.2885087,"lng":-47.6503344},{"id":"5363365629","tags":"leisure:park","lat":-23.375046,"lng":-47.7915578},{"id":"5778232510","name":"Santander","tags":"amenity:bank,atm:yes","lat":-23.3519353,"lng":-47.6938541},{"id":"5778232516","name":"Banco do Brasil","tags":"amenity:bank,atm:yes,brand:Banco do Brasil,brand:wikidata:Q610817,brand:wikipedia:en:Banco do Brasil","lat":-23.3494365,"lng":-47.689742},{"id":"5778232517","name":"Santander","tags":"amenity:bank,atm:yes,brand:Santander,brand:wikidata:Q5835668,brand:wikipedia:en:Santander Bank","lat":-23.3500396,"lng":-47.6889168},{"id":"5799966713","name":"Igreja São Benedito","tags":"amenity:place_of_worship,building:church,denomination:roman_catholic,religion:christian","lat":-23.3606015,"lng":-47.5789386},{"id":"6238555170","name":"Escola Maria Aparecida Fernandes Leite","tags":"amenity:school,official_name:Escola Estadual Professora Maria Aparecida Fernandes Leite,operator:Governo do Estado de São Paulo","lat":-23.3184814,"lng":-47.483283},{"id":"6391907779","name":"Igreja Santa Cruz","tags":"amenity:place_of_worship,building:church,denomination:roman_catholic,religion:christian","lat":-23.3563441,"lng":-47.6044491},{"id":"6391933439","name":"Igreja São Cristóvão","tags":"amenity:place_of_worship,building:church,denomination:roman_catholic,religion:christian","lat":-23.3357197,"lng":-47.5996399},{"id":"6403429432","name":"Pesqueiro e Restaurante Micaxu","tags":"addr:street:Avenida Antônio Ângelo Amadio,amenity:restaurant,contact:facebook:https://www.facebook.com/Pesqueiro-e-Restaurante-Micaxu-196731613696840/,cuisine:regional,phone:+55 15 3363 4101","lat":-23.2963117,"lng":-47.668541},{"id":"6810265508","name":"NineSport","tags":"leisure:fitness_centre","lat":-23.2831196,"lng":-47.6691879},{"id":"6810265509","name":"Mania de Bicho","tags":"addr:street:Avenida Coronel Eugênio Motta,shop:pet","lat":-23.2830542,"lng":-47.6689541},{"id":"7643186938","name":"Recanto Das Araras","tags":"addr:city:Porto Feliz,addr:housenumber:7666-7926,addr:postcode:18540-000,addr:street:Rodovia Marechal Rondon,amenity:restaurant,description:Restaurante,phone:+55 15 3261 3876","lat":-23.2310823,"lng":-47.5316926},{"id":"7799489014","name":"Museu das Monções","tags":"addr:city:Porto Feliz,addr:housenumber:82,addr:street:Praça Coronel Esmédio,museum:local,official_name:Museu Histórico e Pedagógico das Monções,old_name:Museu Histórico e Pedagógico das Monções Romeu Castelucci,start_date:1963,tourism:museum,wikidata:Q84924606,wikipedia:pt:Museu das Monções","lat":-23.2123869,"lng":-47.5251978},{"id":"8679919034","tags":"leisure:park","lat":-23.352632,"lng":-47.6933047},{"id":"9721506595","name":"Delta Supermercados","tags":"shop:supermarket","lat":-23.2819586,"lng":-47.6747927},{"id":"9727620856","name":"Drogaria São Paulo","tags":"amenity:pharmacy,brand:Drogaria São Paulo,brand:wikidata:Q5308184,dispensing:yes,healthcare:pharmacy","lat":-23.290147,"lng":-47.6796566},{"id":"9764750364","name":"Farma Águia","tags":"addr:city:Boituva,addr:housenumber:249,addr:street:Avenida Alexandrina Bertoldi Vercellino,addr:suburb:Vila Ginasial,amenity:pharmacy,dispensing:yes,healthcare:pharmacy,opening_hours:Mo-Sa 07:30-20:00,phone:+55 15 3263-5400","lat":-23.2827622,"lng":-47.6791038},{"id":"9775294107","name":"Farma Ponte","tags":"amenity:pharmacy,dispensing:yes,healthcare:pharmacy","lat":-23.2833494,"lng":-47.6704354},{"id":"9775294108","name":"Drogasil","tags":"amenity:pharmacy,brand:Drogasil,brand:wikidata:Q5308185,dispensing:yes,healthcare:pharmacy,wheelchair:yes","lat":-23.283976,"lng":-47.6724238}]