[{"id":"495418452","name":"Hospital Mental Psiquiatria","tags":"amenity:hospital,healthcare:hospital","lat":-23.4936943,"lng":-47.402983},{"id":"495418860","name":"Uniso - Universidade de Sorocaba Cidade Universitária","tags":"alt_name:Cidade Universitária Professor Aldo Vannucchi,amenity:university,int_name:Cidade Universitária Professor Aldo Vannucchi,internet_access:yes,operator:Fundação Dom Aguirre,operator:type:religious,website:https://uniso.br/,wikidata:Q10387901","lat":-23.5004388,"lng":-47.3979135},{"id":"496237115","name":"Okay Churrascaria","tags":"amenity:restaurant","lat":-23.492968,"lng":-47.4117953},{"id":"496303640","name":"Hospital Psiquiátrico Teixeira Lima","tags":"amenity:hospital,operator:DESATIVADO","lat":-23.5028386,"lng":-47.4269642},{"id":"2211732464","name":"Padaria Princesinha","tags":"amenity:cafe","lat":-23.4231229,"lng":-47.4134463},{"id":"2211732466","name":"Correios","tags":"amenity:post_office","lat":-23.4225199,"lng":-47.4123681},{"id":"2211732468","name":"Banco do Brasil","tags":"amenity:bank,atm:yes","lat":-23.4238932,"lng":-47.4135268},{"id":"2211732470","name":"Picanha na villa","tags":"addr:housenumber:30,addr:street:Rua Cleide Fonseca Mustafá,amenity:restaurant","lat":-23.421218,"lng":-47.4105684},{"id":"2211732474","name":"Caixa Econômica Federal","tags":"amenity:bank,atm:yes","lat":-23.4209546,"lng":-47.4117082},{"id":"2211732475","name":"Bradesco","tags":"amenity:bank,atm:yes","lat":-23.4211072,"lng":-47.4119014},{"id":"2211732476","name":"Santander","tags":"amenity:bank,atm:yes","lat":-23.420738,"lng":-47.4114347},{"id":"2211732479","name":"Jatão","tags":"amenity:car_wash","lat":-23.4239795,"lng":-47.413771},{"id":"2211732480","name":"Itaú","tags":"amenity:bank,atm:yes","lat":-23.4215108,"lng":-47.4121428},{"id":"2211732487","name":"Padaria Barão do Éden","tags":"amenity:cafe","lat":-23.422675,"lng":-47.4127838},{"id":"2211739587","name":"Polícia Militar Base Comunitária de Segurança João Theodoro, Servir e Proteger","tags":"amenity:police","lat":-23.4178115,"lng":-47.408766},{"id":"2211888603","name":"Pronto Atendimento","tags":"amenity:hospital,emergency:yes","lat":-23.4167704,"lng":-47.4146855},{"id":"2213806823","name":"Churrascaria Recanto do Sul","tags":"amenity:restaurant","lat":-23.4273831,"lng":-47.4144065},{"id":"2213806830","name":"Fogão Mineiro","tags":"amenity:restaurant","lat":-23.4244888,"lng":-47.4138057},{"id":"2213806862","name":"Pizzaria da Rita","tags":"amenity:restaurant","lat":-23.4227512,"lng":-47.4177861},{"id":"2213998921","name":"Continental","tags":"shop:supermarket","lat":-23.4188576,"lng":-47.4132317},{"id":"2213998923","tags":"amenity:pharmacy","lat":-23.4199307,"lng":-47.4166864},{"id":"2213998924","name":"Bom Lugar","tags":"shop:supermarket","lat":-23.4197043,"lng":-47.4164504},{"id":"2214016434","tags":"amenity:pharmacy","lat":-23.4228448,"lng":-47.4128938},{"id":"2214016441","tags":"amenity:pharmacy","lat":-23.423086,"lng":-47.4126202},{"id":"2214016453","tags":"amenity:pharmacy","lat":-23.4185573,"lng":-47.4142832},{"id":"2214046541","name":"OSE COC","tags":"amenity:school","lat":-23.485059,"lng":-47.4386808},{"id":"2214769589","name":"Runa","tags":"amenity:nightclub","lat":-23.4775562,"lng":-47.4216521},{"id":"2539248796","name":"Rancho da Parmegiana","tags":"amenity:restaurant","lat":-23.4176869,"lng":-47.4076922},{"id":"2539249154","tags":"amenity:school","lat":-23.4000138,"lng":-47.3789924},{"id":"2710914936","tags":"amenity:restaurant,capacity:50,cuisine:regional","lat":-23.5070621,"lng":-47.2814282},{"id":"2801496091","name":"Morro do Cruzeiro","tags":"opening_hours:24/7,tourism:attraction","lat":-23.5376234,"lng":-47.1431609},{"id":"3318990963","name":"Bar Siriema","tags":"amenity:bar","lat":-23.4746754,"lng":-47.4556763},{"id":"3684957524","tags":"amenity:restaurant","lat":-23.4202794,"lng":-47.1790439},{"id":"3684958181","tags":"amenity:parking,parking:surface","lat":-23.5128346,"lng":-47.1430422},{"id":"3684958226","tags":"amenity:restaurant","lat":-23.4092505,"lng":-47.2863636},{"id":"3708431660","tags":"leisure:sports_centre,sport:climbing","lat":-23.4208414,"lng":-47.1645779},{"id":"3918748143","name":"Abrigo Saboó","tags":"addr:city:São Roque,addr:housenumber:3801,addr:postcode:18132-680,addr:street:Estrada Turística do Morro do Saboó,addr:suburb:Saboó,amenity:childcare,phone:+55 11 4717 6143","lat":-23.4682714,"lng":-47.1518625},{"id":"3918748145","name":"EMEI Adelina de Castro Boccato","tags":"addr:housenumber:615,addr:street:Avenida Jaboticabal,addr:suburb:Vila Nova São Roque,amenity:school","lat":-23.526933,"lng":-47.154355},{"id":"3918760897","name":"CMEI Alan Kardec","tags":"addr:city:São Roque,addr:housenumber:183,addr:postcode:18134-080,addr:street:Rua Euclides da Cunha,addr:suburb:Parque IX de Julho,amenity:school,phone:+55 11 4712 4548","lat":-23.5260856,"lng":-47.1280465},{"id":"3918770457","name":"CMEI Bairro do Cambará","tags":"addr:city:São Roque,addr:housenumber:300,addr:postcode:18134-190,addr:street:Rua José Henrique da Costa,addr:suburb:Jardim Bela Vista,amenity:school,phone:+55 11 4784 6186","lat":-23.5213744,"lng":-47.1299409},{"id":"3918826354","name":"CMEI Professora Rosalina Villaça Salvetti","tags":"addr:city:São Roque,addr:housenumber:140,addr:postcode:18132-450,addr:street:Rua das Acácias,addr:suburb:Jardim Guaçu,amenity:school,phone:+55 11 4784 5497","lat":-23.5125669,"lng":-47.1421386},{"id":"3927505677","name":"Restaurante Português","tags":"amenity:restaurant,cuisine:portuguese","lat":-23.4298437,"lng":-47.1375392},{"id":"3927510118","tags":"amenity:restaurant","lat":-23.4297984,"lng":-47.1373855},{"id":"3927510124","tags":"shop:convenience","lat":-23.4298334,"lng":-47.1369652},{"id":"3927510129","tags":"amenity:restaurant","lat":-23.4298701,"lng":-47.1372438},{"id":"3958873107","name":"Parque Chico Mendes","tags":"leisure:park","lat":-23.4766653,"lng":-47.4126727},{"id":"4033943837","name":"Sesi Votorantim","tags":"leisure:sports_centre","lat":-23.5362671,"lng":-47.4558085},{"id":"4110681956","name":"AC Carambei","tags":"addr:city:São Roque,addr:housenumber:110,addr:street:Rua Marino Camurça,addr:suburb:Centro,amenity:post_office","lat":-23.5258996,"lng":-47.1332272},{"id":"4110694427","tags":"amenity:bank,brand:HSBC","lat":-23.5297866,"lng":-47.1364227},{"id":"4110694428","name":"Itaú","tags":"amenity:bank,atm:yes,drive_through:no","lat":-23.5310776,"lng":-47.136066},{"id":"4344478789","name":"Supermercado Dia","tags":"addr:housenumber:550,addr:street:Angelo Meneguesso,shop:supermarket","lat":-23.5301828,"lng":-47.1433896},{"id":"4344478889","name":"Supermercado Chimar","tags":"addr:housenumber:340,addr:street:Paulo Dias,phone:(11) 4715-3700,shop:supermarket","lat":-23.5220926,"lng":-47.253883},{"id":"4358199359","name":"Trópico de Capricórnio","tags":"tourism:attraction","lat":-23.4428387,"lng":-47.3837547},{"id":"4361635475","tags":"amenity:hospital","lat":-23.3842122,"lng":-47.3375311},{"id":"4540415191","name":"Dia Supermercado","tags":"name:en:Day Supermarket,name:pt:Dia Supermercado,shop:supermarket","lat":-23.3971534,"lng":-47.3523115},{"id":"4564291694","tags":"shop:supermarket","lat":-23.3895784,"lng":-47.3435273},{"id":"4569336432","name":"EE Mercia Maria Cazarini","tags":"amenity:school","lat":-23.4060362,"lng":-47.3509197},{"id":"4575243998","name":"Bar do Lagoa","tags":"addr:housenumber:47,addr:postcode:13308503,addr:street:Rua Petronilia Faião Nogueira,amenity:bar,opening_hours:Mo-Sa 08:00-21:00; Su 09:00-18:00","lat":-23.3982419,"lng":-47.3511544},{"id":"4811325453","name":"Ski Mountain Park","tags":"leisure:park","lat":-23.5039981,"lng":-47.1161157},{"id":"4904078088","name":"Clínica Grupo Vida","tags":"addr:city:Sorocaba,addr:housenumber:2160,addr:street:Estrada do Imperio,addr:suburb:Bairro Genebra,amenity:hospital","lat":-23.4981551,"lng":-47.333694},{"id":"4918883766","name":"Bar do Luizinho","tags":"amenity:bar,name:pt:Bar do luizinho. Rua benedito pires para baixo e luis pires a direita","lat":-23.5270557,"lng":-47.3356327},{"id":"5012948863","tags":"addr:city:Alumínio,addr:country:BR,addr:housenumber:66,addr:street:Rua Hamilton Morati,addr:suburb:Vila Santa Luzia,amenity:post_office,opening_hours:Mo-Fr 08:00-17:00; Sa-Su,PH off,phone:+55 11 4715 1022","lat":-23.5308648,"lng":-47.2543108},{"id":"5012955617","name":"Delegacia de Polícia de Alumíno","tags":"addr:city:Alumínio,addr:housenumber:152,addr:street:Rua José Maria Borges,amenity:police","lat":-23.5357124,"lng":-47.257895},{"id":"5012955618","name":"1º Grupamento da 1ª Companhia da Polícia Militar de Alumínio","tags":"addr:city:Alumínio,addr:housenumber:48,addr:postcode:18125-000,addr:street:Rua Paula Souza,amenity:police","lat":-23.5359362,"lng":-47.2591019},{"id":"5162117531","name":"Terminal Intermunicipal \"Alcides de Souza\"","tags":"amenity:bus_station,bus:yes,public_transport:station","lat":-23.5321827,"lng":-47.1319122},{"id":"5267926095","name":"Árvore Central","tags":"leisure:park","lat":-23.4951485,"lng":-47.4342466},{"id":"5269338870","name":"EMEF Barão de Piratininga","tags":"amenity:school","lat":-23.5217166,"lng":-47.1298531},{"id":"5269338871","name":"Colégio Objetivo São Roque","tags":"amenity:school","lat":-23.5265073,"lng":-47.1318058},{"id":"5352548847","name":"Mata da Câmara","tags":"leisure:park","lat":-23.527054,"lng":-47.1143714},{"id":"5355078475","name":"Itaú","tags":"amenity:bank,atm:yes,building:levels:1","lat":-23.5332043,"lng":-47.1367709},{"id":"5362736432","name":"Parque dos espanhóis","tags":"leisure:park","lat":-23.5146725,"lng":-47.4445193},{"id":"5375408512","name":"Bar El Patrone","tags":"amenity:bar","lat":-23.4944969,"lng":-47.4342422},{"id":"5375408513","name":"Bar do Salles","tags":"amenity:bar","lat":-23.495648,"lng":-47.4336224},{"id":"5375408514","name":"Bardolino","tags":"amenity:bar","lat":-23.4951844,"lng":-47.4349715},{"id":"5375408515","name":"Bar Triangulo","tags":"amenity:bar","lat":-23.495631,"lng":-47.4361904},{"id":"5375408516","name":"Mercadinho Familiar","tags":"shop:supermarket","lat":-23.4958316,"lng":-47.4362859},{"id":"5375408518","name":"Dia","tags":"brand:Dia,brand:wikidata:Q925132,brand:wikipedia:es:Supermercados DIA,shop:supermarket","lat":-23.4957404,"lng":-47.439767},{"id":"5375408721","name":"Itaú","tags":"addr:street:Avenida São Paulo,addr:suburb:Árvore Grande,amenity:bank,atm:yes,brand:Itaú Unibanco,brand:wikidata:Q1424293,brand:wikipedia:pt:Itaú Unibanco,drive_through:no","lat":-23.4978188,"lng":-47.4418857},{"id":"5375408722","name":"Bradesco","tags":"addr:street:Avenida São Paulo,addr:suburb:Árvore Grande,amenity:bank,atm:yes,brand:Bradesco,brand:wikidata:Q806181,brand:wikipedia:en:Banco Bradesco,drive_through:no","lat":-23.4981314,"lng":-47.4429878},{"id":"5375408723","name":"Caixa Econômica Federal","tags":"addr:street:Avenida São Paulo,addr:suburb:Árvore Grande,amenity:bank,atm:yes,brand:Caixa Econômica Federal,brand:wikidata:Q835283,brand:wikipedia:pt:Caixa Econômica Federal,drive_through:no,operator:Caixa Economica Federal","lat":-23.4981486,"lng":-47.4431419},{"id":"5375408724","name":"Banco Santander","tags":"addr:street:Avenida São Paulo,addr:suburb:Árvore Grande,amenity:bank,atm:yes,brand:Banco Santander,brand:en:Santander Bank,brand:es:Banco Santander,brand:wikidata:Q6496310,brand:wikipedia:es:Banco Santander,drive_through:no,name:en:Santander Bank,name:es:Banco Santander,official_name:Santander Group","lat":-23.4982642,"lng":-47.4434174},{"id":"5375408725","name":"Chimarrão Grill","tags":"amenity:restaurant","lat":-23.4931827,"lng":-47.4358213},{"id":"6005248704","tags":"amenity:police,police:traffic_police","lat":-23.5145673,"lng":-47.268852},{"id":"6279631231","tags":"amenity:atm,cash_in:no,currency:BRL:yes,operator:Banco 24 Horas","lat":-23.496436,"lng":-47.4599992},{"id":"6281311593","tags":"amenity:school","lat":-23.390168,"lng":-47.1687286},{"id":"6400601563","name":"Floresta Cultural","tags":"leisure:park","lat":-23.5006011,"lng":-47.4250909},{"id":"6450734873","name":"Portal","tags":"tourism:attraction","lat":-23.5125611,"lng":-47.142856},{"id":"6885556712","name":"Instituto Federal de São Paulo","tags":"addr:housenumber:300,addr:street:Rua Carlota Fiel Carnelos,amenity:university,level:1,website:http://sor.ifsp.edu.br/","lat":-23.4885697,"lng":-47.4445395},{"id":"7133973770","tags":"amenity:parking","lat":-23.3864003,"lng":-47.3414703},{"id":"7215458042","name":"Fab LAB Facens","tags":"amenity:university,website:https://fablab.facens.br/","lat":-23.4697164,"lng":-47.430307},{"id":"7251359531","name":"ampm","tags":"brand:ampm,brand:wikidata:Q306960,brand:wikipedia:en:Ampm,shop:convenience","lat":-23.4555044,"lng":-47.4182193},{"id":"7554411720","name":"Biblioteca Regional do Pirapitingui","tags":"amenity:library,operator:Subprefeitura Regional do Pirapitingui,operator:type:public","lat":-23.3869327,"lng":-47.3411252},{"id":"7554411724","name":"4º Distrito Policial de Itu","tags":"amenity:police,operator:Polícia Civil do Estado de São Paulo,short_name:4º DP Itu","lat":-23.3870529,"lng":-47.3410774},{"id":"7966772090","tags":"amenity:atm,operator:Banco 24 Horas","lat":-23.4910369,"lng":-47.444564},{"id":"7970979739","tags":"amenity:atm,cash_in:no,currency:BRL:yes,operator:Banco 24 Horas","lat":-23.4966237,"lng":-47.4608536},{"id":"7972076716","name":"Livraria Atlântica","tags":"shop:books","lat":-23.4963816,"lng":-47.4607798},{"id":"7972076717","name":"Pizza Hut","tags":"amenity:restaurant,brand:Pizza Hut,brand:wikidata:Q191615,brand:wikipedia:en:Pizza Hut,cuisine:pizza","lat":-23.4964673,"lng":-47.4609127},{"id":"8327965344","name":"3ª CIa - Polícia Florestal","tags":"amenity:police","lat":-23.4753513,"lng":-47.4120535},{"id":"8394282122","name":"Smart Fit","tags":"brand:Smart Fit,brand:wikidata:Q30930959,brand:wikipedia:pt:Smart Fit,leisure:fitness_centre,level:4","lat":-23.4969027,"lng":-47.4589552},{"id":"8395907869","name":"Drogaria Extra Santa Rosália","tags":"amenity:pharmacy,dispensing:yes,healthcare:pharmacy,operator:GPA - Grupo Pão de Açucar","lat":-23.4898832,"lng":-47.4445206},{"id":"8430692068","name":"Lollos Extra Santa Rosália","tags":"amenity:restaurant","lat":-23.4895244,"lng":-47.444451},{"id":"8430692069","name":"Star Chicken","tags":"amenity:restaurant","lat":-23.4893518,"lng":-47.4445008},{"id":"8430692070","name":"Waoo Culinária Oriental","tags":"amenity:restaurant,cuisine:japanese","lat":-23.489326,"lng":-47.4448255},{"id":"8430692071","name":"Griletto Extra Santa Rosália","tags":"amenity:restaurant","lat":-23.4893256,"lng":-47.4446779},{"id":"8430692072","name":"Selfit Academia Santa Rosália","tags":"addr:city:Sorocaba,addr:housenumber:164,addr:postcode:18095-490,addr:street:Rua Maria Cinto de Biaggi,addr:suburb:Jardim Santa Rosália,leisure:fitness_centre,opening_hours:Mo-Fr 06:00-13:00,17:00-22:00; Sa 08:00-14:00","lat":-23.4894612,"lng":-47.4451015},{"id":"8432260031","name":"Toninho Estacionamento","tags":"amenity:parking","lat":-23.4975091,"lng":-47.454874},{"id":"8432260032","name":"Boulevard Estacionamento","tags":"addr:city:Sorocaba,addr:housenumber:427,addr:postcode:18010-320,addr:street:Rua Souza Pereira,addr:suburb:Centro,amenity:parking,phone:+55 15 3224-4535","lat":-23.4976021,"lng":-47.4548273},{"id":"8432260033","name":"Farmácia Newman","tags":"addr:city:Sorocaba,addr:suburb:Centro,amenity:pharmacy,dispensing:yes,healthcare:pharmacy,opening_hours:Mo-Sa 10:00-21:00; Su 10:00-20:00,phone:+55 15 3224-3851;+55 15 97402-2876","lat":-23.4973583,"lng":-47.4549812},{"id":"8437126974","name":"Banco do Brasil","tags":"amenity:bank,brand:Banco do Brasil,brand:wikidata:Q610817,brand:wikipedia:en:Banco do Brasil","lat":-23.5001207,"lng":-47.4549322},{"id":"8446284400","name":"Drogaria e Perfumaria Distrital","tags":"amenity:pharmacy,dispensing:yes,healthcare:pharmacy,opening_hours:Tu-Sa 08:00-19:00; Su 07:00-12:00,payment:caixatem:yes,payment:cash:yes,payment:credit_cards:yes,payment:debit_cards:yes,phone:+55 15 3231-0777;+55 15 3231-7797;+55 15 98150-0124","lat":-23.4800155,"lng":-47.4608496},{"id":"8451531971","name":"Farmamed Drogaria","tags":"amenity:pharmacy,dispensing:yes,healthcare:pharmacy,level:1","lat":-23.4788447,"lng":-47.4551042},{"id":"8459655340","name":"Paulistão Supermercados","tags":"opening_hours:Mo-Su 08:00-21:00,phone:+55 15 3211-3141,shop:supermarket","lat":-23.5070397,"lng":-47.4565586},{"id":"8459868349","tags":"amenity:atm,level:1,operator:24 Horas","lat":-23.4787198,"lng":-47.4551832},{"id":"8484554006","name":"Due Restaurante e Café","tags":"amenity:restaurant","lat":-23.4893549,"lng":-47.4445879},{"id":"8484554009","name":"Milanetto","tags":"amenity:restaurant","lat":-23.4893239,"lng":-47.4447467},{"id":"8939374557","name":"Pastel do Japonês","tags":"amenity:restaurant","lat":-23.4962573,"lng":-47.4592183},{"id":"8939374559","name":"Coxinha Real","tags":"amenity:restaurant","lat":-23.4964673,"lng":-47.4601017},{"id":"9060560574","name":"Sport Life","tags":"leisure:fitness_centre","lat":-23.4725363,"lng":-47.4549976},{"id":"9151394005","name":"Estacionamento limpeza de automóveis","tags":"access:yes,addr:city:Sorocaba,addr:postcode:18035-085,addr:street:Rua Brigadeiros Tobias,addr:suburb:Centro,amenity:car_wash,automated:no,capacity:15,capacity:disabled:0,fee:yes,opening_hours:Mo-Sa 09:00-20:00,opening_hours:covid19:open,operator:Desconhecido,parking:surface,payment:cash:yes,payment:coins:yes,payment:credit_cards:yes,self_service:no","lat":-23.5029732,"lng":-47.4557541},{"id":"9156761680","name":"Espaço Notre Life 50+","tags":"addr:city:Sorocaba,addr:housenumber:86,addr:postcode:18010-082,addr:street:Rua Quinze de Novembro,addr:suburb:Centro,amenity:hospital,building:levels:2,healthcare:hospital,height:6","lat":-23.5018036,"lng":-47.4530142},{"id":"9156761789","tags":"amenity:parking","lat":-23.5037447,"lng":-47.4563765},{"id":"9158475942","name":"Santander","tags":"addr:city:Sorocaba,addr:street:Rua Quinze de Novembro,addr:suburb:Centro,amenity:bank","lat":-23.5007512,"lng":-47.4548725},{"id":"9158475952","name":"Sicredi","tags":"addr:city:Sorocaba,addr:street:Rua Quinze de Novembro,addr:suburb:Centro,amenity:bank,atm:yes,brand:Sicredi,brand:wikidata:Q3483060,brand:wikipedia:pt:Sistema de Crédito Cooperativo","lat":-23.5006757,"lng":-47.4543867},{"id":"9159100387","name":"Praça Frei Barauna","tags":"leisure:park","lat":-23.5029112,"lng":-47.4607609},{"id":"9159601489","tags":"amenity:parking","lat":-23.5016871,"lng":-47.4597045},{"id":"9159629990","name":"Bradesco","tags":"amenity:bank","lat":-23.5013428,"lng":-47.4600458},{"id":"9519209917","name":"Rancho da Costela","tags":"addr:housenumber:25,addr:postcode:18085-340,addr:street:Rua Cabreúva,amenity:restaurant,opening_hours:Mo-Su 11:00-15:00,phone:(15)99603-9149","lat":-23.4755083,"lng":-47.4418462},{"id":"9852352092","name":"Ultrafarma Popular Avenida São Paulo","tags":"amenity:pharmacy,dispensing:yes,healthcare:pharmacy","lat":-23.4973923,"lng":-47.4409885},{"id":"9902660169","name":"Farmamed","tags":"amenity:pharmacy,dispensing:yes,healthcare:pharmacy","lat":-23.542659,"lng":-47.4475733},{"id":"9921759293","name":"Assaí Atacadista","tags":"brand:Assaí Atacadista,brand:wikidata:Q28679415,shop:supermarket","lat":-23.5281801,"lng":-47.4529735},{"id":"9994159994","name":"Realce Cia Institute","tags":"addr:city:São Roque,addr:housenumber:388 A,addr:postcode:18134240,addr:street:Avenida Anhanguera,addr:suburb:Jardim Bandeirantes,beauty:cosmetics;waxing;hair,opening_hours:Mo-Su 09:00-18:00,payment:american_express:yes,payment:credit_cards:yes,payment:maestro:yes,payment:mastercard:yes,payment:visa:yes,phone:+55 11 97421-8187,shop:beauty","lat":-23.521918,"lng":-47.1322789},{"id":"10007216755","name":"Estádio municipal C.I.C","tags":"description:PONTO DE INTERESSE,leisure:park","lat":-23.4893941,"lng":-47.4489715},{"id":"10007216757","name":"Colégio Santa Escolática","tags":"amenity:school,description:PONTO DE INTERESSE","lat":-23.4976489,"lng":-47.4531623},{"id":"10007216759","name":"Hospital Santa casa de misericórdia de Sorocaba","tags":"amenity:hospital,description:Ponto de interesse,healthcare:hospital","lat":-23.4993253,"lng":-47.4442811},{"id":"10007216754","name":"Praça da amizade","tags":"description:PONTO DE INTERESSE,leisure:park","lat":-23.4914416,"lng":-47.4480019},{"id":"10007374792","tags":"amenity:car_wash","lat":-23.4916793,"lng":-47.4513758},{"id":"10007374793","tags":"leisure:fitness_centre","lat":-23.4917432,"lng":-47.4512195},{"id":"10007374796","tags":"shop:beauty","lat":-23.492109,"lng":-47.4486412},{"id":"10007374799","tags":"amenity:bar","lat":-23.4920144,"lng":-47.4500537},{"id":"10007374800","tags":"amenity:restaurant","lat":-23.4915358,"lng":-47.4515917},{"id":"10007374801","tags":"amenity:restaurant","lat":-23.4914669,"lng":-47.4517741},{"id":"10007374802","tags":"amenity:restaurant,cuisine:pizza","lat":-23.4914197,"lng":-47.4519072},{"id":"10007379298","tags":"leisure:fitness_centre,sport:yoga","lat":-23.4907716,"lng":-47.4511236}]