[{"id":"2016457550","name":"AFPS, Clube Náutico Guarapiranga","tags":"leisure:sports_centre","lat":-23.7457637,"lng":-46.7744423},{"id":"4659481291","name":"Praia dedo de Deus","tags":"amenity:school,name:pt:Praia dedo de Deus","lat":-23.7526235,"lng":-46.768011},{"id":"4771209941","name":"Usina Solar","tags":"name:pt:Usina Solar,tourism:attraction","lat":-23.7949981,"lng":-47.0835157},{"id":"5830911877","name":"Bar da Trilha","tags":"amenity:bar","lat":-23.7676861,"lng":-47.0115276},{"id":"7804727445","name":"Escola Estadual Dom Agnelo Cardeal Rossi","tags":"amenity:school","lat":-23.7425171,"lng":-46.7827177},{"id":"7804727447","name":"Escola Estadual Amélia Kerr Nogueira","tags":"amenity:school","lat":-23.7412299,"lng":-46.7820345},{"id":"8657135735","name":"Selva Bar","tags":"addr:street:Rodovia Prefeito Bento Rotger Domingues,addr:suburb:Mombaça,amenity:bar","lat":-23.7720747,"lng":-46.8375126},{"id":"8930931848","tags":"amenity:atm,cash_in:no,currency:BRL:yes,drive_through:no,network:Banco24H,operator:Banco24H","lat":-23.7633559,"lng":-46.9071608},{"id":"8942425640","name":"Tem Farma","tags":"addr:street:Rua Maria Sayeg,addr:suburb:Jardim das Oliveiras,amenity:pharmacy,dispensing:yes,healthcare:pharmacy,phone:+55 11 4669 1248","lat":-23.7576315,"lng":-46.8088495},{"id":"8942628557","name":"Tem Farmácia","tags":"addr:street:Rua Solimões,addr:suburb:Cidade Santa Júlia,amenity:pharmacy,dispensing:yes,healthcare:pharmacy","lat":-23.7564183,"lng":-46.807336},{"id":"9178746656","name":"E.E.E.F.(R) Bairro do Olinto","tags":"amenity:school","lat":-23.7397743,"lng":-47.1049513},{"id":"9677759369","name":"Drogaria São Paulo","tags":"addr:postcode:06900-000,addr:street:Rua Coronel Luiz Tenório de Brito,addr:suburb:Centro,amenity:pharmacy,brand:Drogaria São Paulo,brand:wikidata:Q5308184,brand:wikipedia:en:Grupo DPSP,dispensing:yes,drive_through:no,healthcare:pharmacy,opening_hours:Mo-Su,PH  07:00-23:00","lat":-23.8299167,"lng":-46.8123743},{"id":"9677759376","name":"Droga Délia","tags":"addr:postcode:06900-000,addr:street:Rua Coronel Luiz Tenório de Brito,addr:suburb:Centro,amenity:pharmacy,contact:mobile:+55 11 94593 2407,delivery:yes,dispensing:yes,drive_through:no,healthcare:pharmacy,phone:+55 11 4662 5595","lat":-23.8295526,"lng":-46.8126177},{"id":"9678316960","name":"Cipó Rações","tags":"addr:housenumber:128,addr:street:Rua José Nogueira,phone:+55 11 4663 1036,shop:pet","lat":-23.8784137,"lng":-46.7917982}]