[{"id":"1230158002","name":"Correios","tags":"addr:city:Franco da Rocha,addr:postcode:07851-040,addr:street:Avenida Sete de Setembro,addr:suburb:Centro,amenity:post_office,brand:Correios,brand:wikidata:Q3375004,brand:wikipedia:en:Correios,operator:Correios","lat":-23.3248815,"lng":-46.7231674},{"id":"1230158074","name":"Pronto Socorro","tags":"amenity:hospital,emergency:yes,healthcare:hospital","lat":-23.3380057,"lng":-46.7301309},{"id":"1230209035","tags":"leisure:sports_centre","lat":-23.3564007,"lng":-46.7414844},{"id":"1230241924","tags":"shop:convenience","lat":-23.3308877,"lng":-46.7294778},{"id":"1232023372","tags":"amenity:atm","lat":-23.3322076,"lng":-46.7272834},{"id":"2288240748","name":"Polícia Militar","tags":"amenity:police,wheelchair:limited","lat":-23.3652733,"lng":-46.7499121},{"id":"2288244493","tags":"leisure:sports_centre","lat":-23.364899,"lng":-46.7444833},{"id":"2288244496","name":"Caixa Economica Federal","tags":"amenity:bank,atm:yes","lat":-23.3626975,"lng":-46.7470444},{"id":"2288245845","name":"Supermercado Federzoni","tags":"shop:supermarket,wheelchair:limited","lat":-23.362591,"lng":-46.7474326},{"id":"2288246246","name":"Banco Itaú","tags":"amenity:bank,atm:yes,wheelchair:yes","lat":-23.3634263,"lng":-46.7478732},{"id":"2288248396","name":"Banco Bradesco","tags":"amenity:bank,atm:yes","lat":-23.3608608,"lng":-46.7457493},{"id":"2288249066","tags":"amenity:bar","lat":-23.3626534,"lng":-46.7466076},{"id":"2288262959","name":"Terminal Rodoviário Aliío Marinho","tags":"amenity:bus_station,loc_name:Terminal de Caieiras,toilets:wheelchair:no,wheelchair:yes","lat":-23.3661447,"lng":-46.7509926},{"id":"2288268490","name":"HSBC","tags":"amenity:bank,atm:yes","lat":-23.3621853,"lng":-46.7468432},{"id":"2437630211","name":"Bar do Pedrão","tags":"addr:housenumber:Km, 6,addr:postcode:07600-000,addr:street:Estrada da Roseira,amenity:bar","lat":-23.3657383,"lng":-46.6158612},{"id":"2460841919","name":"Bartheu","tags":"amenity:restaurant","lat":-23.320984,"lng":-46.5952414},{"id":"2472886599","name":"Farmácia Popular","tags":"amenity:pharmacy,dispensing:no","lat":-23.3196389,"lng":-46.5864776},{"id":"2499959454","tags":"amenity:parking,parking:surface","lat":-23.3217902,"lng":-46.5859735},{"id":"2870668429","tags":"addr:city:Francisco Morato,addr:housenumber:154,addr:street:Rua Amparo,shop:supermarket,wheelchair:no","lat":-23.2951632,"lng":-46.7391839},{"id":"4461114421","name":"Terminal Central Leste","tags":"amenity:bus_station,bench:yes,covered:yes,shelter:yes","lat":-23.3283046,"lng":-46.7254125},{"id":"4465097829","name":"Caieiras","tags":"public_transport:station,railway:station,toilets:wheelchair:no,train:yes,wheelchair:yes,wikidata:Q5556392","lat":-23.3661489,"lng":-46.7516528},{"id":"4465142886","name":"Baltazar Fidélis","tags":"public_transport:station,railway:station,train:yes,wikidata:Q8778904","lat":-23.3101238,"lng":-46.7233434},{"id":"4467119634","name":"Francisco Morato","tags":"public_transport:station,railway:station,train:yes","lat":-23.2820771,"lng":-46.7424456},{"id":"4509180519","name":"Sushi Garden","tags":"addr:city:Mairiporã,addr:street:Avenida Tabelião Passarela,addr:suburb:Centro,amenity:restaurant,cuisine:japanese","lat":-23.3178783,"lng":-46.5843073},{"id":"4760955396","tags":"amenity:school","lat":-23.2622909,"lng":-46.7440312},{"id":"4876032377","name":"Minibox São Carlos","tags":"addr:street:Rua José Nicodemo,shop:supermarket","lat":-23.3212603,"lng":-46.7333799},{"id":"4876118352","tags":"amenity:parking,parking:surface,surface:asphalt","lat":-23.3335824,"lng":-46.7257513},{"id":"4876159949","tags":"amenity:post_office","lat":-23.3292782,"lng":-46.7272974},{"id":"4876159956","tags":"addr:city:Franco da Rocha,addr:street:Rua Enest Steinkopoff,addr:suburb:Centro,amenity:restaurant,cuisine:regional","lat":-23.3292117,"lng":-46.7271177},{"id":"4876316463","name":"Bifarma","tags":"addr:city:Franco da Rocha,addr:housenumber:183,addr:postcode:07850-310,addr:street:Calçadão Amália Sestine,addr:suburb:Centro,amenity:pharmacy,dispensing:yes,drive_through:no,healthcare:pharmacy,phone:+55 11 4449 4841","lat":-23.327658,"lng":-46.7260228},{"id":"4876380708","name":"Drogasil","tags":"addr:city:Franco da Rocha,addr:housenumber:201,addr:postcode:07802-260,addr:street:Calçadão Amália Sestine,amenity:pharmacy,brand:Drogasil,brand:wikidata:Q5308185,brand:wikipedia:pt:Drogasil,dispensing:yes,healthcare:pharmacy,opening_hours:Mo-Su 07:00-23:00,wheelchair:yes","lat":-23.3275261,"lng":-46.7259407},{"id":"4876425585","name":"Caixa Econômica Federal","tags":"addr:city:Franco da Rocha,addr:street:Rua Doutor Hamilton Prado,amenity:bank","lat":-23.3224825,"lng":-46.7246131},{"id":"5177409862","name":"ESETEC Brasil","tags":"addr:city:Franco da Rocha,amenity:school","lat":-23.3299837,"lng":-46.7255693},{"id":"5629667057","name":"Farma","tags":"addr:city:Mairiporã,addr:street:Avenida Tabelião Passarela,addr:suburb:Centro,amenity:pharmacy,dispensing:yes,healthcare:pharmacy","lat":-23.3186153,"lng":-46.5876123},{"id":"5799454330","name":"Terminal Portão","tags":"amenity:bus_station,bus:yes,public_transport:station","lat":-23.216723,"lng":-46.5941433},{"id":"6025314702","name":"Maravilhas do Milho Verde","tags":"amenity:restaurant,cuisine:regional","lat":-23.3283657,"lng":-46.7269333},{"id":"6025314704","name":"Parmeggio","tags":"amenity:restaurant,cuisine:italian","lat":-23.3283731,"lng":-46.7268582},{"id":"6025314741","name":"Bifarma","tags":"amenity:pharmacy,dispensing:yes,healthcare:pharmacy","lat":-23.3290267,"lng":-46.7254749},{"id":"6025314742","name":"Bifarma","tags":"amenity:pharmacy,dispensing:yes,healthcare:pharmacy","lat":-23.3288912,"lng":-46.7253489},{"id":"6025314751","name":"Bifarma","tags":"amenity:pharmacy,dispensing:yes,healthcare:pharmacy","lat":-23.3304684,"lng":-46.7260282},{"id":"6206058849","name":"Praça Nossa Senhora de Fátima","tags":"leisure:park","lat":-23.332872,"lng":-46.708409},{"id":"6264764014","name":"Fazenda Paraíso","tags":"amenity:restaurant","lat":-23.2172289,"lng":-46.6180844},{"id":"6291999315","name":"Escola Municipal Leonardo da Vinci","tags":"addr:housenumber:130,addr:postcode:07953-130,addr:street:Rua Anísio Anacleto da Cruz,addr:suburb:Vassouras,amenity:school,contact:phone:+55 11 4489 2034,phone:+55 11 4488 9462","lat":-23.277861,"lng":-46.7292343},{"id":"6298071343","tags":"shop:convenience","lat":-23.2764621,"lng":-46.7455005},{"id":"6298336680","tags":"amenity:car_wash","lat":-23.280619,"lng":-46.745057},{"id":"6298336681","tags":"shop:convenience","lat":-23.2805007,"lng":-46.7449765},{"id":"6306172070","tags":"addr:housenumber:2170,addr:street:Rodovia Presidente Tancredo de Almeida Neves,amenity:atm,cash_in:no,currency:BRL:yes,drive_through:no,operator:Banco24Horas","lat":-23.3507503,"lng":-46.7436095},{"id":"6306829017","name":"Restaurante e Lanchonete JD","tags":"addr:street:Trevo Franco da Rocha,amenity:restaurant,contact:phone:+55 11 4442 3326,cuisine:regional;burger;sandwich,delivery:yes,outdoor_seating:no,phone:+55 11 4605 2010","lat":-23.3416039,"lng":-46.743177},{"id":"6306891316","tags":"amenity:atm,cash_in:no,currency:BRL:yes,operator:Banco24Horas","lat":-23.3521018,"lng":-46.7443392},{"id":"6306929033","tags":"shop:convenience","lat":-23.3511122,"lng":-46.7438725},{"id":"6329702133","name":"Banco do Brasil","tags":"addr:street:Avenida Cavalheiro Angelo Sestini,amenity:bank,brand:Banco do Brasil,brand:wikidata:Q610817,brand:wikipedia:en:Banco do Brasil","lat":-23.3286393,"lng":-46.7252658},{"id":"6329753252","name":"Biblioteca Municipal Caio Graco da Silva Prado","tags":"addr:street:Avenida dos Coqueiros,amenity:library,operator:Secretaria da Educação , Cultura , Esporte e Lazer","lat":-23.3311674,"lng":-46.72667},{"id":"6379836707","name":"Irmãos unidos","tags":"brand:Irmãos Unidos,shop:supermarket","lat":-23.3743258,"lng":-46.7504883},{"id":"6407576376","name":"Droga Sol","tags":"amenity:pharmacy,dispensing:yes,healthcare:pharmacy","lat":-23.3189761,"lng":-46.5855778},{"id":"6407576380","name":"ampm","tags":"brand:ampm,brand:wikidata:Q306960,brand:wikipedia:en:Ampm,shop:convenience","lat":-23.3180445,"lng":-46.5833183},{"id":"6423982156","tags":"amenity:atm,cash_in:no,currency:BRL:yes,drive_through:no,operator:Banco 24Horas","lat":-23.3202098,"lng":-46.7080784},{"id":"6666778888","name":"Franco da Rocha","tags":"network:CPTM,public_transport:station,railway:station,train:yes","lat":-23.3297902,"lng":-46.7264054},{"id":"7620828107","tags":"shop:convenience","lat":-23.2372164,"lng":-46.6258482},{"id":"7995346860","tags":"amenity:atm,cash_in:no,currency:BRL:yes,drive_through:no,network:Banco 24H,operator:Banco 24h","lat":-23.3301417,"lng":-46.7149673},{"id":"8011214393","name":"Praça Caetano Campos","tags":"leisure:park","lat":-23.2764509,"lng":-46.7476026},{"id":"8017199592","name":"Escola Municipal de Educação Básica Cecilia Meireles","tags":"addr:postcode:07803-000,addr:street:Rua Saturnino Gomes de Sá,addr:suburb:Parque Paulista,amenity:school,email:emebceciliameireles@francodarocha.sp.gov.br,grades:0-6,phone:+55 11 4800 7509,religion:none,short_name:EMEB Cecilia Meireles","lat":-23.3057593,"lng":-46.7341392},{"id":"8017199593","name":"Escola Municipal de Educação Básica Mario Quintana","tags":"addr:postcode:07844-150,addr:street:Avenida São Paulo,addr:suburb:Parque Paulista,amenity:school,grades:1-7,phone:+55 11 4800 7542,religion:none,short_name:EMEB Mario Quintana","lat":-23.3059571,"lng":-46.7341816},{"id":"8038474660","name":"Bifarma","tags":"addr:street:Avenida Princesa Isabel,amenity:pharmacy,dispensing:yes,healthcare:pharmacy,website:https://www.bifarma.com.br/","lat":-23.2637341,"lng":-46.7442372},{"id":"8091693319","name":"Mercearia e Bar Leopoldina","tags":"shop:supermarket","lat":-23.336362,"lng":-46.4625737},{"id":"8156540003","name":"26º Batalhão de Polícia Militar","tags":"amenity:police","lat":-23.3533072,"lng":-46.7370483},{"id":"8286734798","name":"Ipanema Supermercado","tags":"addr:street:Avenida São Paulo,shop:supermarket","lat":-23.3215873,"lng":-46.5827183},{"id":"8286734799","tags":"addr:street:Avenida São Paulo,addr:suburb:Centro,amenity:car_wash","lat":-23.3209847,"lng":-46.5828012},{"id":"8300754759","name":"Mercado Rafael","tags":"addr:city:Franco da Rocha,addr:housenumber:856-910,addr:postcode:07866-260,addr:street:Rua Guarará,addr:suburb:Estância Lago Azul,shop:supermarket","lat":-23.3008312,"lng":-46.7056635},{"id":"8301441031","name":"Praça Denise Silvana Santana","tags":"addr:street:Rua Luzia Rizzo Pesente,addr:suburb:Vila Teresa,leisure:park","lat":-23.3346683,"lng":-46.7555857},{"id":"8630702048","name":"Escola Takamichi Uenojo","tags":"amenity:school","lat":-23.2587821,"lng":-46.6061169},{"id":"8630702049","tags":"amenity:school","lat":-23.2597474,"lng":-46.6032542},{"id":"8758112715","name":"Studio Sarah Rubyy","tags":"addr:city:Mairiporã,addr:housenumber:136,addr:postcode:07600222,addr:street:Rua Guilherme de Almeida,addr:suburb:Jd Leonor,leisure:park","lat":-23.323456,"lng":-46.5927357},{"id":"8968601017","name":"HE Franco da Rocha","tags":"amenity:hospital","lat":-23.3329177,"lng":-46.728056},{"id":"9060654267","name":"Ecopharma","tags":"addr:street:Rua Luzia Ventura Paulino,addr:suburb:Vila dos Pinheiros,amenity:pharmacy,dispensing:yes,healthcare:pharmacy","lat":-23.3356834,"lng":-46.7560937},{"id":"9060991204","name":"Droga Bento","tags":"addr:street:Rua Antônio Teixeira,addr:suburb:Serpa,amenity:pharmacy,dispensing:yes,drive_through:no,healthcare:pharmacy,phone:+55 11 4899 1241","lat":-23.3417176,"lng":-46.7471313},{"id":"9060991205","name":"Mercado Duque","tags":"addr:street:Rua Antônio Teixeira,phone:+55 11 4445 4648,shop:supermarket","lat":-23.3419703,"lng":-46.7473758},{"id":"9067692449","name":"Bel Farma","tags":"addr:street:Rua Heloisa Gomes Batista dos Santos,addr:suburb:Vila Santista,amenity:pharmacy,contact:phone:+55 11 4811 7080,dispensing:yes,drive_through:no,healthcare:pharmacy,phone:+55 11 4811 3032","lat":-23.3267798,"lng":-46.7508022},{"id":"9174814432","tags":"access:private,amenity:parking,layer:-1,parking:underground,surface:paved","lat":-23.2816181,"lng":-46.743589},{"id":"9174814437","name":"Banco do Brasil","tags":"addr:street:Rua Progresso,addr:suburb:Centro,amenity:bank,brand:Banco do Brasil,brand:wikidata:Q610817,brand:wikipedia:en:Banco do Brasil","lat":-23.2819704,"lng":-46.7437553},{"id":"9181097237","name":"Bifarma","tags":"addr:street:Rua Vinte e Um de Março,amenity:pharmacy,dispensing:yes,healthcare:pharmacy","lat":-23.2818046,"lng":-46.7452142},{"id":"9195967660","name":"Drogaria Bem Estar","tags":"addr:housenumber:37,addr:street:Rua Lourenço Bueno de Camargo Filho,amenity:pharmacy,dispensing:yes,drive_through:no,healthcare:pharmacy,phone:+55 11 4881 0830","lat":-23.2733254,"lng":-46.7511701},{"id":"9195996224","name":"Pet Shop Canaã","tags":"addr:housenumber:82,addr:street:Rua Lourenço Bueno de Camargo Filho,phone:+55 11 99969 0237,shop:pet","lat":-23.2732361,"lng":-46.7515895},{"id":"9197820800","tags":"access:private,amenity:parking,parking:surface","lat":-23.288397,"lng":-46.750297},{"id":"9197977291","name":"Peteleco Alimentação Animal","tags":"addr:street:Rua Afonso Moreno,contact:mobile:+55 11 94462 5395,phone:+55 11 4608 5617,shop:pet","lat":-23.2891048,"lng":-46.749472},{"id":"9198089131","name":"Elite Lava Car","tags":"addr:street:Rua Afonso Moreno,amenity:car_wash,automated:no,self_service:no","lat":-23.2888861,"lng":-46.7493368},{"id":"9198089140","name":"Pet Stop","tags":"addr:street:Rua Afonso Moreno,contact:mobile:+55 11 97796 9065,phone:+55 11 4881 2883,shop:pet","lat":-23.2878865,"lng":-46.7495043},{"id":"9198089142","name":"A Atelier","tags":"addr:street:Rua Afonso Moreno,contact:mobile:+55 11 97608 3323,phone:+55 11 98823 0050,shop:beauty","lat":-23.287748,"lng":-46.7495311},{"id":"9198141205","name":"Lava Rápido Tijolo","tags":"addr:street:Rua da Capela,amenity:car_wash,automated:no,contact:mobile:+55 11 99517 0904,phone:+55 11 96573 7109,self_service:no","lat":-23.3007273,"lng":-46.7456848},{"id":"9200315870","name":"Big Farma","tags":"addr:housenumber:965,addr:street:Rua das Margaridas,amenity:pharmacy,dispensing:yes,drive_through:no,healthcare:pharmacy,phone:+55 11 4881 7584","lat":-23.2812121,"lng":-46.7412211},{"id":"9206250285","name":"Farma MIx","tags":"amenity:pharmacy,dispensing:yes,healthcare:pharmacy","lat":-23.2750534,"lng":-46.720704},{"id":"9206250286","name":"Rações Costelinha","tags":"addr:street:Avenida Paulo Brossard,contact:mobile:+55 11 96576 8139,phone:+55 11 4608 3498,shop:pet","lat":-23.275083,"lng":-46.7207577},{"id":"9521982203","name":"Cross Life 21","tags":"addr:housenumber:21,addr:postcode:07901-060,addr:street:Rua Vereador Pedro Bueno de Oliveira,addr:suburb:Centro,contact:facebook:nova.poshta.official,email:crosstraining21@hotmail.com,leisure:fitness_centre,phone:+55 11 94747 2817,sport:fitness","lat":-23.2819491,"lng":-46.7452046},{"id":"9522847563","name":"Mercadinho Irmãos Dauto","tags":"addr:street:Avenida Afonso Moreno,phone:+55 11 4488 0729,shop:supermarket","lat":-23.3015935,"lng":-46.744516},{"id":"9522847573","name":"Pizzaria e Esfiharia Sofia","tags":"addr:housenumber:2207,addr:street:Avenida Afonso Moreno,amenity:restaurant,cuisine:pizza,delivery:yes,phone:+55 11 94851 5346","lat":-23.3011003,"lng":-46.7451038}]