[{"id":"1271644630","tags":"amenity:parking","lat":-22.9446528,"lng":-47.1160788},{"id":"1553111871","name":"Habib's John Boyd Dunlop","tags":"amenity:restaurant,cuisine:asian,name:pt:Habib's","lat":-22.9195638,"lng":-47.1095462},{"id":"1607420124","name":"Hospital e Maternidade Celso Pierro","tags":"addr:postcode:13060-904,addr:street:Avenida John Boyd Dunlop,addr:suburb:Jardim Ipaussurama,alt_name:Hospital da PUC-Campinas,amenity:hospital,emergency:yes,healthcare:hospital,phone:+55 19 3343-8600,website:http://www.hospitaldapuc-campinas.com.br/,wikidata:Q10298567","lat":-22.9221461,"lng":-47.1193352},{"id":"1607433111","name":"Pastel & cia","tags":"addr:street:Rua José Lourenço de Sá,amenity:restaurant","lat":-22.9407075,"lng":-47.1221434},{"id":"1607850282","name":"Pizzaria do Gordo","tags":"addr:housenumber:1406,addr:street:Rua Paulo Viana de Souza,amenity:restaurant,cuisine:pizza","lat":-22.9413054,"lng":-47.1223899},{"id":"1608008344","name":"Banco do Brasil","tags":"amenity:bank,brand:Banco do Brasil,brand:wikidata:Q610817,brand:wikipedia:en:Banco do Brasil","lat":-22.9188551,"lng":-47.1097349},{"id":"1608009333","name":"Giga Farma","tags":"amenity:pharmacy,healthcare:pharmacy,name:pt:Drogasil","lat":-22.9186946,"lng":-47.1095418},{"id":"1611823609","name":"Restaurante Horto City","tags":"addr:housenumber:39,addr:street:Rua Belo Horizonte,amenity:restaurant,cuisine:regional,phone:+55 19 3845 2672","lat":-22.8992355,"lng":-47.1967677},{"id":"1646751112","name":"Paladar Brasileiro","tags":"addr:housenumber:20,addr:street:Rua Antonio Carlos Martins,amenity:restaurant,cuisine:regional,phone:(19) 3845 2015","lat":-22.9001426,"lng":-47.1969296},{"id":"1656887427","name":"Hortolândia 3","tags":"addr:city:Hortolândia,addr:street:Rua Florianópolis,amenity:restaurant,cuisine:regional","lat":-22.8989679,"lng":-47.1976713},{"id":"1688832131","name":"Felice","tags":"addr:housenumber:109,addr:street:Rua Belo Horizonte,amenity:restaurant,cuisine:regional","lat":-22.8990297,"lng":-47.1963109},{"id":"1688832135","name":"Hortolândia 2","tags":"addr:city:Hortolândia,amenity:restaurant,cuisine:regional,diet:vegetarian:yes","lat":-22.8990799,"lng":-47.1964223},{"id":"1706050945","tags":"amenity:atm","lat":-23.0092289,"lng":-47.1417834},{"id":"1760495193","name":"Sidarta","tags":"amenity:pharmacy,healthcare:pharmacy","lat":-22.9195918,"lng":-47.1098712},{"id":"1760495197","name":"Santander","tags":"amenity:bank,brand:Santander,brand:wikidata:Q5835668,brand:wikipedia:en:Santander Bank","lat":-22.9199179,"lng":-47.1109146},{"id":"2015024619","name":"Parque das Bandeiras Shopping","tags":"addr:housenumber:3900,addr:postcode:13060-803,addr:street:Avenida John Boyd Bunlop,shop:mall,website:https://www.shoppingparquedasbandeiras.com.br/","lat":-22.9247795,"lng":-47.1249681},{"id":"2822037114","name":"Romeu","tags":"amenity:restaurant,cuisine:barbecue,phone:(19) 3897 1900,website:http://www.restaurantedoromeu.com.br/","lat":-22.8683245,"lng":-47.2151059},{"id":"2894531431","name":"Hoshi","tags":"amenity:restaurant,cuisine:japanese","lat":-22.9008465,"lng":-47.1982283},{"id":"2894531432","tags":"addr:city:Hortolândia,addr:street:Rua Curitiba,amenity:restaurant","lat":-22.898558,"lng":-47.1981049},{"id":"2894531433","name":"Saizen Sushi","tags":"addr:city:Hortolândia,amenity:restaurant,cuisine:japanese,phone:019 99123 9162,website:http://www.saizensushi.com.br","lat":-22.8989424,"lng":-47.1961172},{"id":"3001675343","name":"Supermercado Paraíso","tags":"addr:city:Campinas,addr:housenumber:537,addr:postcode:13067-665,addr:street:Rua Orlando da Silva Gírio,addr:suburb:Conjunto Habitacional Villa Reggio II,phone:+55 019 3281 5739,shop:supermarket","lat":-22.873877,"lng":-47.1458277},{"id":"3235156669","name":"Boteco do Bolinha","tags":"addr:city:Campinas,addr:postcode:13056-399,addr:street:Rua Igarapé,addr:suburb:DIC I,amenity:bar","lat":-22.9757021,"lng":-47.1392278},{"id":"3252963763","tags":"addr:city:Campinas,amenity:restaurant,phone:+55 19 3224 0955","lat":-22.9656103,"lng":-47.1343773},{"id":"3252964778","name":"Mega Academia","tags":"addr:city:Campinas,leisure:sports_centre,phone:+55 19 3224 1638","lat":-22.965561,"lng":-47.1343344},{"id":"3305131050","tags":"addr:city:Campinas,addr:street:Rua Armando Frederico Renganeschi,amenity:pharmacy,healthcare:pharmacy","lat":-22.9657708,"lng":-47.132296},{"id":"3305131368","name":"Bradesco","tags":"addr:city:Campinas,addr:street:Rua Armando Frederico Renganeschi,amenity:bank,atm:yes,brand:Bradesco,brand:wikidata:Q806181,brand:wikipedia:en:Banco Bradesco","lat":-22.9656658,"lng":-47.1324583},{"id":"3305131496","name":"Banco do Brasil","tags":"addr:city:Campinas,addr:street:Rua Armando Frederico Renganeschi,amenity:bank,atm:yes,brand:Banco do Brasil,brand:wikidata:Q610817,brand:wikipedia:en:Banco do Brasil,operator:Banco do Brasil","lat":-22.9653139,"lng":-47.1321377},{"id":"3306855777","tags":"addr:city:Campinas,addr:street:Avenida Ruy Rodrigues,amenity:pharmacy,healthcare:pharmacy","lat":-22.9668335,"lng":-47.1389335},{"id":"3306879950","name":"da Tia Nina","tags":"addr:city:Campinas,addr:street:Rua Alaor Correa Telles,amenity:bar","lat":-22.9667101,"lng":-47.1327403},{"id":"3868870743","name":"Farma Xavier","tags":"addr:city:Sumaré,addr:housenumber:640,addr:postcode:13181-670,addr:street:Rua Augusta Diogo Ayala,amenity:pharmacy,healthcare:pharmacy","lat":-22.8521739,"lng":-47.1881629},{"id":"3881223677","name":"Feijão com Pimenta","tags":"amenity:restaurant,cuisine:regional","lat":-22.8522894,"lng":-47.1516366},{"id":"3881223678","name":"Strogo&Nof","tags":"amenity:restaurant","lat":-22.8527425,"lng":-47.1534933},{"id":"4338097294","name":"Restaurante Paladar","tags":"addr:street:das Castanheiras,amenity:restaurant","lat":-22.9029775,"lng":-47.2074809},{"id":"4338097694","name":"Lanchonete Lá Vanille","tags":"addr:street:Rua José Blumer,amenity:restaurant","lat":-22.9008945,"lng":-47.1984532},{"id":"4338097695","name":"Restaurante e Currascaria do Ari","tags":"addr:street:Rua Belo Horizonte,amenity:restaurant,diet:vegetarian:yes","lat":-22.8991648,"lng":-47.1966109},{"id":"4526254289","tags":"addr:housenumber:993,addr:postcode:13060800,addr:street:Rua Hermano Penteado,amenity:bar,email:vladrogerio28@gmail.com,internet_access:wlan,phone:19991041005","lat":-22.9245115,"lng":-47.121754},{"id":"4556249486","name":"Mercado GM","tags":"shop:supermarket","lat":-22.941106,"lng":-47.194319},{"id":"4556251121","name":"Mercado Gordão","tags":"shop:supermarket","lat":-22.9412157,"lng":-47.1914575},{"id":"4663993489","name":"ESCOLA Rachel de Queiroz","tags":"amenity:school,name:pt:ESCOLA Rachel de Queiroz","lat":-22.944904,"lng":-47.1189038},{"id":"4732044041","tags":"amenity:pharmacy,healthcare:pharmacy","lat":-22.8518571,"lng":-47.162304},{"id":"4732044130","tags":"amenity:bar","lat":-22.8523333,"lng":-47.1619162},{"id":"4732044131","tags":"amenity:restaurant","lat":-22.8524614,"lng":-47.1627927},{"id":"4732044132","tags":"amenity:pharmacy,healthcare:pharmacy","lat":-22.8515872,"lng":-47.1624867},{"id":"4732044328","name":"agropesca","tags":"shop:pet","lat":-22.8517593,"lng":-47.1626465},{"id":"4789275362","name":"Drogaria Iguatemy","tags":"amenity:pharmacy,healthcare:pharmacy,level:0,shop:tattoo","lat":-22.8854366,"lng":-47.1967581},{"id":"4789275375","name":"Café Mirante","tags":"addr:city:Hortolândia,amenity:cafe,level:0","lat":-22.8858272,"lng":-47.1960722},{"id":"4789300206","name":"Lava Jato e Borracharia Clean Car","tags":"addr:city:Hortolândia,addr:street:Rua Pedro Pereira dos Santos,addr:suburb:Jardim Santa Clara do Lago,amenity:car_wash","lat":-22.8849845,"lng":-47.1985243},{"id":"4879494621","name":"Mercado Gonçalves","tags":"addr:housenumber:41,addr:postcode:13180661,addr:street:das Pitangueiras,opening_hours:Mo-Sa 07:00-21:00; Su 07:00-12:30,shop:supermarket","lat":-22.8577459,"lng":-47.1615537},{"id":"4879494622","tags":"amenity:atm,operator:Banco 24 horas","lat":-22.8634904,"lng":-47.1503934},{"id":"4879495021","name":"Mercado Aki tem","tags":"name:en:Aki tem market,name:pt:Mercado Aki tem,shop:supermarket","lat":-22.8583537,"lng":-47.1610272},{"id":"4879495121","name":"Lanchonete do Jeffão","tags":"addr:housenumber:469,addr:street:Rua Armantino de Freitas,amenity:restaurant,cuisine:brazilian;burger,name:en:Jeffão's,name:pt:Lanchonete do Jeffão,opening_hours:Tu-Su 10:00-23:00","lat":-22.8583787,"lng":-47.1554919},{"id":"4879495123","name":"Frango Assado","tags":"addr:street:Acesso ao Posto BR,amenity:restaurant,name:pt:Frango Assado","lat":-22.8562977,"lng":-47.1327214},{"id":"4879495222","name":"Banco do Brasil","tags":"addr:street:Rua Batista Raffi,amenity:bank,brand:Banco do Brasil,brand:wikidata:Q610817,brand:wikipedia:en:Banco do Brasil,name:pt:Banco do Brasil,opening_hours:Mo-Fr 10:00-16:00","lat":-22.8539468,"lng":-47.1543328},{"id":"5046245823","name":"CEI Professor Zeferino Vaz","tags":"addr:street:Estrada Municipal da Paz,amenity:childcare,name:pt:Nave Mãe","lat":-22.951402,"lng":-47.1908218},{"id":"5046258423","name":"Dia","tags":"addr:street:Rua Armando Mário Tozzi,brand:Dia,brand:wikidata:Q925132,brand:wikipedia:es:Supermercados DIA,name:pt:Dia %,opening_hours:Mo-Su 08:00-20:30,shop:supermarket,website:https://www.dia.com.br/","lat":-22.950743,"lng":-47.1870212},{"id":"5046261521","name":"Itaú","tags":"amenity:bank,name:pt:Itaú","lat":-22.9507778,"lng":-47.1867005},{"id":"5046261621","name":"Bradesco","tags":"amenity:bank,brand:Bradesco,brand:wikidata:Q806181,brand:wikipedia:en:Banco Bradesco,name:pt:Bradesco","lat":-22.9494959,"lng":-47.1873252},{"id":"5046261821","name":"Supermercado Sete","tags":"name:pt:Supermercado Sete,shop:supermarket","lat":-22.9480187,"lng":-47.1866171},{"id":"5046309621","name":"Supermercado São João","tags":"name:pt:Supermercado São João,shop:supermarket","lat":-22.9503211,"lng":-47.1867973},{"id":"5046309821","name":"Drogal","tags":"addr:housenumber:43,addr:street:Rua Armando Mário Tozzi,amenity:pharmacy,email:contato@drogal.com.br,healthcare:pharmacy,name:pt:Drogal,opening_hours:Mo-Su 08:00-23:00,phone:19 3221 1991,website:https://www.drogal.com.br/","lat":-22.9506991,"lng":-47.1864497},{"id":"5046318425","name":"Dia","tags":"brand:Dia,brand:wikidata:Q925132,brand:wikipedia:es:Supermercados DIA,name:pt:Mercado Dia %,shop:supermarket,website:https://www.dia.com.br/","lat":-22.9399214,"lng":-47.1517836},{"id":"5046324423","name":"Guarda Municipal","tags":"amenity:police,name:pt:Guarda Municipal","lat":-22.9402311,"lng":-47.153464},{"id":"5046324925","name":"E.E. Professor Carlos Alberto Galhiego","tags":"amenity:school,name:pt:Professor Carlos Alberto Galhiego","lat":-22.9523096,"lng":-47.1898432},{"id":"5046325221","name":"DG Atacado","tags":"name:pt:DG Atacado,shop:supermarket","lat":-22.9374366,"lng":-47.1581147},{"id":"5046345222","name":"Flash Center","tags":"leisure:fitness_centre,name:pt:Flashstar","lat":-22.9517436,"lng":-47.1884054},{"id":"5046345224","name":"Supermercado São João","tags":"name:pt:Supermercado São João Jd.Maracanã,shop:supermarket","lat":-22.9546647,"lng":-47.1900197},{"id":"5046345225","name":"Supermercado São João","tags":"name:pt:Supermercado São João Metanópolis,shop:supermarket","lat":-22.9502307,"lng":-47.1868356},{"id":"5046345226","name":"Corpo Fit","tags":"leisure:fitness_centre,name:pt:Corpo Fit","lat":-22.9463424,"lng":-47.1866054},{"id":"5046350222","name":"Pano Bianco","tags":"leisure:fitness_centre,name:pt:Pano Bianco","lat":-22.9446307,"lng":-47.1883927},{"id":"5046354921","name":"Dia","tags":"brand:Dia,brand:wikidata:Q925132,brand:wikipedia:es:Supermercados DIA,name:pt:Mercado Dia %,shop:supermarket,website:https://www.dia.com.br/","lat":-22.9446492,"lng":-47.1876877},{"id":"5046447325","name":"Policia Militar","tags":"amenity:police,name:pt:Policia Militar","lat":-22.9492769,"lng":-47.1881496},{"id":"5046457223","name":"Farmaxima","tags":"amenity:pharmacy,healthcare:pharmacy,name:pt:Farmaxima","lat":-22.9497441,"lng":-47.1868521},{"id":"5046457224","name":"Supermercado São João","tags":"name:pt:Supermercado São João Parque Valença,shop:supermarket","lat":-22.9447121,"lng":-47.1858349},{"id":"5046459423","tags":"amenity:pharmacy,healthcare:pharmacy","lat":-22.9487396,"lng":-47.1867108},{"id":"5046468727","name":"Portão Praça João Amazonas","tags":"name:pt:Portão Praça João Amazonas,tourism:attraction","lat":-22.9531354,"lng":-47.1902606},{"id":"5053597524","name":"Lojas Americanas","tags":"name:pt:Lojas Americanas,shop:convenience","lat":-22.9240055,"lng":-47.1269403},{"id":"5053597721","name":"Sondas","tags":"name:pt:Sondas Supermercados,shop:supermarket","lat":-22.9243113,"lng":-47.1261532},{"id":"5053847528","tags":"amenity:atm,operator:24 Horas","lat":-22.9242632,"lng":-47.1282477},{"id":"5053899139","name":"Matuto","tags":"amenity:restaurant,cuisine:steak_house,name:pt:Matuto","lat":-22.9266322,"lng":-47.1269341},{"id":"5053928622","name":"Drogasil","tags":"amenity:pharmacy,brand:Drogasil,brand:wikidata:Q5308185,brand:wikipedia:pt:Drogasil,healthcare:pharmacy,name:pt:Drogasil,wheelchair:yes","lat":-22.9263977,"lng":-47.1271509},{"id":"5053965721","name":"Smart Fit","tags":"brand:Smart Fit,brand:wikidata:Q30930959,brand:wikipedia:pt:Smart Fit,leisure:fitness_centre,name:pt:Smart Fit","lat":-22.9244094,"lng":-47.1276927},{"id":"5054016821","name":"Matuto","tags":"amenity:restaurant,name:pt:Matuto","lat":-22.9244346,"lng":-47.128243},{"id":"5054161121","name":"Receita Federal","tags":"amenity:police,name:pt:Receita Federal","lat":-22.9248312,"lng":-47.1271434},{"id":"5054986521","tags":"amenity:pharmacy,healthcare:pharmacy","lat":-22.9370274,"lng":-47.1593297},{"id":"5054986621","tags":"amenity:pharmacy,healthcare:pharmacy","lat":-22.9372738,"lng":-47.158625},{"id":"5054987022","name":"CEMEI Dr. Claudio de Souza Novaes","tags":"amenity:childcare,name:pt:CEMEI Dr. Claudio de Souza Novaes","lat":-22.9394246,"lng":-47.1557402},{"id":"5059162823","name":"Natação","tags":"leisure:fitness_centre,name:pt:Natação","lat":-22.9517267,"lng":-47.1858933},{"id":"5059162824","name":"OTG Academia","tags":"leisure:fitness_centre,name:pt:OTG Academia","lat":-22.9537506,"lng":-47.1845284},{"id":"5059162825","name":"Saude e Força","tags":"leisure:fitness_centre,name:pt:Saude e Força","lat":-22.9516957,"lng":-47.1882267},{"id":"5059162826","name":"Escola Municipal Campo Grande","tags":"amenity:school,name:pt:Escola Municipal Campo Grande","lat":-22.9515383,"lng":-47.1887561},{"id":"5059185924","tags":"shop:pet","lat":-22.9470458,"lng":-47.1865292},{"id":"5059192323","name":"Restaurante Campo Grande","tags":"amenity:restaurant,name:pt:Campo Grande","lat":-22.9509003,"lng":-47.1872913},{"id":"5060488725","tags":"amenity:school","lat":-22.9283393,"lng":-47.1616511},{"id":"5060513121","name":"Academia Evolution Fight","tags":"leisure:fitness_centre,name:pt:Academia Evolution Fight","lat":-22.9363877,"lng":-47.1606968},{"id":"5060524727","name":"E.E. Ruy Rodrigues","tags":"amenity:school,name:pt:E.E. Ruy Rodrigues","lat":-22.9582077,"lng":-47.1907492},{"id":"5060524728","name":"E.E. Idalina Caldeira de Souza Pereira","tags":"amenity:school,name:pt:E.E. Idalina Caldeira de Souza Pereira","lat":-22.9588514,"lng":-47.1906152},{"id":"5060529326","name":"Maromba","tags":"leisure:fitness_centre,name:pt:Maromba","lat":-22.9425651,"lng":-47.1453773},{"id":"5060537021","name":"Escolinha de Futebol do Corinthians","tags":"amenity:school,name:pt:Escolinha de Futebol do Corinthians","lat":-22.9418815,"lng":-47.1476474},{"id":"5060551421","name":"Terminal Itajai","tags":"amenity:bus_station,bus:yes,name:pt:Terminal Itajai,public_transport:station","lat":-22.9618364,"lng":-47.1891701},{"id":"5060577738","name":"ASSOC. CRECHE CASA DAS CRIANÇAS CAMINHO FELIZ","tags":"amenity:childcare,name:pt:Nave Mãe","lat":-22.9354742,"lng":-47.1365008},{"id":"5060619727","name":"Ragazzo","tags":"amenity:restaurant,name:pt:Ragazzo","lat":-22.9264463,"lng":-47.1266802},{"id":"5060620025","tags":"amenity:school","lat":-22.9269023,"lng":-47.1250218},{"id":"5060673826","tags":"amenity:childcare","lat":-22.9271534,"lng":-47.125458},{"id":"5062087622","tags":"amenity:cafe","lat":-22.9253303,"lng":-47.1259861},{"id":"5062102123","tags":"amenity:cafe","lat":-22.924164,"lng":-47.1266732},{"id":"5062102124","tags":"amenity:cafe","lat":-22.9242889,"lng":-47.1264273},{"id":"5062178324","name":"Lotérica","tags":"amenity:bank,name:pt:Lotérica","lat":-22.9484144,"lng":-47.186594},{"id":"5062178326","name":"E E Prof. Alvaro Cotomacci","tags":"amenity:school,name:pt:E E Prof. Alvaro Cotomacci","lat":-22.9503956,"lng":-47.1800763},{"id":"5062178445","tags":"shop:pet","lat":-22.9463792,"lng":-47.186085},{"id":"5062191724","tags":"amenity:restaurant","lat":-22.9536223,"lng":-47.1900448},{"id":"5062191725","name":"Escola Estadual Jd. Santa Clara","tags":"amenity:school,name:pt:Escola Estadual Jd. Santa Clara","lat":-22.9493376,"lng":-47.1990512},{"id":"5062191731","name":"Supermercado Girassol","tags":"name:pt:Supermercado Girassol,shop:supermarket","lat":-22.9482995,"lng":-47.1850523},{"id":"5062191732","tags":"amenity:car_wash","lat":-22.9525382,"lng":-47.1894693},{"id":"5062191733","tags":"amenity:car_wash","lat":-22.9461548,"lng":-47.1865617},{"id":"5062191735","tags":"shop:pet","lat":-22.9485836,"lng":-47.1871953},{"id":"5062191736","name":"Rede Farma do Povo","tags":"amenity:pharmacy,healthcare:pharmacy,name:pt:Rede Farma do Povo","lat":-22.9481874,"lng":-47.1853808},{"id":"5062216421","name":"Correios do Brasil","tags":"amenity:post_office","lat":-22.9510241,"lng":-47.1874667},{"id":"5062246022","name":"E.E.P.G. Professor José Carlos de Ataliba Nogueira","tags":"amenity:school,name:pt:E.E.P.G. Professor José Carlos de Ataliba Nogueira","lat":-22.9490458,"lng":-47.1843044},{"id":"5062302021","name":"EMEF/EJA Profª Clotilde Barraquet Von Zuben","tags":"amenity:school,name:pt:Escola Municipal Barrachet","lat":-22.9455196,"lng":-47.165825},{"id":"5063141022","name":"Academia Ômega","tags":"leisure:fitness_centre,name:pt:Academia Ômega","lat":-22.9422157,"lng":-47.1726196},{"id":"5063141024","name":"CEI Dr. Ruy de Almeida Barbosa","tags":"amenity:childcare,name:pt:CEI Dr. Ruy de Almeida Barbosa","lat":-22.9586359,"lng":-47.1917179},{"id":"5063141025","name":"CEI Idalina Caldeira Souza Pereira","tags":"amenity:childcare,name:pt:CEI Idalina Caldeira Souza Pereira","lat":-22.9551259,"lng":-47.1967391},{"id":"5063143222","name":"Escola Estadual Padre Antônio Móbili","tags":"amenity:school,name:pt:Escola Estadual Padre Antônio Móbili","lat":-22.9615602,"lng":-47.2177457},{"id":"5063143421","name":"E.E. Hugo Penteado Teixeira","tags":"amenity:school,name:pt:E.E. Hugo Penteado Teixeira","lat":-22.9589065,"lng":-47.2007577},{"id":"5063150321","name":"Escola Estadual Elvira de Pardo Meo Muraro","tags":"amenity:school,name:pt:Escola Estadual Elvira de Pardo Meo Muraro","lat":-22.9391362,"lng":-47.1552867},{"id":"5066973426","name":"New Pan","tags":"name:pt:New Pan,shop:supermarket","lat":-22.951476,"lng":-47.1879497},{"id":"5067837821","name":"Escola Municipal Edson Luiz Chaves","tags":"amenity:school","lat":-22.9374457,"lng":-47.1831231},{"id":"5067837822","name":"EMEI Chapeuzinho Vermelho","tags":"amenity:school,name:pt:EMEI Chapeuzinho Vermelho","lat":-22.9365877,"lng":-47.1832498},{"id":"5067896321","name":"Wizard","tags":"amenity:school,name:pt:Wizard","lat":-22.9481307,"lng":-47.1848119},{"id":"5083851224","name":"Smart Fitness","tags":"leisure:fitness_centre,name:pt:Smart Fitness","lat":-22.9545563,"lng":-47.1900514},{"id":"5084247522","tags":"amenity:pharmacy,healthcare:pharmacy","lat":-22.9269543,"lng":-47.1259939},{"id":"5097952523","name":"Fogão Mineiro","tags":"amenity:restaurant,name:pt:Fogão Mineiro","lat":-22.9242639,"lng":-47.1276645},{"id":"5097952623","tags":"amenity:restaurant","lat":-22.9438229,"lng":-47.1849677},{"id":"5097958521","name":"E.E. Prof. Hercy Moraes","tags":"amenity:school","lat":-22.927563,"lng":-47.1141966},{"id":"5177283448","name":"Praça Manoel Verissimo de Barros","tags":"leisure:park","lat":-22.9066898,"lng":-47.1770677},{"id":"5191804037","name":"Starbucks","tags":"amenity:cafe,brand:Starbucks,brand:wikidata:Q37158,brand:wikipedia:en:Starbucks,cuisine:coffee_shop,official_name:Starbucks Coffee,takeaway:yes","lat":-23.0075283,"lng":-47.1490332},{"id":"5191804040","name":"Piazza","tags":"amenity:restaurant,cuisine:pizza","lat":-23.007343,"lng":-47.1491877},{"id":"5191804042","name":"Octavio Café","tags":"amenity:cafe","lat":-23.0044443,"lng":-47.1489202},{"id":"5191804046","name":"Napolitano","tags":"amenity:restaurant,cuisine:italian","lat":-23.0075054,"lng":-47.149582},{"id":"5191804048","name":"Seeds Up","tags":"shop:convenience","lat":-23.007277,"lng":-47.1490498},{"id":"5287223323","name":"O Mercadinho","tags":"addr:street:Rua 22,name:pt:O Mercadinho,shop:supermarket","lat":-22.859638,"lng":-47.1574719},{"id":"5287223326","name":"Correios","tags":"addr:city:Campinas,addr:housenumber:1199,addr:postcode:13068-971,addr:street:Avenida Papa João Paulo II,addr:suburb:Conjunto Habitacional Padre Anchieta,amenity:post_office,brand:Correios,brand:wikidata:Q3375004,brand:wikipedia:en:Correios,name:pt:Correios Ag. P. Anchieta,opening_hours:Mo-Fr 09:00-17:00","lat":-22.8606157,"lng":-47.1520569},{"id":"5302681130","tags":"leisure:park","lat":-22.8622165,"lng":-47.2010718},{"id":"5302753412","name":"2ª Cia do 48° BPM/I","tags":"amenity:police,operator:Policia Militar","lat":-22.8523971,"lng":-47.1899151},{"id":"5329138722","name":"Mercado Liza","tags":"shop:supermarket","lat":-22.9557241,"lng":-47.1842418},{"id":"5535027802","tags":"amenity:atm,currency:BRL:yes,drive_through:no,operator:Multibanco","lat":-22.9771656,"lng":-47.1399768},{"id":"5559958022","name":"Farma Bento","tags":"amenity:pharmacy,healthcare:pharmacy","lat":-22.9468609,"lng":-47.1868379},{"id":"5559963801","name":"Drogasil","tags":"addr:housenumber:10,addr:postcode:13058-510,addr:street:Rua Manoel Machado Pereira,amenity:pharmacy,brand:Drogasil,brand:wikidata:Q5308185,brand:wikipedia:pt:Drogasil,healthcare:pharmacy,opening_hours:Mo-Su 08:00-22:00,phone:19 3221 0690,website:https://www.drogasil.com.br/,wheelchair:yes","lat":-22.9470194,"lng":-47.186902},{"id":"5760405851","name":"Minipreço","tags":"addr:city:Campinas,addr:housenumber:214,addr:postcode:13057424,addr:street:Rua Eduardo Caetano,addr:suburb:Res. Mauro Marcondes,shop:supermarket","lat":-22.9730339,"lng":-47.1687814},{"id":"5891716385","name":"Maromba","tags":"leisure:fitness_centre","lat":-22.9398767,"lng":-47.1521031},{"id":"5894283288","name":"Escola Municipal Padre Silva","tags":"amenity:school","lat":-22.9172586,"lng":-47.1104759},{"id":"5894290885","name":"Mercado Dia%","tags":"name:pt:Dia%,shop:supermarket,website:https://www.dia.com.br/","lat":-22.9168918,"lng":-47.1118286},{"id":"5894328685","name":"Drogaria São Paulo","tags":"addr:housenumber:1269,addr:street:Rua Oswaldo Oscar Barthelson,amenity:pharmacy,brand:Drogaria São Paulo,brand:wikidata:Q5308184,brand:wikipedia:en:Grupo DPSP,healthcare:pharmacy,opening_hours:Mo-Su 07:00-23:00,phone:19 2519 0276","lat":-22.9201818,"lng":-47.1115535},{"id":"5894328785","name":"Ultrafarma","tags":"addr:housenumber:1097,addr:street:Rua Oswaldo Oscar Barthelson,amenity:pharmacy,healthcare:pharmacy,name:pt:Ultrafamiliar,opening_hours:Mo-Sa 07:00-22:00,phone:19 3227 7272,website:https://www.ultrafarma.com.br/mobile.html","lat":-22.919534,"lng":-47.1098203},{"id":"5894521287","name":"Corpo Fit","tags":"leisure:fitness_centre,name:pt:Evolution Fight","lat":-22.9463041,"lng":-47.1865769},{"id":"5909660888","tags":"amenity:bar","lat":-22.9512925,"lng":-47.1859732},{"id":"5909661196","tags":"amenity:childcare","lat":-22.9460767,"lng":-47.1569564},{"id":"5919491685","name":"Assaí Atacadista","tags":"brand:Assaí Atacadista,brand:wikidata:Q28679415,brand:wikipedia:pt:Assaí Atacadista,shop:supermarket","lat":-22.9442156,"lng":-47.1110316},{"id":"5937694927","name":"Biblioteca Pública Municipal Cora Coralina","tags":"addr:city:Campinas,addr:housenumber:s/n,addr:street:Rua Cardeal Dom Agnelo Rossi,addr:suburb:Vila Padre Anchieta,amenity:library","lat":-22.8599944,"lng":-47.1557325},{"id":"5955337786","name":"Parque Socioambiental Chico Mendes","tags":"tourism:attraction","lat":-22.8622403,"lng":-47.2221549},{"id":"5955674392","name":"Vila Mais Supermercados - Loja 2","tags":"addr:city:Campinas,addr:housenumber:32,addr:street:Rua Periquito,name:en:Vila Mais Supermarket,name:pt:Vila Mais Supermercados,opening_hours:Mo-Sa 07:00-21:00; Su 08:00-19:00,shop:supermarket,website:http://www.vilamaissupermercado.com.br/","lat":-22.9129494,"lng":-47.1169884},{"id":"5955682585","tags":"amenity:bar","lat":-22.9171745,"lng":-47.1119796},{"id":"5955717786","tags":"shop:supermarket","lat":-22.947824,"lng":-47.1598495},{"id":"5955718486","name":"Hospital da PUC","tags":"amenity:hospital,healthcare:hospital","lat":-22.9212068,"lng":-47.1199011},{"id":"5966934185","tags":"amenity:school","lat":-22.9314642,"lng":-47.1642394},{"id":"5969224185","tags":"leisure:fitness_centre","lat":-22.9369819,"lng":-47.1621185},{"id":"6013039952","tags":"amenity:police","lat":-22.9950954,"lng":-47.4607124},{"id":"6175602128","name":"Supermercado Revolução","tags":"shop:supermarket","lat":-22.9723343,"lng":-47.1229604},{"id":"6232634286","name":"Eco Center Pet","tags":"addr:street:Av John Boyd Dunlop,opening_hours:Mo-Sa 12:00-22:00; Su 12:00-20:00,shop:pet","lat":-22.9254772,"lng":-47.1259476},{"id":"6232634289","name":"O Matuto Express","tags":"amenity:restaurant","lat":-22.9244,"lng":-47.1280357},{"id":"6374725185","name":"Supermercado São João Pq. Itajaí","tags":"shop:supermarket","lat":-22.9597445,"lng":-47.1922697},{"id":"6380888785","tags":"amenity:atm,operator:Banco do Brasil","lat":-22.9509649,"lng":-47.1874276},{"id":"6536856086","name":"Supermercados Pague Menos","tags":"addr:city:Campinas,addr:housenumber:8930,addr:postcode:13059-587,addr:street:Avenida John Boyd Dunlop,addr:suburb:Jardim Satélite Íris,opening_hours:Mo-Su 07:00-22:00,phone:+55 (19) 3729-6099,shop:supermarket,website:https://www.supermercadospaguemenos.com.br/","lat":-22.9354732,"lng":-47.1635365},{"id":"6780087085","tags":"amenity:bar","lat":-22.8580012,"lng":-47.2162561},{"id":"6855748285","tags":"amenity:school","lat":-22.9578275,"lng":-47.1897722},{"id":"6910756609","name":"E.E. PEI Professor Carlos Lencastre","tags":"addr:city:Campinas,addr:housenumber:88,addr:street:Rua Antônio Grigoleto,addr:suburb:Jardim Garcia,amenity:school,website:https://www.facebook.com/pg/eepcl","lat":-22.9098138,"lng":-47.1098231},{"id":"6935536691","name":"Espaço B&B","tags":"addr:city:Hortolândia,addr:housenumber:100,addr:postcode:13189204,addr:street:Rua Turim,addr:suburb:Jd Residencial Firenze,shop:beauty","lat":-22.8757639,"lng":-47.2296289},{"id":"7022388985","name":"Chácara Recanto Vó Maria","tags":"addr:postcode:13058-757,addr:street:Rua Bromélia,opening_hours:Mo-Su 08:00-22:00,phone:019 98864 7017,tourism:attraction,website:https://m.facebook.com/recantovomaria.nubia","lat":-22.9277999,"lng":-47.1939296},{"id":"7078190585","tags":"shop:convenience","lat":-22.9425194,"lng":-47.1826873},{"id":"7270206589","tags":"amenity:atm,operator:24 Horas","lat":-22.9547197,"lng":-47.1900109},{"id":"7392400550","name":"Supermercado Yeda","tags":"shop:supermarket","lat":-22.9756194,"lng":-47.1197243},{"id":"7392400553","name":"Supermercado Dia-a-Dia","tags":"shop:supermarket","lat":-22.9821965,"lng":-47.1206527},{"id":"7392400554","name":"Farmahorro","tags":"amenity:pharmacy,brand:Farmahorro,brand:wikidata:Q20015002,brand:wikipedia:es:Farmahorro,dispensing:yes,healthcare:pharmacy","lat":-22.9825852,"lng":-47.1206931},{"id":"7392400555","name":"Farmadic","tags":"amenity:pharmacy,dispensing:yes,healthcare:pharmacy","lat":-22.9778008,"lng":-47.1279492},{"id":"7392400559","name":"Dia","tags":"brand:Dia,brand:wikidata:Q925132,brand:wikipedia:es:Supermercados DIA,shop:supermarket","lat":-22.9740783,"lng":-47.1279762},{"id":"7392400564","name":"Supermercado Sete","tags":"shop:supermarket","lat":-22.971374,"lng":-47.1285113},{"id":"7392400565","tags":"amenity:police","lat":-22.9720262,"lng":-47.1284497},{"id":"7392663809","name":"Caixa Econômica Federal","tags":"amenity:bank,brand:Caixa Econômica Federal,brand:wikidata:Q835283,brand:wikipedia:pt:Caixa Econômica Federal","lat":-22.9681783,"lng":-47.1288284},{"id":"7392663810","name":"Supermercado Proverá","tags":"shop:supermarket","lat":-22.9808008,"lng":-47.125911},{"id":"7392663820","name":"E.E. Eliseu Narciso","tags":"amenity:school","lat":-22.9778674,"lng":-47.1220975},{"id":"7392663847","name":"Correios","tags":"amenity:post_office,brand:Correios,brand:wikidata:Q3375004,brand:wikipedia:en:Correios","lat":-22.9652556,"lng":-47.1309206},{"id":"7581318656","name":"lunga","tags":"addr:city:campinas,addr:housenumber:294,addr:street:Avenida Fernando Paolieri,addr:suburb:planalto de viracopos,shop:supermarket,wheelchair:yes","lat":-22.9906021,"lng":-47.1393009},{"id":"7581331366","tags":"leisure:fitness_centre","lat":-22.9879851,"lng":-47.1415941},{"id":"7581492979","tags":"access:private,amenity:parking,fee:yes,parking:surface,surface:concrete","lat":-23.0103269,"lng":-47.1144044},{"id":"7581499538","name":"escola municipal curujinha","tags":"addr:city:campinas,addr:street:Rua Roodnei Ricci,addr:suburb:adhmar de barros,amenity:school","lat":-22.9884275,"lng":-47.1498409},{"id":"7581523089","tags":"amenity:school","lat":-22.9917745,"lng":-47.1449672},{"id":"7590066497","tags":"amenity:library,wheelchair:yes","lat":-22.9881342,"lng":-47.1447718},{"id":"7592490416","tags":"access:yes,amenity:parking,capacity:disabled:20,operator:patio de caminhoes,parking:surface,surface:gravel","lat":-23.0038013,"lng":-47.113022},{"id":"7787467684","name":"Terminal Rodoviário de Monte Mor","tags":"addr:city:Monte Mor,addr:state:SP,amenity:bus_station,public_transport:station","lat":-22.9511242,"lng":-47.3127059},{"id":"7795639109","name":"Policia militar","tags":"amenity:police","lat":-23.0096991,"lng":-47.1479379},{"id":"7795658839","tags":"amenity:parking","lat":-23.0089024,"lng":-47.1471736},{"id":"8284821479","name":"Praça da Juventude","tags":"leisure:park","lat":-22.9795632,"lng":-47.1250049},{"id":"8516290517","name":"Banco24Horas","tags":"amenity:atm,brand:Banco24Horas,brand:wikidata:Q4854069,opening_hours:Mo-Su 07:00-22:00,operator:Banco 24 Horas","lat":-22.9357443,"lng":-47.1633352},{"id":"8672814621","name":"Pista São José Motocross e Velocross","tags":"addr:city:Campinas,addr:housenumber:s/n,addr:postcode:13336-504,addr:street:Estr. do Fogueteiro,addr:suburb:Zona Rural,leisure:park","lat":-23.0225746,"lng":-47.1633417},{"id":"9159702082","name":"Acuilla Suelen Designer de Sobrancelha","tags":"addr:city:Hortolânia,addr:housenumber:22,addr:postcode:13183-150,addr:street:Rua Benedita Rosa da Silva,addr:suburb:Vila Real,beauty:eyebrows;skin_care,opening_hours:Mo-Su 09:00-21:00,opening_hours:covid19:open,phone:+5519988696234,shop:beauty,website:https://instagram.com/acuilladesigner?r=nametag","lat":-22.8541385,"lng":-47.2148137},{"id":"9217311868","name":"Snacks Queens","tags":"addr:city:Hortolândia,addr:housenumber:83,addr:postcode:13186491,addr:street:Rua Curitiba,addr:suburb:Residencial São Luis,amenity:restaurant,internet_access:yes,opening_hours:covid19:open,phone:+5519989950160,takeaway:yes,website:https://www.instagram.com/snackqueens__?r=nametag","lat":-22.8982862,"lng":-47.1974265},{"id":"9368151617","name":"Poupar Supermercados","tags":"shop:supermarket","lat":-22.903273,"lng":-47.2429471},{"id":"9579560717","name":"Polícia Federal do Brasil","tags":"amenity:police,email:aeroviracopos.cas.sp@dpf.gov.br,operator:Polícia Federal do Brasil,operator:en:Federal Police of Brazil,operator:wikidata:Q2289697,operator:wikipedia:pt:Polícia Federal do Brasil,phone:+55 19 3725 6413","lat":-23.0091367,"lng":-47.1412702},{"id":"9698339219","name":"Dom Madeiro","tags":"addr:city:Hortolândia,addr:housenumber:103,addr:postcode:13185157,addr:street:Rua Adail Alves Silva,addr:suburb:novo ângulo,amenity:restaurant,opening_hours:16:30  as 00:00,phone:19971032907","lat":-22.8837631,"lng":-47.1740248},{"id":"9832076186","name":"Adega Bar do Alemão","tags":"addr:city:Campinas,addr:housenumber:218,addr:street:Rua Manoel Arthur Cavalcanti Lacombe,amenity:bar,opening_hours:Mon-Fri 10:00-22:00","lat":-22.9421806,"lng":-47.1200145},{"id":"9833467617","name":"Dia","tags":"opening_hours:Mo-Su 08:00-21:00,shop:supermarket","lat":-22.9367964,"lng":-47.1191312},{"id":"9834423335","name":"Lanches União","tags":"addr:city:Campinas,addr:street:Rua Paulo Viana de Souza,amenity:restaurant,cuisine:artisinal;burger","lat":-22.9503889,"lng":-47.1231101},{"id":"9835934020","name":"Adega do Rafa","tags":"addr:city:Campinas,addr:housenumber:1436,addr:postcode:13060-726,addr:street:Rua Paulo Viana de Souza,amenity:bar,opening_hours:Tu,We 12:00-21:00; Th-Sa 12:00-22:00; Su 10:00-18:00","lat":-22.9405342,"lng":-47.1224577},{"id":"9835934021","name":"Gratinados HotDog","tags":"addr:city:Campinas,addr:housenumber:1436,addr:postcode:13060-726,addr:street:Rua Paulo Viana de Souza,amenity:restaurant,cuisine:hot_dog,opening_hours:Tue-Sun 19:00-23:00,phone:1930438642,website:https://www.ifood.com.br/delivery/campinas-sp/gratinados-hotdog-parque-residencial-vila-uniao/f64afca1-57da-4764-82ec-a0e6995b46fd","lat":-22.9406391,"lng":-47.122428},{"id":"9880956132","name":"Pão & CIA","tags":"amenity:cafe,cuisine:coffee_shop","lat":-22.9024855,"lng":-47.1725445}]