[{"id":"1403817159","tags":"amenity:restaurant,cuisine:steak_house","lat":-22.6548419,"lng":-47.0201808},{"id":"2923901896","name":"Martinesse","tags":"addr:street:Avenida Luiz Pilla,shop:supermarket","lat":-22.5225866,"lng":-46.9559652},{"id":"2923903720","name":"Paraiso","tags":"shop:supermarket","lat":-22.5246684,"lng":-46.9510932},{"id":"3605726134","name":"Parque Vitória Régia","tags":"leisure:park","lat":-22.6300242,"lng":-47.0544125},{"id":"4303511736","name":"Martin Holandesa","tags":"amenity:restaurant","lat":-22.6322152,"lng":-47.0522127},{"id":"4303511744","name":"Holambier","tags":"amenity:restaurant","lat":-22.6325466,"lng":-47.0523638},{"id":"4303511745","name":"Casa Bela Café - Restaurante","tags":"amenity:restaurant","lat":-22.6326084,"lng":-47.0523519},{"id":"4360765501","name":"Empória Cafetéria","tags":"amenity:restaurant","lat":-22.6318599,"lng":-47.0523699},{"id":"4360765529","name":"Baden-Baden","tags":"amenity:restaurant","lat":-22.6315325,"lng":-47.0518817},{"id":"4360787075","name":"Caixa Econômica Federal","tags":"amenity:bank,brand:Caixa Econômica Federal,brand:wikidata:Q835283,brand:wikipedia:pt:Caixa Econômica Federal","lat":-22.6330633,"lng":-47.0545288},{"id":"4360787076","name":"Don Ivan","tags":"amenity:restaurant","lat":-22.6330912,"lng":-47.0562243},{"id":"4360787094","tags":"amenity:bank,brand:Itaú","lat":-22.6329393,"lng":-47.0526409},{"id":"4360787095","tags":"amenity:atm,brand:Caixa","lat":-22.6330893,"lng":-47.0547571},{"id":"4360787096","name":"Eva","tags":"shop:supermarket","lat":-22.6336277,"lng":-47.0567822},{"id":"4360791141","name":"Banco do Brazil","tags":"amenity:bank","lat":-22.6331819,"lng":-47.0540028},{"id":"4360791878","name":"Sushi Bloem","tags":"amenity:restaurant","lat":-22.6319465,"lng":-47.0523391},{"id":"4360791884","name":"Delegada de Policia","tags":"amenity:police","lat":-22.6311494,"lng":-47.0553831},{"id":"4360791886","name":"Zoet & Zout","tags":"addr:city:Holambra,addr:country:BR,addr:housenumber:90f,addr:street:Viela Lantanas,addr:suburb:Centro,amenity:cafe,phone:+55 19 3802 1293,shop:bakery,website:http://www.zoet-en-zout.com.br/","lat":-22.629318,"lng":-47.0567098},{"id":"4360791888","name":"Fazenda Ribeirão","tags":"amenity:restaurant","lat":-22.6294112,"lng":-47.0586705},{"id":"4360792489","tags":"addr:city:Holambra,addr:suburb:Centro,tourism:museum","lat":-22.6300704,"lng":-47.0586101},{"id":"4360793658","name":"Banco do Brazil","tags":"amenity:atm","lat":-22.6331896,"lng":-47.0540374},{"id":"4360793811","name":"Bradesco","tags":"amenity:bank","lat":-22.6332462,"lng":-47.0538522},{"id":"4360796570","name":"Central","tags":"shop:chemist","lat":-22.6332215,"lng":-47.0541637},{"id":"4360796571","name":"Aquitem Farmácia Popular","tags":"amenity:pharmacy","lat":-22.6332714,"lng":-47.0544065},{"id":"4360796804","tags":"amenity:restaurant","lat":-22.6333765,"lng":-47.0552465},{"id":"4360796805","name":"Aria Helena","tags":"shop:chemist","lat":-22.6332449,"lng":-47.0542817},{"id":"4851810394","name":"The Old Dutch","tags":"amenity:restaurant","lat":-22.6341637,"lng":-47.0627061},{"id":"4942944521","name":"Deck 237 Restaurante e Bar","tags":"addr:housenumber:237,addr:postcode:13825000,addr:street:Rua dos Solidagos,amenity:restaurant,cuisine:brazilian,email:deck_237@yahoo.com.br,internet_access:wlan,name:en:Deck 237 Restaurant and Bar,opening_hours:Mo-Sa 10:30-14:00,phone:551938025321","lat":-22.6400386,"lng":-47.0522181},{"id":"5312257648","tags":"amenity:hospital","lat":-22.624932,"lng":-47.0590165},{"id":"6418601917","name":"Casa Septem","tags":"addr:city:Holambra,addr:housenumber:579,addr:street:Rua das Dálias,amenity:cafe,contact:facebook:https://www.facebook.com/casaseptem,cuisine:coffee_shop,diet:vegan:only,opening_hours:We-Sa 17:00-21:00; Su 15:00-20:00","lat":-22.6424096,"lng":-47.0528614},{"id":"7560867890","name":"Terrassos","tags":"amenity:restaurant","lat":-22.6662333,"lng":-46.7923739},{"id":"8756236315","name":"churrascaria deocleciu's","tags":"amenity:restaurant,diet:meat:yes","lat":-22.6258306,"lng":-47.0077658},{"id":"8756236316","name":"Lanchonete deocleciu's","tags":"amenity:restaurant,cuisine:regional","lat":-22.6249044,"lng":-47.007828},{"id":"8756245618","tags":"amenity:parking","lat":-22.6255438,"lng":-47.0078},{"id":"9147033634","name":"Restaurante & antiquário Carroça","tags":"amenity:restaurant,cuisine:regional","lat":-22.645973,"lng":-47.0051986},{"id":"9215097943","name":"Tratterie Holandesa","tags":"amenity:restaurant","lat":-22.6299855,"lng":-47.0499499},{"id":"9215097944","name":"Vila Milani","tags":"amenity:restaurant","lat":-22.6303627,"lng":-47.0496656},{"id":"9215101600","name":"Di Komê Garage Bistrô","tags":"amenity:restaurant","lat":-22.6298962,"lng":-47.0494741},{"id":"9218880994","name":"Amsterdam","tags":"amenity:restaurant","lat":-22.6277553,"lng":-47.0582619},{"id":"9219143292","name":"Rancho da Cachaça","tags":"amenity:restaurant","lat":-22.6529011,"lng":-47.0344235},{"id":"9219200595","name":"Remafra","tags":"shop:supermarket","lat":-22.6427424,"lng":-47.0552087},{"id":"9219220799","name":"E.E. Ibrantina Cardona","tags":"amenity:school","lat":-22.6337285,"lng":-47.0556439},{"id":"9219220800","name":"Top Centrum","tags":"shop:mall","lat":-22.6334735,"lng":-47.0546891},{"id":"9219220810","name":"Galeria Atrium","tags":"shop:mall","lat":-22.6330133,"lng":-47.0543971},{"id":"9966990690","name":"Rota das Flores","tags":"description:Percurso de 14 km, com 13 pontos de interesse cultural, lazer e educação, 24 pontos de alimentação e três de apoio aos ciclistas.\n\nDurante o caminho, o ciclista tem a oportunidade de passar por sítios de produtores de flores, estufas de plantas ornamentai,information:yes,tourism:attraction","lat":-22.623126,"lng":-47.0601691},{"id":"10220487018","name":"Pizzaria Vecchio Onofre","tags":"addr:housenumber:753,addr:street:Rua das Dálias,amenity:restaurant","lat":-22.6423451,"lng":-47.0526231},{"id":"10557703229","name":"Toka Gastrobar","tags":"amenity:restaurant","lat":-22.6386676,"lng":-47.0498558},{"id":"10740039711","name":"O Caipira Holandês","tags":"addr:city:Jaguariúna,addr:postcode:13819-899,addr:street:Rodovia SP 107 km 29.7,addr:suburb:Borda da Mata,amenity:restaurant,cuisine:coffee_shop;regional,opening_hours:Mo-Su 08:00-17:00,phone:+55 019 38024468","lat":-22.6261418,"lng":-47.0228623}]