[{"id":"530327594","tags":"amenity:ferry_terminal,ferry:yes,public_transport:station","lat":-23.8094783,"lng":-45.3972962},{"id":"677775124","name":"Elite II","tags":"amenity:cafe","lat":-23.7927378,"lng":-45.5562122},{"id":"677775126","name":"Bom Gosto","tags":"addr:street:Rua dos Navegantes,addr:suburb:Maresias,shop:supermarket","lat":-23.7915598,"lng":-45.5565955},{"id":"1042023408","name":"Sitio de Voo Tatamborá","tags":"aeroway:aerodrome","lat":-23.8875008,"lng":-45.4463997},{"id":"1913376907","tags":"amenity:restaurant","lat":-23.7896833,"lng":-45.5628356},{"id":"1913376911","tags":"amenity:parking","lat":-23.7894278,"lng":-45.5620956},{"id":"1913376914","tags":"amenity:parking","lat":-23.7893542,"lng":-45.5632168},{"id":"1913376924","tags":"amenity:restaurant","lat":-23.789688,"lng":-45.5626535},{"id":"2306336172","name":"Sem Compromisso","tags":"amenity:restaurant","lat":-23.7789529,"lng":-45.3998546},{"id":"2306771206","name":"Tip Top","tags":"amenity:restaurant,wifi:yes","lat":-23.8046297,"lng":-45.399648},{"id":"2308951410","name":"Restaurante Athenas","tags":"amenity:restaurant,cuisine:greek","lat":-23.8025887,"lng":-45.3986061},{"id":"2310330598","name":"Restaurante Alecrim","tags":"amenity:restaurant","lat":-23.8019151,"lng":-45.3992772},{"id":"2310330599","name":"Il Forno","tags":"amenity:restaurant,cuisine:spanish","lat":-23.8035947,"lng":-45.400226},{"id":"2310330600","name":"Atobá Restaurante","tags":"addr:city:São Sebastião,addr:suburb:Centro,amenity:restaurant,email:atobarestaurante@uol.com.br,phone:+55 12 3892-3205","lat":-23.8032972,"lng":-45.4000295},{"id":"2310330601","name":"Mamutid","tags":"amenity:restaurant,cuisine:pizza","lat":-23.8021851,"lng":-45.399425},{"id":"2312084295","name":"A Palhoça","tags":"amenity:restaurant,cuisine:pizza","lat":-23.8019649,"lng":-45.3983124},{"id":"2312084296","name":"Pizzaria Pachecão","tags":"amenity:restaurant,cuisine:pizza","lat":-23.8021652,"lng":-45.3983939},{"id":"2312084297","name":"Família Restaurante","tags":"amenity:restaurant","lat":-23.8023082,"lng":-45.3984836},{"id":"2313621526","name":"Cantinho dos Amigos","tags":"amenity:restaurant","lat":-23.8037249,"lng":-45.3991713},{"id":"2313621529","name":"Canoa","tags":"amenity:restaurant","lat":-23.803631,"lng":-45.3990887},{"id":"2313621532","name":"Sem Compromisso","tags":"amenity:restaurant","lat":-23.804466,"lng":-45.3995318},{"id":"2313677651","tags":"amenity:post_office","lat":-23.8012216,"lng":-45.3992631},{"id":"2319158029","tags":"amenity:bus_station","lat":-23.8085907,"lng":-45.3986593},{"id":"2343851536","name":"Supermercado do Frade","tags":"shop:supermarket","lat":-23.8137188,"lng":-45.3664689},{"id":"2392870425","name":"Fazenda Engenho D'agua","tags":"tourism:attraction","lat":-23.7923142,"lng":-45.3640274},{"id":"2493690621","name":"Caixa Econômica Federal","tags":"addr:street:Avenida Guarda Mor Lobo Viana,addr:suburb:Centro,amenity:bank,atm:yes,brand:Caixa Econômica Federal,brand:wikidata:Q835283,brand:wikipedia:pt:Caixa Econômica Federal,drive_through:no","lat":-23.8008245,"lng":-45.4027211},{"id":"2493690623","name":"Droga Raia","tags":"addr:street:Avenida Duque de Caxias,amenity:pharmacy,brand:Droga Raia,brand:wikidata:Q10357101,brand:wikipedia:pt:RaiaDrogasil,healthcare:pharmacy","lat":-23.8011507,"lng":-45.402176},{"id":"2493690624","name":"Santander","tags":"addr:suburb:Centro,amenity:bank,brand:Santander,brand:wikidata:Q5835668,brand:wikipedia:en:Santander Bank","lat":-23.8018313,"lng":-45.4030837},{"id":"2493690629","name":"S.O.S Farma","tags":"addr:street:Avenida Guarda Mor Lobo Viana,amenity:pharmacy,healthcare:pharmacy","lat":-23.8021353,"lng":-45.4030899},{"id":"2493690631","name":"S.O.S Farma","tags":"amenity:pharmacy,healthcare:pharmacy","lat":-23.8022261,"lng":-45.4027591},{"id":"2493976131","name":"Itaú","tags":"addr:street:Avenida Guarda Mor Lobo Viana,addr:suburb:Centro,amenity:bank,brand:Itaú Unibanco,brand:wikidata:Q1424293,brand:wikipedia:pt:Itaú Unibanco","lat":-23.8028558,"lng":-45.4030093},{"id":"2574288293","tags":"amenity:post_office","lat":-23.8659477,"lng":-45.4309326},{"id":"2574288358","name":"Dedo de Moça","tags":"amenity:restaurant","lat":-23.8680938,"lng":-45.4321495},{"id":"2574288361","name":"Lourinho","tags":"amenity:restaurant","lat":-23.8681814,"lng":-45.432219},{"id":"2574288364","name":"Baleia Azul","tags":"amenity:restaurant","lat":-23.8686986,"lng":-45.4326192},{"id":"2574288367","name":"Comandante Adriano","tags":"amenity:restaurant","lat":-23.8688463,"lng":-45.4328991},{"id":"3151543534","name":"Poço da Escada","tags":"sport:swimming,tourism:attraction","lat":-23.8405999,"lng":-45.3593},{"id":"3151543540","tags":"sport:swimming,tourism:attraction","lat":-23.8424961,"lng":-45.3576731},{"id":"3151543545","tags":"sport:swimming,tourism:attraction","lat":-23.8433424,"lng":-45.3560017},{"id":"3198561087","name":"Santander","tags":"amenity:bank,brand:Santander,brand:wikidata:Q5835668,brand:wikipedia:en:Santander Bank","lat":-23.7853967,"lng":-45.6241586},{"id":"3198565214","name":"Mercado da Cesp","tags":"shop:convenience","lat":-23.7845227,"lng":-45.5622571},{"id":"3198565215","name":"Mercado Vitoria","tags":"shop:convenience","lat":-23.7844689,"lng":-45.562916},{"id":"3198566609","name":"Pimenta de cheiro","tags":"amenity:restaurant","lat":-23.8162043,"lng":-45.5339997},{"id":"3198567187","name":"Caravela Restaurante","tags":"addr:city:São Sebastião,addr:housenumber:675,addr:street:Avenida Walkir Vergani,addr:suburb:Boiçucanga,amenity:restaurant,phone:+55 12 3865-1541","lat":-23.7851556,"lng":-45.6265634},{"id":"3198754256","name":"Boiçucanga Praia Shopping","tags":"shop:mall","lat":-23.7856747,"lng":-45.6244317},{"id":"3198754259","name":"Mar Azul","tags":"amenity:restaurant","lat":-23.7851793,"lng":-45.6242337},{"id":"3382939576","name":"Barracuda","tags":"amenity:restaurant","lat":-23.8172302,"lng":-45.5343028},{"id":"3383035212","name":"Escolinha","tags":"amenity:school","lat":-23.8173167,"lng":-45.5338033},{"id":"3730990145","name":"Drogaria do Chaim","tags":"amenity:pharmacy","lat":-23.7903072,"lng":-45.5646913},{"id":"3730990146","name":"Farmácia Maresias","tags":"amenity:pharmacy","lat":-23.7910471,"lng":-45.5605368},{"id":"4150338389","tags":"shop:supermarket","lat":-23.823807,"lng":-45.3611905},{"id":"4409672489","tags":"tourism:attraction","lat":-23.8179364,"lng":-45.534886},{"id":"4463297390","name":"Mercado do Reino","tags":"addr:city:Ilhabela,addr:postcode:11630-000,addr:street:Rua José Seno,addr:suburb:Reino,opening_hours:Mo-Sa 07:00-21:00,payment:credit_cards:yes,payment:debit_cards:yes,payment:sodexo:yes,shop:supermarket","lat":-23.8281399,"lng":-45.3540195},{"id":"4468946208","name":"Praia de feiticeira","tags":"name:pt:Praia de feiticeira,tourism:attraction","lat":-23.8456808,"lng":-45.408933},{"id":"4468958097","name":"Praia do oscar","tags":"name:pt:Praia do oscar,tourism:attraction","lat":-23.8397816,"lng":-45.4002595},{"id":"4468973799","name":"Ilha das Cabras","tags":"name:pt:Ilha das Cabras,tourism:attraction","lat":-23.8297653,"lng":-45.3924598},{"id":"4536346020","name":"Cachoeira Toque-Toque","tags":"tourism:attraction,waterway:waterfall","lat":-23.8284956,"lng":-45.5072567},{"id":"4546830189","name":"Pé de Café","tags":"amenity:cafe,internet_access:wlan,name:en:Pé de Café,name:fr:Pé de Café,name:pt:Pé de Café","lat":-23.8024782,"lng":-45.3984801},{"id":"4676691539","name":"USF Camburi","tags":"addr:city:São Sebastião,addr:housenumber:55,addr:postcode:11619-368,addr:street:Rua Bandeirantes,addr:suburb:Camburi,amenity:hospital,emergency:no,healthcare:hospital","lat":-23.7675711,"lng":-45.6478853},{"id":"4732155158","name":"Squina","tags":"amenity:bar","lat":-23.7900974,"lng":-45.5670841},{"id":"4732155160","name":"Esfiharia","tags":"amenity:bar,phone:1238655532","lat":-23.7893942,"lng":-45.5638789},{"id":"5118129032","tags":"addr:street:Avenida Guarda Mor Lobo Viana,amenity:post_office","lat":-23.7941497,"lng":-45.4003577},{"id":"5118129033","name":"Lanchonete Perequê","tags":"amenity:restaurant","lat":-23.8137082,"lng":-45.3661577},{"id":"5119607722","name":"Restaurante do Cura","tags":"amenity:restaurant","lat":-23.8070398,"lng":-45.3650239},{"id":"5121789527","name":"Supermercado do Frade","tags":"shop:supermarket","lat":-23.7973087,"lng":-45.3638189},{"id":"5121789528","name":"Captains Beach","tags":"amenity:bar","lat":-23.8059111,"lng":-45.365282},{"id":"5121789923","name":"Pastel do Zé & Padaria","tags":"amenity:restaurant,opening_hours:Mo-Fr 06:00-23:00; Sa 06:00-01:00","lat":-23.7764327,"lng":-45.3574096},{"id":"5121790322","tags":"amenity:atm,operator:Caixa","lat":-23.7785278,"lng":-45.358667},{"id":"5121790421","name":"Hõi Ban Japanese Comida","tags":"amenity:restaurant,name:en:Hõi Ban Japanese Food","lat":-23.776467,"lng":-45.3576662},{"id":"5122763024","name":"Baepi Express","tags":"shop:convenience","lat":-23.818511,"lng":-45.3673771},{"id":"5122763025","name":"Palmar","tags":"amenity:restaurant","lat":-23.8210047,"lng":-45.3715278},{"id":"5122763027","name":"Bahia","tags":"amenity:restaurant","lat":-23.822049,"lng":-45.3739611},{"id":"5122778022","name":"Restuarante do Delmir","tags":"amenity:restaurant,name:en:Restuarant do Delmir","lat":-23.8176232,"lng":-45.3672546},{"id":"5122778024","name":"Banco do Brasil","tags":"amenity:bank,brand:Banco do Brasil,brand:wikidata:Q610817,brand:wikipedia:en:Banco do Brasil","lat":-23.8209555,"lng":-45.3702452},{"id":"5122778025","name":"Cafe Biss","tags":"amenity:cafe","lat":-23.821793,"lng":-45.3750944},{"id":"5122778421","name":"Farma Ilha","tags":"amenity:pharmacy,healthcare:pharmacy,name:en:Island Pharmacy","lat":-23.8183037,"lng":-45.3675616},{"id":"5122778521","name":"Correios","tags":"amenity:post_office,brand:Correios,brand:wikidata:Q3375004,brand:wikipedia:en:Correios,name:en:Post Office,opening_hours:Mo-Fr 09:00-17:00","lat":-23.8210285,"lng":-45.3700365},{"id":"5124348223","name":"Restaurante Pimenta de Cheiro","tags":"amenity:restaurant","lat":-23.8115087,"lng":-45.367006},{"id":"5125036424","name":"The Deck","tags":"amenity:restaurant","lat":-23.8030869,"lng":-45.3648557},{"id":"5126283922","name":"Pier 18","tags":"amenity:restaurant","lat":-23.8101785,"lng":-45.365637},{"id":"5126284022","name":"Max Paladar","tags":"amenity:restaurant","lat":-23.8128225,"lng":-45.3677097},{"id":"5126284023","name":"Gaudi Bistro Cafe","tags":"amenity:restaurant","lat":-23.8107158,"lng":-45.3662291},{"id":"5126284223","name":"Okeanos Bar","tags":"amenity:bar","lat":-23.8112221,"lng":-45.3659733},{"id":"5130453828","tags":"amenity:atm,operator:Bradesco","lat":-23.8220898,"lng":-45.3741538},{"id":"5130453922","name":"Escritõri","tags":"amenity:bar","lat":-23.8189272,"lng":-45.3766723},{"id":"5130453923","name":"Temakeria FastFood","tags":"amenity:restaurant","lat":-23.8135363,"lng":-45.3663432},{"id":"5182380965","name":"Supermercado da Praça","tags":"shop:supermarket","lat":-23.7733492,"lng":-45.692569},{"id":"5271296673","name":"Fundação Mar Museu de Historia","tags":"tourism:museum","lat":-23.8228402,"lng":-45.4141441},{"id":"5273942623","tags":"name:es:Playa,tourism:attraction","lat":-23.8163022,"lng":-45.3712012},{"id":"5273950123","tags":"name:es:PuertoCruceros,tourism:attraction","lat":-23.818221,"lng":-45.3762998},{"id":"5680096467","tags":"amenity:parking","lat":-23.8393132,"lng":-45.3601401},{"id":"5745850021","name":"Litoranea Transportes","tags":"amenity:bus_station,bus:yes,network:Passaro Marrom,operator:Passaro Marrom,public_transport:station","lat":-23.7832822,"lng":-45.6218992},{"id":"6008003951","tags":"amenity:police,police:traffic_police","lat":-23.8187348,"lng":-45.456541},{"id":"6026185311","tags":"amenity:parking,fee:yes","lat":-23.7853043,"lng":-45.6244504},{"id":"6026185312","name":"Itaú","tags":"amenity:bank,atm:yes,brand:Itaú Unibanco,brand:wikidata:Q1424293,brand:wikipedia:pt:Itaú Unibanco","lat":-23.7856148,"lng":-45.6247938},{"id":"6112846227","tags":"access:customers,amenity:parking,fee:no,parking:surface","lat":-23.7913702,"lng":-45.5596644},{"id":"6112846228","tags":"addr:housenumber:880,addr:street:Avenida Francisco Loup,shop:supermarket","lat":-23.7912941,"lng":-45.5596778},{"id":"6355032886","name":"Salinas Bar","tags":"addr:street:Acesso Praia do Curral,amenity:bar,cuisine:local,internet_access:wlan,opening_hours:Mo-Su 08:00-18:00,phone:551238949352","lat":-23.8660301,"lng":-45.4315493},{"id":"6414470776","name":"Santuario Ecológico","tags":"description:DECRETO MUNICIPAL N° 953/92  -  \\...Passa a ser considerada Santuário Ecológico Municipal, a zona costeira com as respectiva coluna d'água numa largura de 50 m de extensão, ao longo da beira-mar, compreendida entre Portinho e a Praia das Pedras Miúdas...\\,tourism:attraction","lat":-23.844161,"lng":-45.4044961},{"id":"6439487290","name":"Emirados","tags":"amenity:restaurant,cuisine:arabic,outdoor_seating:yes","lat":-23.8112395,"lng":-45.3660887},{"id":"6439487291","name":"Kalango","tags":"amenity:restaurant,cuisine:mexican,outdoor_seating:yes","lat":-23.8110199,"lng":-45.3659167},{"id":"6439487296","tags":"amenity:parking","lat":-23.8113644,"lng":-45.3653899},{"id":"6590001848","name":"Temakeria da Vila","tags":"amenity:restaurant,cuisine:sushi,opening_hours:covid19:off","lat":-23.778689,"lng":-45.3580381},{"id":"6657660086","name":"Boteco, Pizzaria e Restaurante Bonanza","tags":"addr:city:São Sebastião,addr:housenumber:300,addr:street:Avenida Doutor Altino Arantes,amenity:restaurant","lat":-23.8043053,"lng":-45.3994243},{"id":"6869160402","name":"Bradesco","tags":"addr:city:São Sebastião,addr:housenumber:614,addr:postcode:11618-107,addr:street:Avenida Walkir Vergani,addr:suburb:Boiçucanga,amenity:bank,atm:yes,brand:Bradesco,brand:wikidata:Q806181,brand:wikipedia:en:Banco Bradesco,drive_through:no","lat":-23.7850301,"lng":-45.6262762},{"id":"6874517820","name":"Maikai","tags":"addr:city:São Sebastião,addr:postcode:11618-080,addr:street:Rua Hilario Crisólogo de Matos,addr:suburb:Boiçucanga,amenity:restaurant,bar:yes,cuisine:sandwich;burger,delivery:yes,opening_hours:18:00-00:00,phone:+55 11 95794-4357","lat":-23.7858419,"lng":-45.6243542},{"id":"6874517826","name":"Empório da Pizza","tags":"addr:city:São Sebastião,addr:housenumber:695 - Loja 02,addr:postcode:11618-107,addr:street:Avenida Walkir Vergani,addr:suburb:Boiçucanga,air_conditioning:yes,amenity:restaurant,cuisine:pizza;regional,delivery:yes,description:Buffet self-service durante o dia e Pizzaria a partir das 18:00 horas.,opening_hours:10:00-22:00,phone:+55 12 3865-2647","lat":-23.7849844,"lng":-45.6269334},{"id":"7052044731","name":"Orange Academia","tags":"leisure:fitness_centre","lat":-23.8178064,"lng":-45.3669665},{"id":"7052044732","tags":"amenity:restaurant,cuisine:pizza","lat":-23.8177451,"lng":-45.3670657},{"id":"7069563113","name":"Academia Corpo Dinamico","tags":"leisure:fitness_centre","lat":-23.8218168,"lng":-45.3731713},{"id":"7069563114","name":"Kone Pizza","tags":"amenity:restaurant,cuisine:pizza","lat":-23.8233334,"lng":-45.3747381},{"id":"7069700194","name":"Gato Negro","tags":"amenity:restaurant","lat":-23.8447259,"lng":-45.4043053},{"id":"7104253986","name":"Empanadas Tucumanas","tags":"amenity:restaurant","lat":-23.7904555,"lng":-45.5630641},{"id":"7104259785","name":"Red Beef Prime","tags":"amenity:restaurant","lat":-23.7905392,"lng":-45.5632872},{"id":"7504101020","name":"Praça José Amãncio da Silva","tags":"leisure:park","lat":-23.7996117,"lng":-45.3588384},{"id":"8261771635","name":"Shell Select","tags":"addr:street:Avenida Manoel Hipolito do Rego,addr:suburb:Pontal da Cruz,brand:Shell Select,brand:wikidata:Q154950,brand:wikipedia:en:Royal Dutch Shell,shop:convenience","lat":-23.7800697,"lng":-45.3994947},{"id":"8262538445","name":"Creche da barra do Sahy","tags":"addr:housenumber:34,addr:postcode:11625-599,addr:street:Rua Geraldo Marques,addr:suburb:Barra do Sahy,amenity:childcare,operator:Secretaria da Educação,operator:type:government,phone:+55 12 3863 6134","lat":-23.7700982,"lng":-45.6918398},{"id":"8262605757","name":"Creche de Camburi","tags":"addr:housenumber:155,addr:postcode:11619-428,addr:street:Rua Olímpio Faustino,addr:suburb:Camburi,amenity:childcare,phone:+ 55  12 3865 8345","lat":-23.7756578,"lng":-45.6526915},{"id":"8285314861","name":"Escola Municipal de Ensino Infantil Barra do Sahy","tags":"addr:housenumber:301,addr:postcode:11601-009,addr:street:Avenida Adelino Tavares,addr:suburb:Barra do Sahy,alt_name:EMEI Sonho de Criança,amenity:school,phone:+55 12 3863 7329","lat":-23.7719866,"lng":-45.6915947},{"id":"8285339564","name":"Creche Meire Vasques dos Santos","tags":"addr:housenumber:138,addr:postcode:11601-009,addr:street:Rua Antônia Geremias de Jesus,addr:suburb:Itaitinga,amenity:childcare,email:crechemeirevasques@saosebastiao.sp.gov.br,phone:+55 12 3892 5307","lat":-23.8126433,"lng":-45.4140969},{"id":"8285355038","name":"Creche Castelo Encantado","tags":"addr:housenumber:140,addr:postcode:11612-779,addr:street:Rua Antônio Pereira da Silva,addr:suburb:Topolândia,amenity:childcare,email:crecheasdrianavasques@saosebastiao.sp.gov.br,phone:+55 12 3892 4866","lat":-23.8110157,"lng":-45.4133329},{"id":"9454129417","name":"Ônibus","tags":"addr:street:Rodovia SP-131,amenity:bus_station,name:en:Bus stop,name:es:Parada de colectivo,opening_hours:24/7","lat":-23.8720025,"lng":-45.4375988},{"id":"9579615815","name":"Polícia Federal do Brasil","tags":"addr:city:São Sebastião,addr:housenumber:18,addr:postcode:11600-000,addr:street:Rua Fávio Cássio,addr:suburb:Porto Grande,amenity:police,email:dpf.cm.ssb.srsp@dpf.gov.br,operator:Polícia Federal do Brasil,operator:en:Federal Police of Brazil,operator:wikidata:Q2289697,operator:wikipedia:pt:Polícia Federal do Brasil,phone:+55 12 3892 2757","lat":-23.7935665,"lng":-45.4001231},{"id":"9581817169","tags":"access:customers,amenity:parking,parking:surface","lat":-23.799297,"lng":-45.4015681},{"id":"9707712918","tags":"amenity:restaurant","lat":-23.7776169,"lng":-45.359243},{"id":"9707906689","name":"Biblioteca Prefeita Nilce Signorini","tags":"amenity:library,internet_access:yes","lat":-23.8220205,"lng":-45.3758821},{"id":"9707906707","name":"Policia Militar","tags":"amenity:police","lat":-23.8195201,"lng":-45.3766277},{"id":"9708625613","name":"Raiz Santa","tags":"amenity:restaurant,cuisine:steak_house","lat":-23.8219076,"lng":-45.374887},{"id":"9716371121","name":"Mamutia Pizzaria E Esfiharia","tags":"addr:street:Rodovia Doutor Manoel Hyppolito do Rego,amenity:restaurant,cuisine:pizza","lat":-23.7591072,"lng":-45.4121019},{"id":"9996222193","name":"Terminal Urbano de Illhabela","tags":"addr:city:Ilhabela,addr:postcode:11630-000,addr:street:Rua Paraíba,addr:suburb:Piúva,amenity:bus_station,bus:yes,description:Várias Linha nesse terminal,como a 01A-Balsa/Vila(direto),opening_hours:24/7,public_transport:station","lat":-23.8198313,"lng":-45.3763946},{"id":"10127679102","tags":"amenity:parking","lat":-23.8049195,"lng":-45.3639033}]