[{"id":"1341272385","name":"Escola Municipal Monsenhor Afonso Ligório Rosa","tags":"amenity:school","lat":-22.6300787,"lng":-46.0217504},{"id":"1341313285","tags":"amenity:pharmacy","lat":-22.6301219,"lng":-46.0204792},{"id":"1370450278","tags":"amenity:parking","lat":-22.6713483,"lng":-45.8576858},{"id":"4100820292","name":"rodoviaria","tags":"addr:street:av jose pereira de sousa dias,amenity:bus_station","lat":-22.5549926,"lng":-45.7726036},{"id":"4750699022","tags":"amenity:post_office","lat":-22.6580961,"lng":-45.8553517},{"id":"4750708422","name":"Supermercado São Mateus","tags":"addr:street:Rua Conselheiro Alfredo Pinto,name:pt:Supermercado São Mateus,opening_hours:Mo-Su 08:00-20:00,shop:supermarket","lat":-22.6580173,"lng":-45.8560537},{"id":"4750739124","name":"Banco do Brasil","tags":"amenity:bank,name:pt:Banco do Brasil","lat":-22.6581318,"lng":-45.8553186},{"id":"5000127726","name":"Frango Assado","tags":"amenity:restaurant,name:pt:Frango Assado","lat":-22.5277721,"lng":-46.0255158},{"id":"6013039946","tags":"amenity:police,police:traffic_police","lat":-22.6731155,"lng":-45.7439681},{"id":"6358935285","name":"Três Pedras","tags":"amenity:restaurant","lat":-22.6733254,"lng":-45.9646421},{"id":"6656084979","name":"Pesqueiro Andrade","tags":"amenity:restaurant,description:restaurante e pesqueiro","lat":-22.5683726,"lng":-46.0181279},{"id":"7847028085","name":"Chalezinho Gastrobar","tags":"addr:housenumber:229,addr:street:Rua Antonio Caetano da Rosa,amenity:restaurant,name:en:Chalizinho Gastrobar,phone:+55 35 9 9115 1504","lat":-22.6601345,"lng":-45.854673},{"id":"8873483538","name":"Quinta do Tacho Restaurante","tags":"amenity:restaurant,cuisine:regional,website:https://www.instagram.com/quintadotacho/","lat":-22.6685754,"lng":-45.8537092},{"id":"9810207324","name":"Pesqueiro e Restaurante Recanto de Áreas","tags":"amenity:restaurant","lat":-22.5972035,"lng":-45.7184981},{"id":"10007613081","name":"árarosa","tags":"amenity:cafe","lat":-22.6581318,"lng":-45.8551477},{"id":"10007613082","name":"San Benedetto","tags":"amenity:restaurant","lat":-22.6598432,"lng":-45.8548763},{"id":"10087369806","name":"Zalaz","tags":"amenity:restaurant,cuisine:regional,website:https://zalaz.com.br","lat":-22.5628843,"lng":-45.8702023}]