[{"id":"1042060610","name":"Base de Aviação de Taubaté","tags":"aeroway:aerodrome,iata:QHP,wikidata:Q9650554,wikipedia:pt:Base de Aviação de Taubaté","lat":-23.0379986,"lng":-45.5165385},{"id":"4286932155","name":"Droga Quinze","tags":"amenity:pharmacy","lat":-23.029195,"lng":-45.5662126},{"id":"4286932159","name":"Drogasil","tags":"amenity:pharmacy","lat":-23.0307366,"lng":-45.5626093},{"id":"4814406822","tags":"amenity:school","lat":-23.0962736,"lng":-45.6975028},{"id":"5097994603","name":"Churrascaria 4R","tags":"amenity:restaurant","lat":-23.0780022,"lng":-45.6570441},{"id":"5630560769","tags":"leisure:park","lat":-23.0284009,"lng":-45.5579601},{"id":"6061225139","name":"Divino Fogão","tags":"amenity:restaurant","lat":-23.0541932,"lng":-45.6039925},{"id":"6074792643","tags":"amenity:parking","lat":-23.0286728,"lng":-45.5587209},{"id":"7997487759","name":"Dekz Café Bar","tags":"addr:street:Rua Umberto Passareli,amenity:bar","lat":-23.0417979,"lng":-45.5814073},{"id":"8069312726","name":"Drogaria Baronesa","tags":"addr:street:Avenida Itambé,addr:suburb:Baronesa,amenity:pharmacy,dispensing:yes,healthcare:pharmacy","lat":-23.0444771,"lng":-45.5649782},{"id":"8162697992","name":"Dog & Cat","tags":"addr:housenumber:04,addr:street:Rua André Cursino dos Santos,addr:suburb:São Gonçalo,contact:mobile:+55 12 99181 0959,phone:+55 12 3424 5093,shop:pet","lat":-23.0558347,"lng":-45.5832745},{"id":"8177766396","name":"Farmavale&Cia Horizonte","tags":"addr:street:Avenida João Ramalho,amenity:pharmacy,dispensing:yes,drive_through:no,healthcare:pharmacy,phone:+55 12 4101 1617","lat":-23.0368228,"lng":-45.6161156},{"id":"8369736088","name":"Escola Municipal de Artes Maestro Fego Camargo","tags":"addr:housenumber:202,addr:postcode:12030-180,addr:street:Avenida Tiradentes,addr:suburb:Jardim das Nações,amenity:school,email:fegocamargo@educacaotaubate.sp.gov.br","lat":-23.0288896,"lng":-45.5668434},{"id":"8400966191","name":"Expresso Lava Car e Estética Automotiva","tags":"addr:housenumber:1507,addr:street:Estrada Municipal Francisco Alves Monteiro,amenity:car_wash,automated:no,contact:facebook:Expresso Studio Car,contact:instagram:@espressostudiocar,phone:+55 12 99117 7734,self_service:no","lat":-23.0371609,"lng":-45.6019355},{"id":"8888097118","name":"Núcleo de Hemoterapia de Taubaté","tags":"addr:housenumber:190,addr:postcode:12030450,addr:street:Rua Inglaterra,amenity:hospital,internet_access:wlan,opening_hours:Mo-Fr 08:00-11:00; Sa 07:30-11:00,phone:1236241273,website:https://www.hemocentro.fmrp.usp.br/agende","lat":-23.0313058,"lng":-45.5706154},{"id":"8972824117","name":"One conveniência","tags":"shop:convenience","lat":-23.0382155,"lng":-45.5814157},{"id":"9175675938","name":"Academia Fox","tags":"addr:street:Estrada Municipal do Barreiro,leisure:fitness_centre","lat":-23.0549995,"lng":-45.5769453},{"id":"9198513553","name":"Pizzaria e Esfiharia Delicia","tags":"addr:street:Rua Ezequiel Freire,addr:suburb:Vila Resende,amenity:restaurant,contact:phone:+55 12 3653 1857,cuisine:pizza,delivery:yes,phone:+55 12 3653 6856","lat":-23.1010421,"lng":-45.7007489},{"id":"9198514084","name":"Pub Dona Coronela","tags":"addr:street:Avenida da Saudade,addr:suburb:Vila Resende,amenity:bar","lat":-23.1011391,"lng":-45.7005089},{"id":"9402134917","name":"Farma Conde","tags":"addr:street:Rua Antônio Camilher Filho,amenity:pharmacy,phone:1235008090","lat":-23.0388058,"lng":-45.5853182},{"id":"9460604153","name":"Bar do Prego","tags":"amenity:restaurant,cuisine:brazilian,wheelchair:yes","lat":-23.0346697,"lng":-45.5690762},{"id":"9533567556","name":"Fritz - cervejaria artesanal","tags":"amenity:restaurant,cuisine:brazilian;german,outdoor_seating:yes","lat":-23.0324506,"lng":-45.5621079},{"id":"9688865405","name":"Caseh Restaurante","tags":"amenity:restaurant,cuisine:brazilian,outdoor_seating:yes,reservation:recommended","lat":-23.1201191,"lng":-45.5190396},{"id":"9815969334","name":"Clarear higienização de sofás e interna carros","tags":"addr:housenumber:98,addr:street:Cacilda Becker,amenity:car_wash,description:Limpeza e Higienização de estofados,phone:12997039039","lat":-23.040177,"lng":-45.570252},{"id":"9951294611","name":"Tomé","tags":"shop:supermarket","lat":-23.0444315,"lng":-45.5691877},{"id":"9951294613","name":"Mercadinho Donizetti","tags":"shop:supermarket","lat":-23.047074,"lng":-45.5688995},{"id":"9951294614","tags":"amenity:pharmacy,dispensing:yes,healthcare:pharmacy","lat":-23.0415772,"lng":-45.5663723},{"id":"9975895242","name":"ComFeito de Armor","tags":"amenity:restaurant,cuisine:coffee_shop","lat":-23.0371627,"lng":-45.5622586}]