[{"id":"2253188747","name":"Bar Pequena Garça","tags":"amenity:bar","lat":-22.6732325,"lng":-45.0021987},{"id":"2253188750","name":"Fornalha","tags":"amenity:restaurant,cuisine:italian","lat":-22.6722626,"lng":-45.001857},{"id":"2256180079","name":"Pizzaria La Spezia","tags":"amenity:restaurant,cuisine:pizza","lat":-22.6650975,"lng":-45.0110733},{"id":"2256180080","name":"Pizzaria Recanto da Chácara","tags":"amenity:restaurant,cuisine:pizza","lat":-22.6680968,"lng":-45.0035519},{"id":"2256184638","name":"Quiosque da Praça","tags":"amenity:bar","lat":-22.6648648,"lng":-45.0086272},{"id":"2260902128","name":"Bar do Carioca","tags":"amenity:bar","lat":-22.6697441,"lng":-45.0086021},{"id":"2260915364","name":"Polícia Civil de Cachoeira Paulista","tags":"amenity:police","lat":-22.6674228,"lng":-45.0082591},{"id":"2260915942","name":"Reinildo Pizza","tags":"amenity:restaurant,cuisine:pizza","lat":-22.6617796,"lng":-45.009053},{"id":"2260917820","name":"Supermercado Amaral","tags":"shop:supermarket","lat":-22.6693335,"lng":-45.0082591},{"id":"2260917855","name":"Clube Literário de Cachoeira Paulista (CLCP)","tags":"amenity:nightclub","lat":-22.6684722,"lng":-45.0060704},{"id":"2639151912","name":"Delegacia","tags":"amenity:police","lat":-22.67216,"lng":-45.0039045},{"id":"2639151921","name":"Unimed","tags":"amenity:hospital","lat":-22.6632713,"lng":-45.0093271},{"id":"2639151922","name":"Trenzinho Encantado","tags":"amenity:school","lat":-22.6733126,"lng":-45.0047313},{"id":"2639151923","name":"Vignettos","tags":"amenity:restaurant","lat":-22.6685791,"lng":-45.0058151},{"id":"2639151925","name":"Farma Conde","tags":"amenity:pharmacy,brand:Farma Conde,brand:wikidata:Q100492677,dispensing:yes,drive_through:no,healthcare:pharmacy","lat":-22.6662784,"lng":-45.007614},{"id":"2639151926","name":"Farmácia Santo Antônio","tags":"amenity:pharmacy,dispensing:yes,drive_through:no,healthcare:pharmacy","lat":-22.6656418,"lng":-45.0087252},{"id":"2917605601","name":"Restaurante Forno e Fogão","tags":"addr:city:Cachoeira Paulista,addr:housenumber:13,addr:street:Rua Casemiro Pinto,amenity:restaurant,cuisine:brazilian,outdoor_seating:no,phone:(12) 3101-1278,smoking:no","lat":-22.668016,"lng":-45.007125},{"id":"2917607501","name":"Polícia Civil","tags":"amenity:police","lat":-22.667528,"lng":-45.007928},{"id":"3149593911","name":"Cervejaria Kraemerfass","tags":"addr:city:Delfim Moreira,addr:housenumber:332,addr:street:Avenida Juscelino Kubitschek de Oliveira,addr:suburb:Centro,amenity:restaurant,capacity:100,cuisine:german,phone:+55-35-3624-1334,smoking:outside,website:http://www.kraemerfass.com.br,wheelchair:yes","lat":-22.5057953,"lng":-45.2750356},{"id":"3149610918","name":"Restaurante Sabores da Mantiqueira","tags":"addr:city:Delfim Moreira,addr:housenumber:497,addr:postcode:37514-000,addr:street:Rua Paulino Faria,addr:suburb:Centro,amenity:restaurant,capacity:100,cuisine:mineira,delivery:no,phone:+55 35 3624 1373,smoking:outside","lat":-22.5064545,"lng":-45.2803162},{"id":"3410838366","name":"Sítio Barba de Bode","tags":"addr:street:Estrada do Rosário,amenity:restaurant,cuisine:mineira","lat":-22.5059305,"lng":-45.2447242},{"id":"5022974983","name":"Restaurante Recanto do Chef","tags":"amenity:restaurant","lat":-22.5133492,"lng":-45.0166542},{"id":"5388540173","name":"Bar do Cassino","tags":"amenity:bar","lat":-22.6134844,"lng":-45.1883373},{"id":"6013039947","name":"Polícia Rodoviária Federal","tags":"amenity:police,operator:Federal,police:traffic_police","lat":-22.579883,"lng":-45.1966098},{"id":"8999657473","name":"Gruta de São Miguel Arcanjo","tags":"leisure:park,natural:cave_entrance","lat":-22.5845177,"lng":-45.2132208}]