[{"id":"3613576170","name":"Banco Sol","tags":"amenity:bank","lat":-11.0333922,"lng":-68.7750231},{"id":"3616170207","name":"Policía Villa Cruz","tags":"amenity:police","lat":-11.0225675,"lng":-68.7642202},{"id":"3616194225","name":"Banco Prodem","tags":"addr:city:Cobija,addr:street:Rotonda 9 de Febrero e Internacional,amenity:bank,drive_through:no,operator:Banco Prodem","lat":-11.0271809,"lng":-68.7602996},{"id":"3616194232","name":"Banco Unión","tags":"amenity:bank,atm:yes,branch:Central,brand:Banco Unión,brand:wikidata:Q72315494,official_name:Banco de la Unión","lat":-11.0228933,"lng":-68.7596892},{"id":"3616240856","name":"Empresa de Correos de Bolivia","tags":"addr:city:Cobija,amenity:post_office","lat":-11.0182595,"lng":-68.7533282},{"id":"3617589600","name":"Banco Mercantil","tags":"amenity:bank","lat":-11.0186316,"lng":-68.7532079},{"id":"3617589601","name":"Banco Nacional de Bolivia","tags":"amenity:bank,brand:Banco Nacional de Bolivia,brand:wikidata:Q21044226,brand:wikipedia:es:Banco Nacional de Bolivia,short_name:BNB","lat":-11.0187938,"lng":-68.7533357},{"id":"3617589614","name":"Paolita","tags":"amenity:pharmacy,healthcare:pharmacy","lat":-11.018758,"lng":-68.7555683},{"id":"3617623014","name":"Mutual Pando","tags":"amenity:bank","lat":-11.018869,"lng":-68.7541714},{"id":"3617623015","name":"Banco Prodem","tags":"amenity:bank,atm:yes","lat":-11.0187197,"lng":-68.7535558},{"id":"3617623016","name":"Banco Unión","tags":"addr:city:Cobija,amenity:bank,atm:yes,brand:Banco Unión,brand:wikidata:Q72315494,official_name:Banco de la Unión,operator:Banco Unión","lat":-11.0182429,"lng":-68.7539801},{"id":"3617623022","name":"Banco Fie","tags":"addr:city:Cobija,addr:street:Avenida Pando,amenity:bank,brand:Banco Fie,brand:wikidata:Q81782924,drive_through:no,official_name:Banco para el Fomento a Iniciativas Económicas,operator:Banco Fie","lat":-11.0251046,"lng":-68.7662719},{"id":"3617680478","name":"FELCC","tags":"amenity:police","lat":-11.0375676,"lng":-68.7698583},{"id":"3736889671","name":"El Reventón","tags":"addr:city:Cobija,addr:street:Rogelia Menacho de Balcazar,amenity:restaurant","lat":-11.0198638,"lng":-68.7615908},{"id":"3749358134","name":"Lenon","tags":"addr:city:Cobija,addr:housename:lenoon,amenity:nightclub,designation:discoteca","lat":-11.0191421,"lng":-68.7585624},{"id":"3750028241","name":"DISCOTECA ILLIMANI","tags":"addr:city:Cobija,amenity:bar","lat":-11.0442197,"lng":-68.7741778},{"id":"3750028292","name":"BAR EL DORADO","tags":"addr:city:Cobija,amenity:bar","lat":-11.0439515,"lng":-68.7739752},{"id":"3753498558","name":"Caja de Salud de Camino","tags":"amenity:hospital,healthcare:hospital","lat":-11.0269885,"lng":-68.7611484},{"id":"3754484819","name":"Rosario","tags":"addr:city:cobija,addr:street:Avenida Pando,amenity:bar","lat":-11.0280196,"lng":-68.7700131},{"id":"3754490525","name":"Palmeras","tags":"addr:city:Municipio Cobija,addr:street:Avenida 27 de Mayo,amenity:bar","lat":-11.0197739,"lng":-68.7698843},{"id":"3760955997","name":"Route","tags":"addr:city:cobija,amenity:bar","lat":-11.0204226,"lng":-68.7595113},{"id":"3760956949","name":"Bar replay","tags":"amenity:bar","lat":-11.0204718,"lng":-68.7585355},{"id":"3766685898","name":"Unidad Educativa Rogelia Menacho de Balcázar","tags":"amenity:school","lat":-11.0379798,"lng":-68.7681173},{"id":"4254706717","name":"Agua na boca","tags":"amenity:restaurant,name:pt:Agua na boca","lat":-11.0180767,"lng":-68.7576131},{"id":"4351546721","name":"La Esquina de la Abuela","tags":"addr:street:Av. Tcnl. Emilio Fernandez Molina,amenity:restaurant","lat":-11.0191478,"lng":-68.7542229},{"id":"4351547204","name":"Don Gerardo","tags":"shop:supermarket","lat":-11.0134815,"lng":-68.7540489},{"id":"4351562294","name":"Banco BISA","tags":"addr:city:Cobija,addr:street:Avenida Teniente Coronel Emilio Fernandez Molina,amenity:bank,brand:Banco BISA,brand:wikidata:Q21044225,brand:wikipedia:es:Banco BISA,drive_through:no,operator:Banco BISA","lat":-11.0230846,"lng":-68.7571618},{"id":"4459768889","name":"Paladar Boliviano brasilero","tags":"addr:street:Avenida 16 de Julio,amenity:restaurant,cuisine:brasilean;bolivian","lat":-11.018403,"lng":-68.7575273},{"id":"4515824147","name":"Banco do Brasil","tags":"amenity:bank,brand:Banco do Brasil,brand:wikidata:Q610817,brand:wikipedia:en:Banco do Brasil","lat":-11.0042193,"lng":-68.7467096},{"id":"4575815194","name":"Restaurant Avenida","tags":"amenity:restaurant,name:es:Restaurant AVENIDA","lat":-11.0185595,"lng":-68.765987},{"id":"5243460782","name":"Banco Unión","tags":"amenity:atm,brand:Banco Unión,brand:wikidata:Q72315494,official_name:Banco de la Unión,operator:Banco Unión,operator:wikidata:Q72315494","lat":-11.0242649,"lng":-68.7652248},{"id":"5243461108","name":"U.E. Nuevo Triunfo","tags":"addr:city:Nuevo Triunfo,amenity:school","lat":-11.0702398,"lng":-68.8530082},{"id":"5926937154","name":"Museo Pedro Villalobos","tags":"addr:city:Cobija,operator:UAP,tourism:museum","lat":-11.0182915,"lng":-68.7551958},{"id":"6773972118","name":"Policía Turística","tags":"addr:city:Cobija,addr:street:Avenida Internacional,amenity:police,operator:Policía Boliviana","lat":-11.0282752,"lng":-68.7585139},{"id":"6773972121","name":"Unidad Educativa Esther Campos","tags":"addr:city:Cobija,addr:street:Avenida 9 de Febrero,amenity:school","lat":-11.0280072,"lng":-68.7603582},{"id":"6773972122","name":"Unidad Educativa Cobija A","tags":"addr:city:Cobija,addr:street:Avenida 9 de Febrero,amenity:school","lat":-11.0276663,"lng":-68.759907},{"id":"7396274589","tags":"leisure:sports_centre","lat":-11.0136892,"lng":-68.7794601},{"id":"7398215921","name":"Shopping Center Cobija","tags":"shop:mall","lat":-11.0185242,"lng":-68.7555458},{"id":"7398215922","name":"Shopping Los Angeles","tags":"shop:mall","lat":-11.0174964,"lng":-68.7570711},{"id":"7398215923","name":"Angeline Shopping","tags":"shop:mall","lat":-11.0185759,"lng":-68.7571225},{"id":"7398215924","name":"Ayacucho","tags":"shop:mall","lat":-11.0188807,"lng":-68.756889},{"id":"7399671935","name":"Farmakon","tags":"amenity:pharmacy,dispensing:yes,healthcare:pharmacy","lat":-11.0183132,"lng":-68.7548443},{"id":"7399671936","name":"Señor de la Misericordia","tags":"amenity:pharmacy,dispensing:yes,healthcare:pharmacy","lat":-11.0200752,"lng":-68.7551866},{"id":"7399671937","name":"Farmacorp","tags":"amenity:pharmacy,brand:Farmacorp,brand:wikidata:Q81968937,dispensing:yes,healthcare:pharmacy","lat":-11.018564,"lng":-68.7555085},{"id":"7399671938","name":"Farmavida","tags":"amenity:pharmacy,dispensing:yes,healthcare:pharmacy","lat":-11.0184429,"lng":-68.7575416},{"id":"7399671939","name":"Farmacia Santa Fe","tags":"addr:city:Cobija,amenity:pharmacy,dispensing:yes,healthcare:pharmacy","lat":-11.0235721,"lng":-68.7583603},{"id":"7399671940","name":"REDDO","tags":"amenity:pharmacy,dispensing:yes,healthcare:pharmacy","lat":-11.0394351,"lng":-68.7716036},{"id":"7399671941","name":"Luz Nazaria","tags":"amenity:pharmacy,dispensing:yes,healthcare:pharmacy","lat":-11.0389936,"lng":-68.7718932},{"id":"7399671942","name":"Terceros","tags":"amenity:pharmacy,dispensing:yes,healthcare:pharmacy","lat":-11.0387638,"lng":-68.7726943},{"id":"8265526833","name":"BAR MIRADOR 2","tags":"amenity:bar","lat":-11.0402434,"lng":-68.7721095},{"id":"8265526836","name":"Banco BISA","tags":"amenity:atm,brand:Banco BISA,brand:wikidata:Q21044225,brand:wikipedia:es:Banco BISA,network:BANCO BISA,operator:Banco BISA,operator:wikidata:Q21044225,operator:wikipedia:es:Banco BISA","lat":-11.0389291,"lng":-68.7711101},{"id":"8265526837","tags":"amenity:atm,network:BANCO UNION,operator:BANCO UNION","lat":-11.0444803,"lng":-68.7737906},{"id":"8267700390","name":"Banco Unión","tags":"addr:city:Cobija,addr:street:Rotonda 9 de Febrero e Internacional,amenity:atm,brand:Banco Unión,brand:wikidata:Q72315494,currency:BOB:yes,drive_through:no,official_name:Banco de la Unión,operator:Banco Unión,operator:wikidata:Q72315494","lat":-11.0273269,"lng":-68.7602822},{"id":"8267712812","name":"Banco Nacional de Bolivia","tags":"addr:city:Cobija,addr:street:Rotonda 9 de Febrero e Internacional,amenity:atm,brand:Banco Nacional de Bolivia,brand:wikidata:Q21044226,brand:wikipedia:es:Banco Nacional de Bolivia,currency:BOB:yes,drive_through:no,operator:Banco Nacional de Bolivia,operator:wikidata:Q21044226,operator:wikipedia:es:Banco Nacional de Bolivia,short_name:BNB","lat":-11.027449,"lng":-68.7599592},{"id":"8267713684","name":"Banco BISA","tags":"addr:city:Cobija,addr:street:Rotonda 9 de Febrero e Internacional,amenity:atm,brand:Banco BISA,brand:wikidata:Q21044225,brand:wikipedia:es:Banco BISA,currency:BOB:yes,drive_through:no,operator:Banco BISA,operator:wikidata:Q21044225,operator:wikipedia:es:Banco BISA","lat":-11.0272208,"lng":-68.7596926},{"id":"8268924220","name":"Policía de Frontera","tags":"addr:city:Cobija,addr:street:Avenida Internacional,amenity:police,operator:Policía Boliviana","lat":-11.0265662,"lng":-68.752212},{"id":"8380997413","name":"GameOver Bolivia","tags":"addr:city:Cobija,addr:housenumber:062,addr:neighbourhood:Centro,addr:street:Avenida Teniente Coronel Enrique Fernandez Cornejo,email:ventas@gameover.com.bo,payment:Tigo_Money:yes,payment:cash:yes,payment:mastercard:yes,payment:visa:yes,phone:+59178201006,shop:mall,website:https://gameover.com.bo","lat":-11.0175848,"lng":-68.7568712},{"id":"8381034853","name":"World Tec Electronics","tags":"addr:city:Cobija,addr:housenumber:042,addr:neighbourhood:Centro,addr:street:Calle Ayacucho,payment:cash:yes,phone:+59172927292,shop:mall","lat":-11.0187121,"lng":-68.7567721},{"id":"8710658193","name":"ESTRUCTURA METALICA","tags":"addr:city:Cobija,addr:neighbourhood:TUNARI,addr:street:CALLE SIN NOMBRE,amenity:bar,opening_hours:24/7","lat":-11.0361695,"lng":-68.76312},{"id":"9203561418","name":"Correios - Brasileia","tags":"addr:housenumber:336,addr:street:Calle Nicolás Suárez,amenity:post_office,operator:Correios,operator:wikidata:Q3375004,operator:wikipedia:en:Correios","lat":-11.0157008,"lng":-68.7501149},{"id":"9203569618","name":"Ponto de Taxi","tags":"amenity:bus_station,bus:yes,name:en:Taxi Stand,public_transport:station","lat":-11.0163084,"lng":-68.7447677},{"id":"9203570118","name":"Ponto de Taxi para Assis","tags":"amenity:bus_station,bus:yes,phone:(68) 35465459,public_transport:station","lat":-11.0160341,"lng":-68.7448324}]