[{"id":"4503259210","name":"Damares","tags":"addr:street:Maria Cristina,name:pt:Damares,shop:convenience","lat":-2.866119,"lng":-67.778568},{"id":"4503259211","name":"Lojão Central","tags":"name:pt:Lojão Central,shop:convenience","lat":-2.8623129,"lng":-67.7725803},{"id":"4503259212","name":"DIP PM","tags":"amenity:police,name:pt:DIP PM","lat":-2.8577631,"lng":-67.7753611},{"id":"5726044035","name":"Souza","tags":"shop:supermarket","lat":-2.8621316,"lng":-67.7732272},{"id":"5726044036","name":"Anthony","tags":"shop:convenience","lat":-2.8618931,"lng":-67.7723752},{"id":"5726044038","tags":"shop:convenience","lat":-2.8612297,"lng":-67.771067},{"id":"5726059329","name":"Real","tags":"shop:convenience","lat":-2.8618442,"lng":-67.7716186},{"id":"5726059330","name":"Shekina","tags":"shop:convenience","lat":-2.8616371,"lng":-67.7723096},{"id":"5726059331","name":"Real","tags":"amenity:pharmacy","lat":-2.8617725,"lng":-67.7724811},{"id":"5726059332","tags":"amenity:bar","lat":-2.8615616,"lng":-67.7708826},{"id":"5726086429","name":"Bradesco","tags":"amenity:bank,brand:Bradesco,brand:wikidata:Q806181,brand:wikipedia:en:Banco Bradesco","lat":-2.8611954,"lng":-67.7717918},{"id":"5726086431","tags":"shop:convenience","lat":-2.8614545,"lng":-67.7710709},{"id":"5726087721","tags":"shop:convenience","lat":-2.8617113,"lng":-67.7721362},{"id":"7017142412","name":"Porto de Tonantins","tags":"amenity:ferry_terminal,ferry:yes,public_transport:station","lat":-2.8634381,"lng":-67.77088},{"id":"7193147738","name":"Tonantins","tags":"amenity:ferry_terminal,ferry:yes,public_transport:station","lat":-2.8621211,"lng":-67.7707973},{"id":"7193224707","name":"Hospital Frei Francisco","tags":"amenity:hospital,healthcare:hospital","lat":-2.8600147,"lng":-67.7722417},{"id":"7193357413","name":"Creche Municipal Elielza Martins","tags":"amenity:childcare","lat":-2.8607902,"lng":-67.775529}]