[{"id":"1042055610","name":"Colonia Carmelo Peralta Airport","tags":"aeroway:aerodrome,wikidata:Q15958340","lat":-21.6772657,"lng":-57.9132204},{"id":"1042065515","name":"Aeródromo Fazenda Anahí","tags":"aeroway:aerodrome","lat":-21.7073723,"lng":-57.7414022},{"id":"1042082898","name":"Aeroporto Municipal de Porto Murtinho","tags":"aeroway:aerodrome,icao:SSPM,wikidata:Q12694506","lat":-21.7108336,"lng":-57.881154},{"id":"1978058565","tags":"amenity:bank,atm:yes,brand:Banco do Brasil","lat":-21.6996052,"lng":-57.8899002},{"id":"1978060372","name":"Empresa Brasileira de Correios e Telégrafos","tags":"amenity:post_office","lat":-21.7005522,"lng":-57.8891975},{"id":"1978061195","name":"Hospital Público","tags":"amenity:hospital,healthcare:hospital","lat":-21.7016936,"lng":-57.8847718},{"id":"1978072598","name":"Terminal Rodoviário","tags":"amenity:bus_station,bus:yes,public_transport:station","lat":-21.6993142,"lng":-57.8818277},{"id":"3633025540","name":"Porto Murtinho","tags":"amenity:ferry_terminal,ferry:yes,public_transport:station","lat":-21.695407,"lng":-57.8866477},{"id":"4919738651","tags":"amenity:ferry_terminal,ferry:yes,public_transport:station","lat":-21.698541,"lng":-57.8902478},{"id":"4919738652","tags":"amenity:ferry_terminal,ferry:yes,public_transport:station","lat":-21.6976275,"lng":-57.8934766},{"id":"6410081276","name":"EMEI Primeiros Passos","tags":"addr:city:Porto Murtinho,addr:housenumber:621,addr:postcode:79280-000,addr:street:Rua Coronel Ponce,addr:suburb:Centro,amenity:school,operator:Prefeitura Municipal","lat":-21.6993012,"lng":-57.8860457},{"id":"6410081279","name":"Restaurante Tembiu'He","tags":"addr:city:Porto Murtinho,addr:housenumber:399,addr:postcode:79280-000,addr:street:Avenida Rio Branco,addr:suburb:Centro,amenity:restaurant","lat":-21.6999716,"lng":-57.8882773},{"id":"6462949144","name":"Comisaría 3 ColoniaCarmelo Peralta","tags":"addr:district:Alto Paraguay,addr:province:Carmelo Peralta,amenity:police,official_name:Comisaría 3 Col Carmelo Peralta,operator:Ministerio del Interior","lat":-21.6711676,"lng":-57.9189241},{"id":"6632040944","name":"Ilha Margarida","tags":"amenity:ferry_terminal,ferry:yes,public_transport:station","lat":-21.6950721,"lng":-57.8894182},{"id":"7975058685","tags":"amenity:atm,opening_hours:24/7,operator:BNF COMISARÍA CARAMELO PERALTA","lat":-21.6710831,"lng":-57.9188425},{"id":"10091187654","tags":"amenity:parking","lat":-21.6904676,"lng":-57.8983659},{"id":"10091210331","name":"Despensa chaqueña","tags":"shop:convenience","lat":-21.6893345,"lng":-57.8992715},{"id":"10091925832","tags":"amenity:ferry_terminal,ferry:yes,public_transport:station","lat":-21.6904293,"lng":-57.8980442},{"id":"10091925844","tags":"amenity:ferry_terminal,ferry:yes,public_transport:station","lat":-21.6982423,"lng":-57.8899502},{"id":"10092567548","name":"Comercial La Rotonda","tags":"shop:convenience","lat":-21.6705706,"lng":-57.9210548},{"id":"10092587475","name":"Comercial Rubencito","tags":"shop:convenience","lat":-21.6706148,"lng":-57.9198673},{"id":"10093675104","name":"La Frontera Restobar","tags":"amenity:bar","lat":-21.6793024,"lng":-57.9050643},{"id":"10093687866","name":"Farmacia Chiqui","tags":"amenity:pharmacy","lat":-21.6786607,"lng":-57.9053759},{"id":"10093701193","name":"Farma Bella","tags":"amenity:pharmacy","lat":-21.6737577,"lng":-57.9109601},{"id":"10093705695","name":"Comercial Rivas","tags":"shop:convenience","lat":-21.6728632,"lng":-57.9124204},{"id":"10093707356","tags":"shop:convenience","lat":-21.672587,"lng":-57.9130097},{"id":"10093707496","name":"Comercial Tupasi Caacupe","tags":"shop:convenience","lat":-21.6865256,"lng":-57.9034099},{"id":"10093707894","name":"Comercial Pueeto Maria","tags":"shop:convenience","lat":-21.6710718,"lng":-57.9167943},{"id":"10093707895","name":"Taco Burger","tags":"amenity:restaurant","lat":-21.6711905,"lng":-57.9205309},{"id":"10093710053","name":"BNF","tags":"amenity:atm","lat":-21.6710331,"lng":-57.9189392},{"id":"10093713225","name":"Arlam","tags":"shop:convenience","lat":-21.6710864,"lng":-57.9253436},{"id":"10093713682","name":"Comercial Luz","tags":"shop:convenience","lat":-21.6873234,"lng":-57.9029105},{"id":"10093714956","name":"Policia Nacional","tags":"amenity:police","lat":-21.6712639,"lng":-57.918978},{"id":"10093720474","name":"Punto Comercial","tags":"phone:+595983114368,shop:supermarket","lat":-21.6852621,"lng":-57.9034558},{"id":"10093722211","name":"Autoservice La Fortuna","tags":"shop:convenience","lat":-21.6750549,"lng":-57.9080893},{"id":"10093728013","name":"Comercial Taco Burger","tags":"shop:convenience","lat":-21.6711076,"lng":-57.9206902},{"id":"10093728399","name":"Escuela Basica Carlos Antonio Lopez","tags":"amenity:school","lat":-21.6749162,"lng":-57.9092741},{"id":"10093729118","tags":"shop:convenience","lat":-21.684794,"lng":-57.9045561},{"id":"10093729119","name":"Copetin","tags":"amenity:restaurant","lat":-21.6712474,"lng":-57.9148709},{"id":"10093729120","name":"Despensa y Hospedaje Estela Maria","tags":"shop:convenience","lat":-21.6706941,"lng":-57.9189742},{"id":"10093729437","name":"Bar Caranday","tags":"amenity:bar","lat":-21.6711299,"lng":-57.9155746},{"id":"10093729439","tags":"shop:convenience","lat":-21.678764,"lng":-57.9053212},{"id":"10755836794","tags":"amenity:ferry_terminal,ferry:yes,public_transport:station","lat":-21.6913121,"lng":-57.8975494},{"id":"10755847785","name":"Vicari - Caminho dos Andes","tags":"amenity:restaurant","lat":-21.7013541,"lng":-57.8349829},{"id":"10755850610","tags":"amenity:ferry_terminal,ferry:yes,public_transport:station","lat":-21.7054597,"lng":-57.8953491}]