[{"id":"2382055153","name":"Abismo Anhumas","tags":"name:en:Anhumas Abyss,natural:cave_entrance,tourism:attraction","lat":-21.1531123,"lng":-56.5988317},{"id":"2382055156","name":"Gruta do Lago Azul","tags":"name:en:Blue Lake Cave,natural:cave_entrance,tourism:attraction,wikidata:Q22687920","lat":-21.1447124,"lng":-56.5915106},{"id":"2382055157","name":"Grutas de São Miguel","tags":"name:en:Saint Michael Caves,natural:cave_entrance,tourism:attraction,wheelchair:no","lat":-21.1066434,"lng":-56.5812361},{"id":"2384585941","name":"Balneário Ilha Bonita","tags":"leisure:water_park,tourism:attraction,website:http://www.ilhabonita.com.br/","lat":-21.14361,"lng":-56.4014811},{"id":"2384585953","name":"Balneário Municipal de Bonito","tags":"leisure:water_park,tourism:attraction","lat":-21.1742739,"lng":-56.4478123},{"id":"2384585961","name":"Balneário do Sol","tags":"leisure:water_park,tourism:attraction,website:https://balneariodosol.tur.br/","lat":-21.1420371,"lng":-56.4056422},{"id":"2721680182","name":"Balneário Monte Cristo","tags":"leisure:water_park,tourism:attraction","lat":-21.1871132,"lng":-56.5256876},{"id":"2721697145","name":"Balneário do Gordo","tags":"leisure:water_park,tourism:attraction,website:http://www.balneariodogordo.com.br/","lat":-21.1584029,"lng":-56.4235332},{"id":"2950123792","name":"Darcy João Bigaton","tags":"addr:city:Bonito,addr:housenumber:201,addr:postcode:79290-000,addr:street:Rua São Pedro Apóstolo,amenity:hospital,emergency:yes","lat":-21.1314344,"lng":-56.4765243},{"id":"2950133365","name":"Escola Municipal João Alves de Arruda","tags":"addr:city:Bonito,addr:housenumber:340,addr:postcode:79290-000,addr:street:Rua Nakaba Matsumoto,amenity:school","lat":-21.1329294,"lng":-56.4767446},{"id":"2950133467","name":"Escola Municipal Pequeno Príncipe","tags":"addr:city:Bonito,addr:postcode:79290-000,addr:street:Rua São Pedro Apóstolo,amenity:school","lat":-21.1301533,"lng":-56.4777193},{"id":"2950133668","name":"Delegacia de Polícia Civil","tags":"addr:city:Bonito,addr:postcode:79290-000,addr:street:Rua 24 de Fevereiro,amenity:police","lat":-21.1277643,"lng":-56.481427},{"id":"2950134105","name":"Companhia de Polícia Militar","tags":"addr:city:Bonito,addr:postcode:79290-000,addr:street:Rua 24 de Fevereiro,amenity:police","lat":-21.1250016,"lng":-56.4869845},{"id":"2951404744","tags":"amenity:atm,brand:Banco do Brasil,opening_hours:24/7,operator:Banco do Brasil","lat":-21.1270247,"lng":-56.4881192},{"id":"3022224608","tags":"amenity:atm,brand:Caixa,opening_hours:24/7,operator:Caixa","lat":-21.1292766,"lng":-56.4836635},{"id":"3022986853","name":"Barra da Sucuri","tags":"tourism:attraction,website:https://www.sucuri.com.br/","lat":-21.2554472,"lng":-56.5454979},{"id":"3039821905","name":"Ilha do Padre (Embarque Bote)","tags":"tourism:attraction","lat":-21.1348628,"lng":-56.395109},{"id":"3039832498","name":"Bote Keda D'Água","tags":"tourism:attraction","lat":-21.1414728,"lng":-56.3986578},{"id":"3039835754","name":"Bonito Aventura","tags":"tourism:attraction,website:http://www.bonitoaventura.com.br/","lat":-21.1731098,"lng":-56.4504499},{"id":"3039835755","name":"Bóia Cross","tags":"tourism:attraction","lat":-21.1709958,"lng":-56.4459185},{"id":"3039848001","name":"Parque Ecológico Rio Formoso","tags":"tourism:attraction,website:https://www.parquerioformoso.com.br/","lat":-21.176446,"lng":-56.449696},{"id":"3046464768","name":"Farmácia Municipal de Bonito","tags":"addr:city:Bonito,addr:country:BR,addr:housenumber:1334,addr:street:Rua Coronel Pilad Rebuá,shop:chemist","lat":-21.124919,"lng":-56.492344},{"id":"3046464769","name":"Mercadao Ariane","tags":"addr:city:Bonito,addr:country:BR,addr:housenumber:806,addr:street:Rua 15 de Novembro,shop:supermarket","lat":-21.1284571,"lng":-56.4841772},{"id":"3046464770","name":"Mercadão da Praça","tags":"addr:city:Bonito,addr:country:BR,addr:housenumber:2002,addr:street:Rua Coronel Pilad Rebuá,opening_hours:Mo-Sa 07:00-22:00; Su 08:00-22:00,shop:supermarket","lat":-21.1291667,"lng":-56.4839702},{"id":"3046464771","name":"Mercadao","tags":"addr:city:Bonito,addr:country:BR,shop:supermarket","lat":-21.1303883,"lng":-56.4863777},{"id":"3046464772","name":"Mercado França","tags":"addr:city:Bonito,addr:country:BR,addr:housenumber:1419,addr:street:Rua Coronel Pilad Rebuá,shop:convenience","lat":-21.1252625,"lng":-56.4910402},{"id":"3046464773","name":"Mercado São Marcos","tags":"addr:city:Bonito,addr:country:BR,addr:street:Rua das Flores,shop:supermarket","lat":-21.128259,"lng":-56.4881799},{"id":"3046464774","name":"Mercado Vargas e Açougue","tags":"addr:city:Bonito,addr:country:BR,addr:housenumber:1476,addr:street:Rua Coronel Pilad Rebuá,shop:convenience","lat":-21.1257766,"lng":-56.4905805},{"id":"3046489527","name":"Bradesco","tags":"addr:city:Bonito,addr:country:BR,addr:housenumber:1950,addr:street:Rua Coronel Pilad Rebuá,amenity:bank,atm:yes","lat":-21.1285168,"lng":-56.4851176},{"id":"3046489528","name":"AC Bonito","tags":"addr:city:Bonito,addr:country:BR,addr:housenumber:1759,addr:postcode:79290-970,addr:street:Rua Coronel Pilad Rebuá,addr:suburb:Centro,amenity:post_office,collection_times:Mo-Fr 09:00-11:30, 13:00-16:00,operator:Correios,phone:+55 67 3255-1723,website:https://www.correios.com.br","lat":-21.1274021,"lng":-56.4868481},{"id":"3046498838","name":"Sicredi","tags":"addr:city:Bonito,addr:country:BR,addr:street:Rua Coronel Pilad Rebuá,amenity:bank,atm:yes","lat":-21.1257008,"lng":-56.4900788},{"id":"3046507869","name":"Per Quilo","tags":"amenity:restaurant,cuisine:regional","lat":-21.1279108,"lng":-56.4851971},{"id":"3046507870","tags":"amenity:restaurant,cuisine:regional","lat":-21.1281245,"lng":-56.4853606},{"id":"3046507875","tags":"amenity:restaurant,cuisine:regional","lat":-21.1298115,"lng":-56.4826593},{"id":"3046507876","tags":"amenity:restaurant,cuisine:regional","lat":-21.129932,"lng":-56.4824502},{"id":"3046507917","tags":"addr:city:Bonito,addr:country:BR,addr:street:Rua Coronel Pilad Rebuá,amenity:restaurant","lat":-21.1325226,"lng":-56.478824},{"id":"3046507918","name":"Toca do Peixe","tags":"amenity:restaurant,cuisine:regional","lat":-21.1281917,"lng":-56.4840358},{"id":"3957522032","name":"Gruta São Mateus","tags":"alt_name:Gruta de São Matheus,name:en:Saint Matthew Cave,natural:cave_entrance,tourism:attraction,wheelchair:no","lat":-21.1334327,"lng":-56.4553271},{"id":"3957522175","tags":"amenity:parking,fee:no,parking:surface,smoothness:bad,surface:gravel","lat":-21.1078788,"lng":-56.5812704},{"id":"3957522596","tags":"amenity:parking,covered:no,description:Estacionamento da Gruta do Lago Azul,parking:surface,surface:unpaved","lat":-21.1437156,"lng":-56.5879458},{"id":"4360787074","name":"Correios","tags":"amenity:post_office","lat":-21.1277129,"lng":-56.4871524},{"id":"4800208721","name":"Barra do Sucuri","tags":"name:pt:Barra do Sucuri,tourism:attraction","lat":-21.2569596,"lng":-56.5491088},{"id":"4817079324","tags":"amenity:bar,name:en:Bonito beer","lat":-21.1290732,"lng":-56.4844892},{"id":"4858553726","name":"Juanita","tags":"amenity:restaurant,name:pt:Juanita","lat":-21.12766,"lng":-56.49012},{"id":"4858594021","name":"Joao","tags":"amenity:restaurant,name:pt:Joao","lat":-21.12737,"lng":-56.48263},{"id":"4858594121","name":"Allegra Gelato","tags":"amenity:cafe,name:pt:Allegra Gelato","lat":-21.1292308,"lng":-56.4837216},{"id":"5196969921","name":"Aquário de Bonito","tags":"name:en:Bonito Aquarium,name:fr:Bonito Aquarium,tourism:attraction","lat":-21.1272906,"lng":-56.4825846},{"id":"5518698522","name":"Porto da Ilha Bonito MS","tags":"tourism:attraction","lat":-21.1191541,"lng":-56.3866716},{"id":"5574661221","name":"Taboa","tags":"addr:housenumber:1.834,addr:postcode:79290-000,addr:street:Rua Coronel Pilad Rebuá,amenity:bar","lat":-21.1277864,"lng":-56.4861642},{"id":"5648499925","name":"Zapi Zen","tags":"amenity:restaurant","lat":-21.1280386,"lng":-56.4850591},{"id":"5648518322","name":"Bonito Beer","tags":"amenity:bar","lat":-21.1291972,"lng":-56.4838071},{"id":"6610485885","name":"Turquesa","tags":"amenity:restaurant,name:pt:Turquesa - Arabe e Natural","lat":-21.1278834,"lng":-56.486498},{"id":"6610491685","name":"Pastelaria","tags":"amenity:restaurant,name:pt:Pastelaria Pastel Bonito","lat":-21.1286497,"lng":-56.4844267},{"id":"6976926086","name":"Corsini slow coffee","tags":"amenity:cafe,cuisine:coffee_shop,internet_access:wlan","lat":-21.1271672,"lng":-56.4830798},{"id":"8329044317","tags":"name:en:Rio do Sucuri,tourism:attraction","lat":-21.2551319,"lng":-56.5696432},{"id":"9129818851","name":"Centro de Múltiplo Uso - CMU","tags":"addr:street:Rua 24 de Fevereiro,leisure:park,opening_hours:Mo-Su 07:00-22:00","lat":-21.1277377,"lng":-56.4786033}]