[{"id":"1042068591","name":"Aeródromo Fazenda Jangada","tags":"aeroway:aerodrome","lat":-15.2408333,"lng":-56.5780563},{"id":"1042086526","name":"Aeródromo Fazenda Santa Rita de Cássia","tags":"aeroway:aerodrome","lat":-15.2502785,"lng":-56.4811096},{"id":"4086602644","name":"Praça perto do rio Cuiabá","tags":"leisure:park","lat":-15.2037021,"lng":-56.3671074},{"id":"6015542867","tags":"amenity:police,police:traffic_police","lat":-15.1432519,"lng":-56.3358132},{"id":"6110490285","name":"Jangada Rodoviário","tags":"amenity:bus_station","lat":-15.2352922,"lng":-56.4923786},{"id":"6373147951","name":"Restaurante do Gaúcho","tags":"amenity:restaurant","lat":-15.2507539,"lng":-56.4679307},{"id":"6373147953","tags":"amenity:restaurant","lat":-15.2759855,"lng":-56.4428019},{"id":"6400871085","name":"Restaurante e Lanchonete Chopana","tags":"amenity:restaurant,cuisine:local,internet_access:wlan","lat":-15.211848,"lng":-56.5048446},{"id":"6797709726","tags":"amenity:school","lat":-15.2290084,"lng":-56.4977272},{"id":"7214147685","name":"Polícia municipal","tags":"amenity:police","lat":-15.1427188,"lng":-56.3360631}]