[{"id":"4797036471","name":"FACULDADE SÃO PAULO","tags":"amenity:university","lat":-11.7269296,"lng":-61.7960138},{"id":"4797036473","name":"Parque","tags":"leisure:park","lat":-11.7255325,"lng":-61.7913272},{"id":"4797036474","name":"PISTA DE KART","tags":"leisure:park","lat":-11.7257248,"lng":-61.7712061},{"id":"4797036475","name":"Banco do Brasil","tags":"amenity:bank","lat":-11.7240107,"lng":-61.7763888},{"id":"4797036476","name":"Banco Bradesco","tags":"amenity:bank","lat":-11.7245702,"lng":-61.7762535},{"id":"6401662724","tags":"leisure:park","lat":-11.7258304,"lng":-61.7696454},{"id":"6448702778","tags":"leisure:park,natural:tree","lat":-11.7379382,"lng":-61.7847599},{"id":"6660793148","tags":"amenity:bank","lat":-11.7212401,"lng":-61.7745316},{"id":"7787467625","name":"Rodoviária","tags":"addr:city:Rolim de Moura,addr:state:RO,amenity:bus_station,bus:yes,public_transport:station","lat":-11.7277057,"lng":-61.7788654}]