[{"id":"1042063789","name":"Aeródromo Rancho Enagri","tags":"aeroway:aerodrome","lat":-16.95611,"lng":-53.57},{"id":"1042086341","name":"Aeródromo Fazenda Arco-Íris","tags":"aeroway:aerodrome","lat":-16.9360755,"lng":-53.5729275},{"id":"1844726227","name":"Polícia Rodoviária Federal","tags":"amenity:police,opening_hours:24/7,operator:Polícia Rodoviária Federal,operator:wikidata:Q1158853,operator:wikipedia:pt:Polícia Rodoviária Federal,phone:+55 65 3928 3078,police:traffic_police","lat":-17.0253167,"lng":-53.4888784},{"id":"4173559357","name":"Banco do Brasil","tags":"addr:city:Alto Garças,addr:housenumber:392,addr:postcode:78770-000,addr:street:Avenida 7 de Setembro,addr:suburb:Centro,amenity:bank,atm:yes,drive_through:no,opening_hours:09:00-14:00","lat":-16.9434991,"lng":-53.5310733},{"id":"4173559362","name":"Posto de Atendimento de Alto Garças","tags":"addr:city:Alto Garças,addr:postcode:78770-000,addr:suburb:Centro,amenity:hospital","lat":-16.9430543,"lng":-53.5324691},{"id":"4173559363","name":"Drogaria Santa Efigênia","tags":"addr:city:Alto Garças,addr:postcode:78770-000,addr:suburb:Centro,amenity:pharmacy,drive_through:no","lat":-16.9437966,"lng":-53.5319809},{"id":"4173559365","name":"Supermercado Viola","tags":"addr:city:Alto Garças,addr:postcode:78770-000,addr:street:Avenida 7 de Setembro,addr:suburb:Centro,shop:supermarket","lat":-16.9438472,"lng":-53.5309181},{"id":"4173559371","name":"Drogaria Rezende","tags":"addr:city:Alto Garças,addr:postcode:78770-000,addr:street:Avenida 7 de Setembro,addr:suburb:Centro,amenity:pharmacy,drive_through:no,opening_hours:07:00-18:00,operator:Varlúcio","lat":-16.9443398,"lng":-53.5305034},{"id":"4173559373","name":"Bradesco","tags":"addr:city:Alto Garças,addr:postcode:78770-000,addr:street:Avenida 7 de Setembro,addr:suburb:Centro,amenity:bank,atm:yes,drive_through:no","lat":-16.9455651,"lng":-53.5300529},{"id":"4173661997","name":"Sicredi","tags":"addr:city:Alto Garças,addr:postcode:78770-000,addr:street:Avenida 7 de Setembro,addr:suburb:Centro,amenity:bank,atm:yes,drive_through:no,opening_hours:09:00-14:00","lat":-16.9457842,"lng":-53.5298446},{"id":"4173661999","name":"Galeria Ruaro","tags":"addr:city:Alto Garças,addr:postcode:78770-000,addr:street:Avenida 7 de Setembro,addr:suburb:Centro,shop:mall","lat":-16.9434508,"lng":-53.5298852},{"id":"4173662000","name":"Correios","tags":"addr:city:Alto Garças,addr:postcode:78770-000,addr:street:Avenida 7 de Setembro,addr:suburb:Centro,amenity:post_office","lat":-16.9435655,"lng":-53.5300113},{"id":"4173662006","name":"Drogaria Natália","tags":"addr:city:Alto Garças,addr:postcode:78770-000,addr:street:Avenida 7 de Setembro,addr:suburb:Centro,amenity:pharmacy,opening_hours:07:00-18:00,operator:Nafis","lat":-16.9447926,"lng":-53.5294849},{"id":"4173662008","name":"Supermercado Real","tags":"addr:city:Alto Garças,addr:postcode:78770-000,addr:street:Avenida 7 de Setembro,addr:suburb:Centro,opening_hours:07:00-19:00,operator:Joilsom,shop:supermarket","lat":-16.9454697,"lng":-53.5290089}]