[{"id":"568163639","name":"Cachoeira do Rio Araguaia","tags":"tourism:attraction,waterway:waterfall","lat":-17.299255,"lng":-53.2185283},{"id":"1042087745","name":"Fazenda Santa Rita","tags":"aeroway:aerodrome,wikidata:Q31204909","lat":-17.3467286,"lng":-53.1942934},{"id":"1673825653","name":"Restaurante Tropical","tags":"amenity:restaurant","lat":-17.3094905,"lng":-53.2209799},{"id":"1710914404","name":"Banco do Brasil","tags":"amenity:bank,brand:Banco do Brasil,brand:wikidata:Q610817,brand:wikipedia:en:Banco do Brasil","lat":-17.3126611,"lng":-53.2174052},{"id":"2316660623","name":"Estádio Bilinão","tags":"leisure:stadium","lat":-17.3282964,"lng":-53.2187646},{"id":"5729229224","name":"Alto Araguaia","tags":"aeroway:aerodrome","lat":-17.2780737,"lng":-53.2543178},{"id":"5729248924","tags":"amenity:hospital,healthcare:hospital","lat":-17.3101827,"lng":-53.2183232},{"id":"9666838053","name":"Bradesco","tags":"amenity:bank,brand:Bradesco,brand:wikidata:Q806181,brand:wikipedia:en:Banco Bradesco","lat":-17.3122184,"lng":-53.2177898}]