[{"id":"1042065700","name":"Fazenda Gandu","tags":"aeroway:aerodrome","lat":-22.4826079,"lng":-49.466932},{"id":"1042082786","name":"Estância J.D.S","tags":"aeroway:aerodrome","lat":-22.3372211,"lng":-49.5430565},{"id":"3502845059","name":"EMEIEF Prof Maria do Carmo da Silva Julião","tags":"amenity:school","lat":-22.3592341,"lng":-49.5192441},{"id":"3502845060","name":"Escola Estadual Coronel Eduardo de Souza Porto","tags":"amenity:school","lat":-22.3592213,"lng":-49.52012},{"id":"3502845061","name":"Creche Pequeno Davi","tags":"amenity:childcare","lat":-22.358777,"lng":-49.520296},{"id":"4457732971","tags":"amenity:bus_station","lat":-22.4160849,"lng":-49.4116201}]