[{"id":"3686233055","name":"Paróquia Nossa Senhora da Paz","tags":"addr:city:Bálsamo,addr:housenumber:359,addr:street:Rua Rio Grande do Sul,addr:suburb:Centro,amenity:place_of_worship,building:church,denomination:roman_catholic,religion:christian,wheelchair:yes","lat":-20.7356133,"lng":-49.5839234},{"id":"3871035524","tags":"amenity:school","lat":-20.6830525,"lng":-49.6884514},{"id":"4464189877","name":"Ivone Supermercados","tags":"addr:city:Tanabi,addr:housenumber:410,addr:state:SP,addr:street:Avenida Gildo Savatin,addr:suburb:Jardim Santa Mônica,phone:+55 17 3272 9999,shop:supermarket,wheelchair:yes","lat":-20.6314225,"lng":-49.658238},{"id":"8048820524","name":"Cmei Sérgio Batocchio Gonçalves","tags":"amenity:school,operator:Prefeitura Municipal,wheelchair:yes","lat":-20.6176221,"lng":-49.642818},{"id":"9948396147","name":"Tanabi","tags":"addr:city:Tanabi,addr:suburb:Sapé,internet_access:no,public_transport:station,railway:station,train:yes","lat":-20.63015,"lng":-49.7111733},{"id":"9948396156","name":"Engenheiro Balduíno","tags":"addr:city:Monte Aprazível,addr:street:Rua José Zanoveli,addr:suburb:Engenheiro Balduíno,internet_access:no,public_transport:station,railway:station,train:yes","lat":-20.6829045,"lng":-49.6907617},{"id":"9948396161","name":"Bálsamo","tags":"addr:city:Bálsamo,addr:street:Rua Júlio Soares,addr:suburb:Centro,internet_access:no,public_transport:station,railway:station,train:yes","lat":-20.7395228,"lng":-49.5819696}]