[{"id":"1042069251","name":"Santa Paula","tags":"aeroway:aerodrome","lat":-20.7011535,"lng":-49.388847},{"id":"2813515037","tags":"amenity:school","lat":-20.6555163,"lng":-49.3859556},{"id":"3611760390","name":"Correios","tags":"addr:city:Onda Verde,addr:housenumber:333,addr:street:Avenida Ismael,amenity:post_office,brand:Correios,brand:wikidata:Q3375004,brand:wikipedia:en:Correios,phone:+55 17 3268 1118","lat":-20.6109938,"lng":-49.2959683},{"id":"3611760694","name":"Drogaria Central","tags":"addr:city:Onda Verde,addr:housenumber:155,addr:street:Avenida Ismael,amenity:pharmacy,healthcare:pharmacy,phone:+55 17 3268 1292","lat":-20.6087446,"lng":-49.2949575},{"id":"3611760695","name":"Popular","tags":"addr:city:Onda Verde,addr:housenumber:210,addr:street:Avenida Romano Calil,phone:+55 17 3268 1144,shop:supermarket","lat":-20.6082476,"lng":-49.2946326},{"id":"3611760696","name":"Banco Santander","tags":"addr:city:Onda Verde,addr:housenumber:30,addr:street:Avenida Coopcamp,amenity:bank,brand:Banco Santander,brand:en:Santander Bank,brand:es:Banco Santander,brand:wikidata:Q6496310,brand:wikipedia:es:Banco Santander,name:en:Santander Bank,name:es:Banco Santander,official_name:Santander Group,phone:+55 17 3268 9000","lat":-20.6082893,"lng":-49.2940114},{"id":"3611760704","name":"Delegacia de Polícia","tags":"addr:city:Onda Verde,addr:housenumber:367,addr:postcode:15450-000,addr:street:Avenida Nove de Julho,addr:suburb:Centro,amenity:police,phone:+55 17 3268 1150","lat":-20.6108099,"lng":-49.2969517},{"id":"3611760713","name":"Restaurante Avenida","tags":"addr:city:Onda Verde,addr:housenumber:1210,addr:street:Avenida Romano Calil,amenity:restaurant,phone:+55 17 3268 7465","lat":-20.607343,"lng":-49.2966491},{"id":"3611760740","name":"Polícia Militar","tags":"addr:city:Onda Verde,addr:housenumber:1,addr:street:Rua Pedro de Toledo,amenity:police,phone:+55 17 3268 1200","lat":-20.6088064,"lng":-49.2954045},{"id":"3897523503","name":"Congregação Cristã no Brasil","tags":"addr:housenumber:235,addr:street:Rua do Comércio,amenity:place_of_worship,building:church,religion:christian","lat":-20.6588495,"lng":-49.3887694},{"id":"3897523505","name":"Delegacia de Polícia","tags":"addr:housenumber:110,addr:street:Rua Efraim Garcia Lopes,amenity:police,phone:+55 17 3269 1228","lat":-20.6557372,"lng":-49.3843832},{"id":"3982847433","name":"Ginásio de Esportes","tags":"leisure:sports_centre","lat":-20.615221,"lng":-49.4687332},{"id":"5370866518","name":"Delegacia de Polícia","tags":"addr:city:Mirassolândia,addr:housenumber:801,addr:street:Rua Francisco Broiser,amenity:police","lat":-20.6178982,"lng":-49.4678012},{"id":"5370866519","name":"Polícia Militar","tags":"addr:city:Mirassolândia,amenity:police","lat":-20.6175028,"lng":-49.4639012},{"id":"5372867232","name":"Emef Chrisostimo Redigolo","tags":"addr:city:Mirassolândia,addr:housenumber:665,addr:street:Rua Simão Silva Bastos,addr:suburb:Centro,amenity:school,official_name:Escola Municipal de Ensino Fundamental Chrisostimo Redigolo,operator:Prefeitura Municipal,phone:+55 17 3263 2011","lat":-20.6157782,"lng":-49.4656862},{"id":"5372867233","name":"Escola Estadual Joaquim Mendes Pequito","tags":"addr:city:Mirassolândia,addr:housenumber:345,addr:street:Rua Antônio Batista Rodrigues,addr:suburb:Centro,amenity:school,operator:Governo do Estado de São Paulo,phone:+55 17 3263 1120,wheelchair:yes","lat":-20.6151606,"lng":-49.4649741},{"id":"6001227033","name":"Restaurante Tabocão","tags":"addr:city:São José do Rio Preto,addr:street:Rodovia Transbrasiliana, km 52,amenity:restaurant,cuisine:regional","lat":-20.7289434,"lng":-49.3376684},{"id":"8964028166","name":"Banco Bradesco","tags":"addr:city:Ipiguá,addr:housenumber:361,addr:street:Rua do Comércio,amenity:bank,atm:yes,brand:Bradesco,wheelchair:yes","lat":-20.6574258,"lng":-49.3884265}]