[{"id":"1042064232","name":"Aeroporto de Jales","tags":"aeroway:aerodrome,iata:JLS","lat":-20.292023,"lng":-50.5455771},{"id":"1042070783","name":"Frigo Estrela","tags":"aeroway:aerodrome,icao:SJFF,wikidata:Q31205497","lat":-20.2947216,"lng":-50.4105568},{"id":"2652322540","name":"Proença Supermercados","tags":"addr:city:Jales,addr:housenumber:3530,addr:postcode:15700-200,addr:street:Avenida João Amadeu,addr:suburb:Jardim Aclimacão,phone:+55 17 3624 3100,shop:supermarket","lat":-20.2630225,"lng":-50.5403272},{"id":"2652322544","name":"Sakashita","tags":"shop:supermarket","lat":-20.2718479,"lng":-50.5483897},{"id":"2652322545","name":"Santa Casa","tags":"addr:city:Jales,addr:housenumber:2049,addr:postcode:15700-082,addr:street:Avenida João Amadeu,addr:suburb:Centro,amenity:hospital,phone:+55 17 3622 5000","lat":-20.2708252,"lng":-50.5525318},{"id":"2652322547","name":"Hospital de Câncer de Jales","tags":"addr:housenumber:3737,addr:postcode:15706-396,addr:street:Avenida Francisco Jales,amenity:hospital,phone:+55 17 3624-3900,short_name:Hospital de Câncer,website:https://www.hcancerbarretos.com.br/hospital-de-cancer-de-jales","lat":-20.2619758,"lng":-50.5577061},{"id":"3762743108","name":"Clube do Suco","tags":"addr:city:Jales,addr:housenumber:2.728,addr:postcode:15703-028,addr:street:Rua 8,amenity:bar,website:https://www.facebook.com/clubedosuco","lat":-20.2693482,"lng":-50.545349},{"id":"3946596969","name":"Cemei Professora Dayse Linei Malavazzi","tags":"addr:housenumber:313,addr:street:Rua Jacob de Angelis Gaeti,addr:suburb:Jardim Ipanema,amenity:school,phone:+55 17 3463-4333","lat":-20.2699072,"lng":-50.2772383},{"id":"4294819440","tags":"amenity:parking,operator:Universidade Brasil","lat":-20.2958354,"lng":-50.2791882},{"id":"4294819441","tags":"amenity:parking,operator:Universidade Brasil","lat":-20.2962178,"lng":-50.2803549},{"id":"5186295824","tags":"amenity:restaurant,opening_hours:Mo-Sa 10:00-14:00,phone:+55 17 3621-1809","lat":-20.2782269,"lng":-50.5416703},{"id":"6008152033","name":"Polícia Rodoviária Estadual","tags":"addr:city:Jales,addr:housenumber:km 586,addr:postcode:15700000,addr:street:Rodovia Euclides da Cunha,addr:suburb:Zona Rual,amenity:police","lat":-20.2548348,"lng":-50.572854},{"id":"6538567388","name":"Colégio Anglo","tags":"amenity:school","lat":-20.2737575,"lng":-50.545207},{"id":"6538567392","name":"Correios","tags":"amenity:post_office","lat":-20.2716755,"lng":-50.5486536},{"id":"6538567397","name":"EscolaDoutor Euphly Jales","tags":"amenity:school","lat":-20.2718591,"lng":-50.5438739},{"id":"6538567400","tags":"amenity:hospital","lat":-20.2767,"lng":-50.5411246},{"id":"6538567401","name":"Faculdade de Tecnologia Professor José Camargo","tags":"addr:city:Jales,addr:housenumber:2630,addr:street:Rua Vicente Leporace,addr:suburb:Jardim Trianon,amenity:university,short_name:FATEC","lat":-20.276193,"lng":-50.5411917},{"id":"6893913722","name":"Pesqueiro e Restaurante Colina","tags":"addr:city:Jales,addr:postcode:SP,amenity:restaurant,cuisine:arroz;feijão;farofa;salada;peixe_frito;peixe,opening_hours:We-Su 16:00-23:00,phone:+55 17 99704-7665","lat":-20.2541766,"lng":-50.5685602},{"id":"7654752449","tags":"amenity:parking,park_ride:yes","lat":-20.2568256,"lng":-50.5424157},{"id":"9413751079","name":"Bem-me Quero Esmalteria","tags":"addr:city:Jales,addr:housenumber:2370,addr:postcode:15700062,addr:street:Rua 6,addr:suburb:Centro,amenity:cafe,opening_hours:Mo-Sa 08:00-20:00","lat":-20.2721471,"lng":-50.5475392}]