[{"id":"3677014927","tags":"amenity:school","lat":-20.2537796,"lng":-49.5495689},{"id":"3677014930","name":"Velório Municipal","tags":"addr:street:Avenida Joaquim Valério do Nascimento,amenity:grave_yard","lat":-20.2551509,"lng":-49.5498757},{"id":"3849265081","name":"Favorito","tags":"addr:housenumber:1312,addr:street:Rua Primeiro de Maio,phone:+55 17 3293 1294,shop:supermarket","lat":-20.3899814,"lng":-49.4332011},{"id":"4305402183","name":"Polícia Militar","tags":"addr:city:Palestina,addr:state:SP,addr:suburb:Centro,amenity:police","lat":-20.3885571,"lng":-49.4353357},{"id":"6227831665","name":"Cachoeira do Talhadão","tags":"addr:city:Palestina,tourism:attraction,waterway:waterfall","lat":-20.21891,"lng":-49.540688}]