[{"id":"1042065682","name":"Fazenda Bananeira","tags":"aeroway:aerodrome,wikidata:Q12692647","lat":-20.5799999,"lng":-49.0797005},{"id":"2944782516","name":"Supermercado Extra","tags":"shop:supermarket","lat":-20.7383652,"lng":-48.9113717},{"id":"2944782521","name":"Caixa Econômica Federal","tags":"addr:city:Olímpia,addr:housenumber:947,addr:street:Rua 9 de Julho,addr:suburb:Centro,amenity:bank,brand:Caixa Econômica Federal,phone:+55 17 3279-1250","lat":-20.7393642,"lng":-48.9128869},{"id":"2944782522","name":"Banco Santander","tags":"amenity:bank,brand:Santander","lat":-20.7394947,"lng":-48.91343},{"id":"2944782523","name":"Banco Bradesco","tags":"amenity:bank,brand:Bradesco","lat":-20.7387065,"lng":-48.9138251},{"id":"2945010477","name":"Supermercado Iquegami","tags":"shop:supermarket","lat":-20.7401532,"lng":-48.9062173},{"id":"2945010478","name":"Unidade de Pronto Atendimento","tags":"amenity:hospital,emergency:yes,short_name:UPA","lat":-20.7396762,"lng":-48.9063715},{"id":"2947956845","name":"Supermercado Tome Leve","tags":"shop:supermarket","lat":-20.7386294,"lng":-48.9130642},{"id":"2947956846","name":"Zanotte","tags":"shop:supermarket","lat":-20.7404555,"lng":-48.9077213},{"id":"2947956847","name":"Padaria & Cafeteria","tags":"amenity:cafe,cuisine:regional","lat":-20.7403852,"lng":-48.9074316},{"id":"3204475831","name":"Rei do Suco","tags":"amenity:restaurant","lat":-20.7142474,"lng":-48.988264},{"id":"3204475833","name":"Venda do Tamanduá","tags":"amenity:bar","lat":-20.7004483,"lng":-48.9376292},{"id":"3208051118","name":"Farmácia Nossa Senhora Aparecida","tags":"amenity:pharmacy","lat":-20.7402651,"lng":-48.9093436},{"id":"3208051119","name":"Drogaria Total","tags":"amenity:pharmacy","lat":-20.7379724,"lng":-48.9103897},{"id":"3208051120","name":"Drogaria Total (1)","tags":"amenity:pharmacy","lat":-20.7379373,"lng":-48.9118274},{"id":"3208051121","name":"Drogaria Total (3)","tags":"amenity:pharmacy","lat":-20.7382634,"lng":-48.9134099},{"id":"3208051122","name":"Delegacia de Policia","tags":"addr:city:Olímpia,amenity:police","lat":-20.7418754,"lng":-48.9154752},{"id":"3208114798","name":"Faculdade Eduvale","tags":"amenity:university","lat":-20.7221685,"lng":-48.9055134},{"id":"3208114812","name":"Supermercado RR","tags":"shop:supermarket","lat":-20.7262526,"lng":-48.9088447},{"id":"3208114822","name":"Restaurante do Tarzan","tags":"amenity:restaurant","lat":-20.7300631,"lng":-48.9134138},{"id":"3208114823","tags":"amenity:bar","lat":-20.7387224,"lng":-48.9133601},{"id":"3340799330","name":"Zéz","tags":"amenity:cafe","lat":-20.7369844,"lng":-48.9105508},{"id":"3340799331","tags":"amenity:cafe","lat":-20.7371349,"lng":-48.9105052},{"id":"4234394563","name":"EMEB Professor José Santanna","tags":"addr:city:Olímpia,addr:district:Ribeiro dos Santos,addr:housenumber:144,addr:postcode:15408-000,addr:street:Rua Lucírio José da Silva,amenity:school,operator:Prefeitura,phone:+55 17 3284 1200,wheelchair:yes","lat":-20.6067052,"lng":-48.9500302},{"id":"7394630364","tags":"leisure:fitness_centre","lat":-20.7189614,"lng":-48.9195254},{"id":"7787476490","name":"Rodoviária Paschoal Lamana","tags":"addr:city:Olímpia,addr:state:SP,amenity:bus_station,public_transport:station","lat":-20.7383765,"lng":-48.9109024}]