[{"id":"1042063799","name":"Edra do Brasil","tags":"aeroway:aerodrome","lat":-22.4402771,"lng":-47.7016678},{"id":"2913321385","name":"Covabra Supermercado","tags":"addr:city:São Paulo,addr:housenumber:2248,addr:street:Rua Oito,shop:supermarket","lat":-22.4010281,"lng":-47.5687805},{"id":"3160378685","name":"Bella Imagem","tags":"shop:beauty","lat":-22.4489709,"lng":-47.541927},{"id":"3320896853","name":"ASSER - Campus Rio Claro","tags":"amenity:university","lat":-22.4101223,"lng":-47.5641297},{"id":"3924566352","name":"Praça Vicente Barbosa","tags":"leisure:park","lat":-22.4350096,"lng":-47.7229044},{"id":"3929613530","tags":"amenity:parking","lat":-22.4991291,"lng":-47.7802895},{"id":"4279105989","name":"Rock República","tags":"addr:housenumber:663,addr:postcode:13500-320,addr:street:Avenida Dezessete,amenity:bar","lat":-22.4175186,"lng":-47.5595433},{"id":"4279227905","name":"SESI","tags":"addr:street:Avenida M Vinte e Nove,amenity:school","lat":-22.3778206,"lng":-47.559006},{"id":"4279229408","name":"Drogaria Cobrão","tags":"addr:street:Avenida 50 A,amenity:pharmacy","lat":-22.3859116,"lng":-47.556804},{"id":"4279229413","name":"Busto de Camões","tags":"addr:street:Rua Três,tourism:attraction","lat":-22.4102589,"lng":-47.5599998},{"id":"4279229414","name":"Supermercado Brasil Frios","tags":"addr:street:Avenida Brasil,shop:supermarket","lat":-22.3921561,"lng":-47.5596163},{"id":"4279229600","name":"Supermercado Furkim","tags":"addr:street:Avenida Setenta e Seis A,shop:supermarket","lat":-22.3763477,"lng":-47.5518252},{"id":"4279229601","name":"Escola de futebol - 9 de Julho","tags":"addr:street:Rua Seis JA,tourism:attraction","lat":-22.3796387,"lng":-47.552491},{"id":"4279229602","name":"Bar e sauna - 9 de Julho","tags":"addr:street:Rua Cinco JA,amenity:bar","lat":-22.3794117,"lng":-47.5536048},{"id":"4279229606","tags":"amenity:pharmacy,dispensing:yes,healthcare:pharmacy","lat":-22.4136858,"lng":-47.5696274},{"id":"4279239498","name":"Floridiana Tênis Clube","tags":"addr:street:Avenida Um Jf,leisure:fitness_centre","lat":-22.3830333,"lng":-47.5594306},{"id":"4279239499","name":"Estação rodoviária","tags":"addr:street:Rua Um,amenity:bus_station,bus:yes,public_transport:station","lat":-22.4092964,"lng":-47.5580717},{"id":"4279239592","name":"Mini Torre Eiffel","tags":"addr:street:Avenida Visconde do Rio Claro,tourism:attraction","lat":-22.395627,"lng":-47.5630814},{"id":"4279239593","name":"Dia","tags":"addr:street:Avenida Visconde do Rio Claro,brand:Dia,brand:wikidata:Q925132,brand:wikipedia:es:Supermercados DIA,shop:supermarket","lat":-22.3966889,"lng":-47.5632887},{"id":"4279239594","name":"Supermercado Pantoja","tags":"addr:street:Avenida Oito A,shop:supermarket","lat":-22.4038021,"lng":-47.5517953},{"id":"4279239595","name":"Subway","tags":"amenity:restaurant","lat":-22.3865925,"lng":-47.5560987},{"id":"4279239697","name":"EE João Batista Leme","tags":"addr:street:Rua Três A,amenity:school","lat":-22.3936543,"lng":-47.5592117},{"id":"4279239791","name":"Bar do Vô","tags":"addr:street:Rua Quatro JA,amenity:bar","lat":-22.3785895,"lng":-47.5543985},{"id":"4279260289","name":"Bella Capri Pizza e Pasta","tags":"addr:housenumber:38,addr:postcode:13500-000,addr:street:Avenida Vinte e Um,amenity:restaurant,cuisine:italian_pizza;pizza,phone:35323003,website:https://bellacapri.com.br/","lat":-22.4189226,"lng":-47.5601911},{"id":"4279260889","name":"E.E José Cardoso","tags":"addr:street:Rua Nove C,amenity:school","lat":-22.3789601,"lng":-47.5490067},{"id":"4279271189","name":"Pré escola - Dom Pedro I","tags":"addr:street:Três A,amenity:school","lat":-22.3917147,"lng":-47.5588968},{"id":"4280954102","name":"Bar plano C","tags":"addr:street:Rua Quatro C,amenity:bar","lat":-22.3770659,"lng":-47.5520853},{"id":"4280954803","name":"Casa de pássaros Arco-Íris","tags":"addr:street:Rua Quatro C,shop:pet","lat":-22.377258,"lng":-47.5521663},{"id":"4280979089","name":"Loja de queijos e doces mineiros","tags":"addr:street:Rua Três C,shop:supermarket","lat":-22.3769165,"lng":-47.5520182},{"id":"4282131590","name":"Bar do Eugênio","tags":"addr:street:Rua Nove JA,amenity:bar","lat":-22.3801871,"lng":-47.5498647},{"id":"4282136390","name":"Lanches Val","tags":"amenity:restaurant","lat":-22.3866271,"lng":-47.5568934},{"id":"4282136391","name":"Supermercado Assaí","tags":"shop:supermarket","lat":-22.4157854,"lng":-47.575086},{"id":"4282182690","name":"Bar do Irmão","tags":"addr:street:Avenida Sessenta e Oito A,amenity:bar","lat":-22.3792675,"lng":-47.550616},{"id":"4282182691","name":"Supermercado Lavapés","tags":"addr:street:Avenida José Felício Castellano,shop:supermarket","lat":-22.381505,"lng":-47.5480732},{"id":"4282183089","name":"Bar do Baiano","tags":"addr:street:Avenida Sessenta e Oito A,amenity:bar","lat":-22.3792116,"lng":-47.5507638},{"id":"4282183689","name":"Sorveteria Vanilla Ice","tags":"addr:street:Três A,amenity:restaurant","lat":-22.3889055,"lng":-47.5578573},{"id":"4282184089","name":"Guarda Civil Municipal","tags":"amenity:police","lat":-22.4174563,"lng":-47.5744945},{"id":"4293570290","name":"Supermercado Tetra","tags":"addr:street:Rua Seis A,shop:supermarket","lat":-22.3870598,"lng":-47.5531562},{"id":"4293609589","name":"Pizzaria Ypê","tags":"addr:street:Rua Seis A,amenity:restaurant","lat":-22.3868722,"lng":-47.55357},{"id":"4293610690","name":"Fair Play - Jogos de mesa, cartas, rpg","tags":"addr:street:Avenida Sessenta e Oito A,tourism:attraction","lat":-22.3781189,"lng":-47.5543222},{"id":"4296329692","name":"Bar e lanchonete do Rafael","tags":"addr:housenumber:1253,addr:street:Rua Um,amenity:bar","lat":-22.4077455,"lng":-47.5586846},{"id":"4602394164","tags":"amenity:cafe","lat":-22.4155228,"lng":-47.5658092},{"id":"4690438390","name":"Alvimar Guedes","tags":"addr:housenumber:412,addr:street:Rua M Sete,name:pt:Alvimar Guedes,shop:supermarket","lat":-22.382979,"lng":-47.5642197},{"id":"4691070091","name":"Mercearia Rocha","tags":"addr:housenumber:391,addr:postcode:13505-120,addr:street:Rua M Oito,name:pt:Mercearia Rocha,shop:supermarket","lat":-22.382125,"lng":-47.5649384},{"id":"4693606890","name":"Mercado Rocha","tags":"addr:housenumber:391,addr:street:Rua M Oito,name:pt:Mercado Rocha,shop:supermarket","lat":-22.3830578,"lng":-47.5650001},{"id":"4724814661","name":"Santander","tags":"amenity:bank","lat":-22.3931513,"lng":-47.5444684},{"id":"4726022918","name":"Rio Café","tags":"amenity:cafe","lat":-22.4089534,"lng":-47.5597575},{"id":"4728112180","name":"Correios","tags":"amenity:post_office","lat":-22.4086485,"lng":-47.5585517},{"id":"4738322566","name":"A. Bilac","tags":"tourism:attraction","lat":-22.4101247,"lng":-47.5606934},{"id":"4738323094","name":"Jack Brown","tags":"amenity:restaurant,cuisine:burger","lat":-22.4092951,"lng":-47.5619963},{"id":"5047037927","name":"Terminal Rodoviário de Rio Claro","tags":"amenity:bus_station,name:en:Rio Claro bus station","lat":-22.4169096,"lng":-47.5758451},{"id":"5256768861","name":"Pronto Atendimento Cervezão","tags":"addr:city:Rio Claro,addr:housenumber:50,addr:street:Rua M Nove (M 9),addr:suburb:Jardim Independência,amenity:hospital,healthcare:hospital,healthcare:speciality:trauma","lat":-22.3862094,"lng":-47.5648107},{"id":"5479290252","tags":"amenity:parking","lat":-22.4159852,"lng":-47.5259341},{"id":"5586834162","tags":"amenity:childcare","lat":-22.3935302,"lng":-47.5763025},{"id":"5681072027","name":"Santa","tags":"addr:city:Ipeúna,addr:postcode:13537000,addr:street:Rua Oito,tourism:attraction","lat":-22.4359894,"lng":-47.7148769},{"id":"5681072028","name":"Placa de Homenagem","tags":"tourism:attraction","lat":-22.4338103,"lng":-47.7100675},{"id":"6482937488","tags":"amenity:parking,operator:Stocco","lat":-22.4111497,"lng":-47.5611291},{"id":"7557455104","name":"Rio Claro-SP","tags":"leisure:park","lat":-22.4099468,"lng":-47.5603801},{"id":"7863118561","name":"Condominio Residencial Chácara das Palmeiras II","tags":"leisure:park","lat":-22.43686,"lng":-47.5857612},{"id":"7863118563","name":"Condomínio Residencial Chácara das Palmeiras I","tags":"leisure:park","lat":-22.4375224,"lng":-47.583963},{"id":"8220827782","name":"Cebola Brava Rotisserie","tags":"addr:street:Rua 12,amenity:restaurant,opening_hours:Mo-Sa 08:00-18:00","lat":-22.4135002,"lng":-47.5679233},{"id":"8394594869","name":"Escola Municipal Doutor Paulo Koelle","tags":"amenity:school","lat":-22.4145036,"lng":-47.5676076},{"id":"8394594870","name":"37 Batalhão de Polícia Militar","tags":"addr:housenumber:51,addr:street:Rua 12,amenity:police","lat":-22.4215136,"lng":-47.5646122},{"id":"8394594871","name":"Guarda Civil Municipal","tags":"addr:housenumber:26,addr:street:Rua 12,amenity:police","lat":-22.4221062,"lng":-47.5641053},{"id":"8394594873","name":"Hospital Psiquiátrico Bezerra de Menezes","tags":"amenity:hospital,healthcare:hospital,healthcare:speciality:psychiatry","lat":-22.4227815,"lng":-47.5637972},{"id":"8902336616","name":"Paris 32","tags":"addr:city:Rio Claro,addr:housenumber:74,addr:postcode:13500560,addr:street:Avenida 32,addr:suburb:Vila Saibreiro,air_conditioning:yes,amenity:cafe,bar:yes,cuisine:cafe;bar;conveniência;coffee_shop;cerveja;água,email:paristrintaedois@gmail.com,internet_access:yes,internet_access:fee:customers,opening_hours:Mo-Su 06:00-22:00,opening_hours:covid19:open,outdoor_seating:yes,wheelchair:yes","lat":-22.3948821,"lng":-47.561296},{"id":"9899799084","name":"Agropecuária Pasetto","tags":"addr:city:Ipeúna,addr:housenumber:55,addr:postcode:13537-000,addr:street:Rua Dois,addr:suburb:Centro,phone:+55 19 35761196,shop:supermarket","lat":-22.4374216,"lng":-47.7170149}]