[{"id":"1042079031","name":"Aeródromo de Monte Santo de Minas","tags":"aeroway:aerodrome","lat":-21.1758003,"lng":-46.9589005},{"id":"6456750149","name":"Restaurante Boa Massa do Aluno","tags":"amenity:restaurant,internet_access:fee:yes,opening_hours:sunrise-sunset,operator:Edson,phone:+55 35 3591 4533","lat":-21.1831625,"lng":-46.9832877},{"id":"6456750150","name":"Padaria Boa Massa do Aluno","tags":"amenity:cafe,internet_access:fee:yes,opening_hours:sunrise-sunset,operator:Edson,phone:+55 35 3591 4533","lat":-21.1831388,"lng":-46.983224},{"id":"8408392453","name":"Parque Mauro Baldo","tags":"leisure:park","lat":-21.1859401,"lng":-46.9843796},{"id":"9983770848","name":"Rodriacqua - Pousada, restaurante e lazer","tags":"addr:city:Monte Santo de Minas,addr:housenumber:Km 34,addr:postcode:37968-000,addr:street:Rodovia BR-491,air_conditioning:no,amenity:restaurant,bar:yes,brewery:yes,cuisine:regional;ice_cream,description:A 2 Km do trevo de Monte Santo de Minas\n\nBem vindos ao Rodriacqua.\n\n\nUma empresa que atua no ramo turístico sempre buscando a excelência para que você e sua família possam desfrutar de momentos agradáveis.\n\nQuer comer uma comida mineira deliciosa acompanh,email:contato@rodriacqua.com.br,highchair:yes,internet_access:yes,internet_access:fee:no,internet_access:ssid:Rodriacqua_DJNet,opening_hours:Mo-Su 07:00-18:00,outdoor_seating:yes,phone:+55 35 9 9927-4633,reservation:recommended,takeaway:yes,website:https://www.rodriacqua.com.br,wheelchair:yes","lat":-21.1565301,"lng":-46.9890309}]