[{"id":"1042079198","name":"Aeroporto de Ouro Fino","tags":"aeroway:aerodrome,icao:SNOF","lat":-22.2975006,"lng":-46.3932991},{"id":"3419849190","name":"Ideal Pharma","tags":"amenity:pharmacy","lat":-22.1633567,"lng":-46.1783166},{"id":"4459063091","name":"Polícia Militar Borda da Mata","tags":"amenity:police,name:en:Português,name:pt:Polícia Militar Borda da Mata","lat":-22.2734684,"lng":-46.1663316},{"id":"4459104189","name":"Caixa Econômica Federal","tags":"amenity:bank,name:en:Português,name:pt:Caixa Econômica Federal","lat":-22.2731905,"lng":-46.166429},{"id":"4459109090","name":"Banco do Brasil","tags":"amenity:bank,name:en:Português,name:pt:Banco do Brasil","lat":-22.2763483,"lng":-46.164723},{"id":"4459109091","name":"Polícia Civil Borda da Mata","tags":"amenity:police,name:en:Português,name:pt:Polícia Civil Borda da Mata","lat":-22.2796415,"lng":-46.1636747},{"id":"4459189990","name":"E. E. Lauro Afonso Megale","tags":"amenity:school","lat":-22.2680147,"lng":-46.1599092},{"id":"5904808182","tags":"leisure:park","lat":-22.2819561,"lng":-46.3708893},{"id":"5907459268","name":"Biblioteca Municipal","tags":"addr:city:Ouro Fino,addr:street:Avenida Cyro Gonçalves,addr:suburb:Centro,amenity:library,phone:+55 35 3441 9453","lat":-22.2799444,"lng":-46.3734655},{"id":"5993919423","name":"Posto de Pesagem","tags":"amenity:police","lat":-22.2829077,"lng":-46.1831951},{"id":"8761172080","name":"Ouro Mel Apiário e Cafeteria","tags":"amenity:cafe,opening_hours:Mo-Su 08:00-17:00","lat":-22.2806436,"lng":-46.3956321},{"id":"8761272427","name":"Fogão a Lenha","tags":"amenity:restaurant","lat":-22.2783462,"lng":-46.4035625},{"id":"9074925003","name":"Caminho de Graças & Prosas","tags":"addr:city:Inconfidentes,addr:housenumber:551,addr:street:Avenida Alvarenga Peixoto,addr:suburb:Centro,leisure:park,opening_hours:24/7","lat":-22.3169178,"lng":-46.328014},{"id":"9265305982","name":"Caverna do Imigrante","tags":"addr:city:Inconfidentes,addr:housenumber:219,addr:postcode:37576-000,addr:street:Avenida Alvarenga Peixoto,addr:suburb:Centro,amenity:cafe,internet_access:yes,internet_access:fee:no,phone:+55 35 9 9828 8669,website:@cavernadoimigrante","lat":-22.3163198,"lng":-46.3300222},{"id":"9473420790","name":"Boi Sem Coração","tags":"tourism:attraction","lat":-22.2786916,"lng":-46.3724786},{"id":"10185028863","name":"Bar do Nenê","tags":"amenity:restaurant","lat":-22.3169694,"lng":-46.3294026}]