[{"id":"2330192601","tags":"amenity:restaurant,cuisine:regional","lat":-22.1697454,"lng":-45.0989707},{"id":"2330192834","tags":"amenity:school,building:yes","lat":-22.1718527,"lng":-45.1002008},{"id":"4358022788","name":"Cruzeiro","tags":"tourism:attraction","lat":-22.3013547,"lng":-45.1950268},{"id":"4558556064","name":"APAE","tags":"amenity:school","lat":-22.2222894,"lng":-45.27067},{"id":"4558556078","name":"E. E. Carneiro de Resende","tags":"amenity:school","lat":-22.2098929,"lng":-45.2646308},{"id":"4558556080","name":"Country Clube","tags":"leisure:sports_centre","lat":-22.2026396,"lng":-45.2598598},{"id":"4558556081","name":"Museu do Trem","tags":"tourism:museum","lat":-22.2062919,"lng":-45.2640566},{"id":"5998292677","name":"UBS - PSF","tags":"amenity:hospital,healthcare:hospital","lat":-22.2092671,"lng":-45.2654651},{"id":"5998292678","tags":"amenity:hospital,healthcare:hospital","lat":-22.207666,"lng":-45.2653094},{"id":"5998857720","tags":"amenity:school","lat":-22.1904671,"lng":-45.3204059},{"id":"6571075862","name":"Igreja de São José","tags":"amenity:place_of_worship,building:church,denomination:catholic,religion:christian","lat":-22.3198276,"lng":-45.32547}]