[{"id":"2886374599","tags":"building:church","lat":-21.9416545,"lng":-45.4868066},{"id":"3733740144","name":"Churrascaria e Lanchonete Moinho I","tags":"amenity:restaurant","lat":-21.9450701,"lng":-45.6212421},{"id":"3733740145","name":"Churrascaria e Lanchonete Moinho II","tags":"amenity:restaurant","lat":-21.9456706,"lng":-45.6190006},{"id":"3733740146","name":"Restaurante Casa de Queijo Serra da Conquista","tags":"amenity:restaurant","lat":-21.8137952,"lng":-45.4914316},{"id":"3733740147","name":"Restaurante e Casa de Queijos Fazendão","tags":"amenity:restaurant","lat":-21.8638679,"lng":-45.5317682},{"id":"3733740148","name":"Restaurante e Lanchonete Gauchão I","tags":"amenity:restaurant","lat":-21.8759636,"lng":-45.5403046},{"id":"3733740149","name":"Restaurante e Lanchonete Gauchão II","tags":"amenity:restaurant","lat":-21.8755227,"lng":-45.5424636},{"id":"3733740150","name":"Restaurante e Lanchonete Porteira Grill","tags":"amenity:restaurant","lat":-21.7978298,"lng":-45.4594613},{"id":"5005058223","name":"Correios","tags":"amenity:post_office,brand:Correios,brand:wikidata:Q3375004,brand:wikipedia:en:Correios","lat":-21.8343545,"lng":-45.399841},{"id":"5005058224","name":"Santander","tags":"amenity:bank,brand:Santander,brand:wikidata:Q5835668,brand:wikipedia:en:Santander Bank","lat":-21.8346022,"lng":-45.3988388},{"id":"5005058226","name":"Banco do Brasil","tags":"amenity:bank,brand:Banco do Brasil,brand:wikidata:Q610817,brand:wikipedia:en:Banco do Brasil","lat":-21.834818,"lng":-45.3989824},{"id":"5005058227","name":"Drograria Farma","tags":"amenity:pharmacy","lat":-21.8352039,"lng":-45.3991594},{"id":"5005058228","name":"Restaurante do Coquinho","tags":"amenity:restaurant,cuisine:pizza;regional","lat":-21.8360156,"lng":-45.399661},{"id":"5005091042","name":"Drograria Vital Brasil","tags":"amenity:pharmacy","lat":-21.8343076,"lng":-45.3988697},{"id":"5005091043","name":"Caixa Econômica Federal","tags":"amenity:bank,brand:Caixa Econômica Federal,brand:wikidata:Q835283,brand:wikipedia:pt:Caixa Econômica Federal","lat":-21.8341358,"lng":-45.3997924},{"id":"5005111235","name":"Deliveri do Chorão","tags":"amenity:restaurant","lat":-21.8341732,"lng":-45.4000499},{"id":"5300176251","name":"Umuarama Clube","tags":"leisure:park,tourism:attraction","lat":-21.8859224,"lng":-45.594392},{"id":"5528693115","name":"Sede do Clube Umuarama","tags":"addr:city:São Gonçalo do Sapucaí,addr:postcode:37490000,addr:street:Avenida Presidente Tancredo Neves,addr:suburb:Santa Rita,leisure:sports_centre","lat":-21.8865449,"lng":-45.5946572},{"id":"6564069040","name":"Escola Alexandre Fleming","tags":"amenity:school","lat":-21.9509269,"lng":-45.6256199},{"id":"9429087266","name":"UEMG Campanha","tags":"addr:city:Campanha,addr:housenumber:167,addr:postcode:37400000,addr:street:Praça Dom Ferrão,addr:suburb:Centro,amenity:university,website:https://uemg.br/campanha","lat":-21.8356423,"lng":-45.399569}]