[{"id":"2147256566","name":"Colégio Paula Frassinetti","tags":"amenity:school","lat":-20.9199231,"lng":-46.9850692},{"id":"4491172768","name":"Parque da Serrinha","tags":"tourism:attraction","lat":-20.9352162,"lng":-47.0124473},{"id":"8357739022","name":"Biblioteca Pública Municipal","tags":"addr:city:Itamogi,addr:housenumber:516,addr:postcode:37955-000,addr:street:Rua Wenceslau Braz,addr:suburb:Centro,amenity:library,official_name:Biblioteca Pública Municipal Sebastiana Bernardino da Costa Elias,operator:Secretaria Municipal de Educação e Cultura de Itamogi,operator:type:public","lat":-21.0787432,"lng":-47.0471773},{"id":"8460542596","name":"Tonin Supermercado","tags":"addr:city:São Sebastião do Paraíso,addr:housenumber:1571,addr:postcode:37950-000,addr:street:Rua Pimenta de Pádua,addr:suburb:Centro,air_conditioning:yes,branch:Tonin,opening_hours:Mo-Sa 07:30-20:00; Su 08:00-13:00,payment:cash:yes,payment:credit_cards:yes,payment:debit_cards:yes,phone:+55 35 3531-1845,shop:supermarket,stroller:yes,wheelchair:yes","lat":-20.9182657,"lng":-46.9869134},{"id":"8460542602","tags":"leisure:fitness_centre","lat":-20.9191276,"lng":-46.9689748},{"id":"8901893411","name":"Banco do Brasil","tags":"addr:city:Itamogi,addr:housenumber:555,addr:street:Rua 7 de Setembro,addr:suburb:Centro,amenity:bank,brand:Banco do Brasil,brand:wikidata:Q610817,brand:wikipedia:en:Banco do Brasil","lat":-21.0783352,"lng":-47.0474873},{"id":"8901910008","name":"Correios","tags":"addr:city:Itamogi,addr:housenumber:427,addr:street:Rua Presidente Getúlio Vargas,amenity:post_office,brand:Correios,brand:wikidata:Q3375004,brand:wikipedia:en:Correios,wheelchair:yes","lat":-21.0781313,"lng":-47.047351},{"id":"8901914681","name":"Itaú","tags":"addr:city:Itamogi,addr:housenumber:567,addr:street:Praça São João Batista,amenity:bank","lat":-21.0793563,"lng":-47.048159},{"id":"8901924135","name":"Sicoob","tags":"addr:city:Itamogi,addr:housenumber:478,addr:street:Rua Presidente Getúlio Vargas,amenity:bank,brand:Sicoob,brand:wikidata:Q28679754,brand:wikipedia:pt:Sistema de Cooperativas de Crédito do Brasil","lat":-21.0777993,"lng":-47.0469724},{"id":"8905241806","name":"Bradesco","tags":"addr:postcode:37955-000,addr:street:Praça São João Batista,addr:suburb:Centro,amenity:bank,brand:Bradesco,brand:wikidata:Q806181,brand:wikipedia:en:Banco Bradesco","lat":-21.0785308,"lng":-47.0490931},{"id":"8905298752","name":"Viva Popular","tags":"shop:chemist","lat":-21.0786139,"lng":-47.0476062},{"id":"8905655613","name":"Drogaria Nossa Senhora Aparecida","tags":"addr:housenumber:675,addr:street:Praça São João Batista,network:Rede Inova,shop:chemist","lat":-21.0789934,"lng":-47.0489236},{"id":"8905656600","name":"Desejos e Café's","tags":"addr:housenumber:641,addr:street:Praça São João Batista,amenity:cafe","lat":-21.0790508,"lng":-47.04876},{"id":"8908125705","name":"Supermercado Thativan","tags":"addr:city:Itamogi,addr:housenumber:333,addr:street:Rua Wenceslau Braz,addr:suburb:Centro,phone:+55 35 3534 1298,shop:supermarket","lat":-21.0795977,"lng":-47.0458237},{"id":"8928669764","name":"Restaurante e Churrascaria do Claudinei","tags":"addr:city:Itamogi,addr:housenumber:374,addr:street:Rua Presidente Getúlio Vargas,addr:suburb:Centro,amenity:restaurant,cuisine:barbecue;regional,delivery:yes,takeaway:yes","lat":-21.07859,"lng":-47.0473925},{"id":"8928669766","name":"Drograzul","tags":"addr:city:Itamogi,addr:housenumber:513,addr:street:Rua Wenceslau Braz,addr:suburb:Centro,amenity:pharmacy","lat":-21.0788891,"lng":-47.0473811},{"id":"9888821345","name":"Tonin Superatacado","tags":"addr:city:São Sebastião do Paraíso,addr:housenumber:1690,addr:postcode:37950-000,addr:street:Avenida Wenceslau Braz,addr:suburb:Vila Formosa,branch:Tonin,internet_access:wlan,internet_access:fee:customers,opening_hours:Mo-Sa 07:30-21:00; Su 07:30-13:00,payment:cash:yes,payment:credit_cards:yes,payment:debit_cards:yes,phone:+55 35 3558-3375,shop:supermarket,stroller:yes,wheelchair:yes","lat":-20.920568,"lng":-46.9719882},{"id":"9888821346","name":"Tonin Supermercado","tags":"addr:city:São Sebastião do Paraíso,addr:housenumber:550,addr:postcode:37950-000,addr:street:Avenida Ângelo Calafiori,addr:suburb:Mocoquinha,opening_hours:Mo-Sa 07:30-20:00; Su 08:00-13:00,payment:cash:yes,payment:credit_cards:yes,payment:debit_cards:yes,shop:supermarket","lat":-20.9215247,"lng":-46.9861606},{"id":"9888821347","name":"Dia","tags":"addr:city:São Sebastião do Paraíso,addr:housenumber:1964,addr:postcode:37950-000,addr:street:Rua Doutor Placidino Brigagão,addr:suburb:Lagoinha,brand:Dia,brand:wikidata:Q925132,opening_hours:Mo-Sa 07:00-21:00; Su 07:00-18:00; PH 08:00-14:00,payment:cash:yes,payment:credit_cards:yes,payment:debit_cards:yes,shop:supermarket,stroller:limited,website:https://dia.com.br/,wheelchair:yes","lat":-20.9207034,"lng":-46.984941},{"id":"9982554898","name":"Itaú","tags":"addr:city:São Sebastião do Paraíso,addr:housenumber:207,addr:postcode:37950-000,addr:street:Rua Alferes Patrício,addr:suburb:Centro,air_conditioning:yes,amenity:bank,atm:yes,brand:Itaú Unibanco,brand:wikidata:Q1424293,drive_through:no,opening_hours:Mo-Fr 10:00-15:00; PH off,operator:Itaú Unibanco Holding S.A.,phone:0800 728 0728,website:https://itau.com.br,wheelchair:yes,wikidata:Q1424293,wikipedia:pt:Itaú Unibanco","lat":-20.918428,"lng":-46.9893318},{"id":"10086060280","name":"ABC Atacado e Varejo","tags":"addr:city:São Sebastião do Paraíso,addr:country:BR,addr:housenumber:100,addr:postcode:37950-000,addr:street:Rodovia BR 491,addr:suburb:Vila Muschioni,opening_hours:Mo-Sa 07:00-21:00; Su 07:00-18:00,payment:coins:yes,payment:credit_cards:yes,payment:cryptocurrencies:no,payment:debit_cards:yes,payment:electronic_purses:yes,payment:notes:yes,shop:supermarket,website:https://www.superabc.com.br,wheelchair:yes","lat":-20.934444,"lng":-46.9852129}]