[{"id":"1110423119","name":"Restaurante da Vanda","tags":"amenity:restaurant","lat":-20.3910956,"lng":-46.5849756},{"id":"3611402856","name":"Cachoeria do Bau","tags":"natural:cliff,tourism:attraction,waterway:waterfall","lat":-20.4028746,"lng":-46.6963953},{"id":"3613910426","name":"Pousada do Sanzio","tags":"amenity:restaurant,rooms:3,tourism:chalet","lat":-20.3948534,"lng":-46.5746937},{"id":"3934652478","name":"Cachoeira Do Quilombo","tags":"tourism:attraction","lat":-20.4834148,"lng":-46.4736383},{"id":"3940935950","name":"Cachoeira Maria Augusta","tags":"tourism:attraction,waterway:waterfall","lat":-20.5018306,"lng":-46.520173},{"id":"3940992583","name":"Cachoeira Vale Do Céu","tags":"tourism:attraction","lat":-20.4959202,"lng":-46.5293966},{"id":"3942761004","name":"Cachoeira Do Barulho","tags":"tourism:attraction","lat":-20.5399752,"lng":-46.4073403},{"id":"3942838357","name":"Cachoeira Tamanduá","tags":"tourism:attraction","lat":-20.5198324,"lng":-46.499313}]