[{"id":"260747503","tags":"tourism:attraction,waterway:waterfall","lat":-20.6456966,"lng":-46.2664407},{"id":"1344076444","tags":"tourism:attraction,waterway:waterfall","lat":-20.6463516,"lng":-46.265578},{"id":"2069209571","name":"Cachoeira Fecho da Serra","tags":"alt_name:Cachoeira Fecho da Serra,tourism:attraction,waterway:waterfall","lat":-20.5993183,"lng":-46.2286294},{"id":"2388802071","name":"Cachoeira da Pedra Ancorada","tags":"contact:email:contato@cachoeiradacapivara.com.br,note:pt:posição exata precisa ser confirmada,tourism:attraction,waterway:waterfall","lat":-20.6362905,"lng":-46.286746},{"id":"2388823794","name":"Cachoeira Dicadinha","tags":"alt_name:Cachoeira Diquadinha,tourism:attraction,waterway:waterfall","lat":-20.6427556,"lng":-46.2637908},{"id":"4491167439","name":"Pedreira Lagoa Azul","tags":"tourism:attraction","lat":-20.6042569,"lng":-46.3082962},{"id":"4491167684","name":"Cachoeira no Limite","tags":"tourism:attraction,waterway:waterfall","lat":-20.6463182,"lng":-46.2083346},{"id":"4491167967","name":"Cachoeira do Poço Dourado","tags":"nudism:yes,tourism:attraction,waterway:waterfall","lat":-20.6511497,"lng":-46.2034112},{"id":"4491167968","name":"Cachoeira do Grito","tags":"tourism:attraction,waterway:waterfall","lat":-20.6495383,"lng":-46.2051734},{"id":"4491170631","name":"Cachoeira Lagoa Azul","tags":"tourism:attraction,waterway:waterfall","lat":-20.64771,"lng":-46.2583283},{"id":"4492983749","name":"Cachoeira do Issara","tags":"alt_name:Cachoeira do Sabiá,tourism:attraction,waterway:waterfall","lat":-20.6674349,"lng":-46.1523778},{"id":"4492985731","name":"Bica D'água","tags":"drinking_water:no,natural:spring,tourism:attraction","lat":-20.6381577,"lng":-46.1291841},{"id":"5232734924","name":"Capitour Passeios Turísticos","tags":"tourism:attraction","lat":-20.6986192,"lng":-46.3624759},{"id":"7096679213","name":"Restaurante Murcegão","tags":"amenity:restaurant","lat":-20.6398502,"lng":-46.1068162}]