[{"id":"1608784710","name":"Restaurante Zagaia","tags":"amenity:restaurant,cuisine:regional","lat":-20.2454598,"lng":-46.3668933},{"id":"2470653274","name":"SICOOB","tags":"amenity:bank,atm:yes","lat":-20.3286354,"lng":-46.3677424},{"id":"3933284811","name":"Cachoeira Da Chilena","tags":"tourism:attraction","lat":-20.3003053,"lng":-46.3957409},{"id":"3933317230","name":"Cachoeira Do Cipó","tags":"tourism:attraction","lat":-20.2526432,"lng":-46.4041122},{"id":"3933320879","name":"Entrada Complexo Do Capão","tags":"tourism:attraction","lat":-20.2539528,"lng":-46.4051493},{"id":"3934748826","name":"Recanto do Surubim","tags":"amenity:restaurant","lat":-20.2654731,"lng":-46.3498053},{"id":"3934807214","name":"Restaurante Viva","tags":"amenity:restaurant","lat":-20.254999,"lng":-46.3634582},{"id":"3940701577","name":"Cachoeira Do Nego","tags":"tourism:attraction","lat":-20.225701,"lng":-46.4014385},{"id":"5168865622","name":"Hospital Municipal","tags":"amenity:hospital","lat":-20.2462598,"lng":-46.3632675},{"id":"5168865632","name":"Sicoob","tags":"amenity:bank","lat":-20.2454742,"lng":-46.3653502},{"id":"7938138365","name":"Quitandas da Vó (Maria Rosa e Renato)","tags":"amenity:restaurant","lat":-20.2487448,"lng":-46.367303}]