[{"id":"1042088330","name":"Usina São Simão","tags":"addr:street:Avenida Rio de Janeiro,aeroway:aerodrome,alt_name:Aeroporto de São Simão,icao:SSYO,operator:type:private","lat":-18.9884465,"lng":-50.5605309},{"id":"2522095442","name":"Caixa","tags":"amenity:bank,atm:yes","lat":-18.9968401,"lng":-50.5495097},{"id":"2522105639","name":"Igreja Matriz","tags":"amenity:place_of_worship,building:church,religion:christian","lat":-18.9948143,"lng":-50.5468653},{"id":"2522315039","name":"Rodoviaria de São Simão","tags":"amenity:bus_station,description:Provisória","lat":-18.9959662,"lng":-50.5493356},{"id":"2523305925","name":"Supermercado Arco Iris","tags":"shop:supermarket","lat":-18.9965256,"lng":-50.5488377},{"id":"2523463399","name":"Supermercado Souza","tags":"shop:supermarket","lat":-18.995271,"lng":-50.546298},{"id":"2523466549","name":"Banco do Brasil","tags":"amenity:bank,atm:yes","lat":-18.9953147,"lng":-50.5493125},{"id":"2523466552","name":"Bradesco","tags":"amenity:bank,atm:yes","lat":-18.9958134,"lng":-50.5479842},{"id":"2525687701","name":"Itau","tags":"amenity:bank,atm:yes","lat":-18.9947132,"lng":-50.5489137},{"id":"4362231289","tags":"addr:street:Avenida Brasil,amenity:bank,name:pt:Itaú","lat":-18.9909706,"lng":-50.5411007}]