[{"id":"1984971565","tags":"public_transport:station,railway:station","lat":-17.3506799,"lng":-48.2449106},{"id":"1984971566","tags":"public_transport:station,railway:station","lat":-17.350685,"lng":-48.2448316},{"id":"1984971567","tags":"public_transport:station,railway:station","lat":-17.3506956,"lng":-48.2447695},{"id":"2990225698","name":"Banco Bradesco","tags":"amenity:bank","lat":-17.3012598,"lng":-48.2790956},{"id":"2990225699","name":"Caixa Econômica Federal","tags":"amenity:bank","lat":-17.3010734,"lng":-48.2780711},{"id":"2990225700","name":"Banco Itaú","tags":"amenity:bank","lat":-17.3016596,"lng":-48.2782947},{"id":"4952908021","name":"Faz Jacob Saud(Santa Cruz)","tags":"amenity:cafe,name:pt:Faz Jacob Saud(Santa Cruz)","lat":-17.3256983,"lng":-48.4555315},{"id":"6013985767","tags":"amenity:police,police:traffic_police","lat":-17.3278285,"lng":-48.2640848},{"id":"7538045456","name":"Supermedado Pegue e Pague dois Irmãos","tags":"addr:city:Palmelo,addr:postcode:75210000,addr:street:Avenida 03 - Padre João Saint Clair da Cruz,shop:supermarket","lat":-17.3252797,"lng":-48.4241698},{"id":"7538045460","name":"Farmácia Palmelo","tags":"addr:city:Palmelo,addr:postcode:75210000,addr:street:Avenida 03 - Padre João Saint Clair da Cruz,addr:suburb:Centro,amenity:pharmacy,dispensing:yes,healthcare:pharmacy","lat":-17.325388,"lng":-48.4248207}]