[{"id":"3663074691","tags":"leisure:park","lat":-19.4788154,"lng":-46.6306714},{"id":"4973730241","name":"Terminal Rodoviário","tags":"public_transport:station","lat":-19.4925314,"lng":-46.5489998},{"id":"4973730247","name":"Igreja Matriz São Pedro de Alcantara","tags":"addr:city:Ibiá,addr:postcode:38950000,addr:street:Praça São Pedro,amenity:place_of_worship,building:church,denomination:roman_catholic,religion:christian","lat":-19.4773649,"lng":-46.5388826},{"id":"5265498997","name":"Praça do Fórum","tags":"leisure:park","lat":-19.4834468,"lng":-46.5424746},{"id":"5277219783","name":"Pepinella Pizzaria","tags":"addr:city:Ibiá,addr:housenumber:1149,addr:postcode:38950-000,addr:street:Rua Cinquenta e Quatro,addr:suburb:Deolinda Mendes,amenity:restaurant,capacity:500,cuisine:pizza,delivery:yes,opening_hours:Mo-Su 19:00-02:00,outdoor_seating:yes,phone:+55 34 3631 1514,smoking:isolated,takeaway:yes","lat":-19.4932688,"lng":-46.5485033},{"id":"5279887084","name":"Olympus Academia","tags":"addr:city:Ibiá,addr:postcode:38950-000,addr:street:Rua Sessenta,addr:suburb:São Benedito,leisure:fitness_centre,opening_hours:Mo-Sa 06:00-22:00","lat":-19.492896,"lng":-46.5471052},{"id":"5279950624","name":"Conveniência ALPHA","tags":"addr:city:Ibiá,addr:postcode:38950-000,opening_hours:Mo-Su 06:00-22:00,shop:convenience","lat":-19.5002861,"lng":-46.5492018},{"id":"6241718791","name":"Arvore dos pimentas","tags":"leisure:park","lat":-19.4897425,"lng":-46.5496497},{"id":"8256068538","name":"Academia ao Ar livre Gameleiras","tags":"leisure:fitness_centre","lat":-19.492218,"lng":-46.5520946},{"id":"8260171230","name":"Academia ao ar livre, praça do forum","tags":"blind:yes,leisure:sports_centre,sport:fitness,wheelchair:yes","lat":-19.4841609,"lng":-46.5423359},{"id":"8264389945","name":"Academia Publica Paulinho Teixeira","tags":"leisure:fitness_centre","lat":-19.4912934,"lng":-46.5459458}]