[{"id":"1042079801","name":"Aeroporto de Monte Carmelo","tags":"aeroway:aerodrome","lat":-18.7216779,"lng":-47.4861291},{"id":"2025942745","name":"Correios","tags":"amenity:post_office,brand:Correios,brand:wikidata:Q3375004,brand:wikipedia:en:Correios","lat":-18.7318594,"lng":-47.4973567},{"id":"2025944938","name":"Correios","tags":"amenity:post_office","lat":-18.7290226,"lng":-47.4963763},{"id":"2025946349","name":"Churrascaria Tropicana","tags":"amenity:restaurant","lat":-18.7290378,"lng":-47.4984202},{"id":"2025947259","name":"Restaurante do Waltinho","tags":"amenity:restaurant","lat":-18.7266602,"lng":-47.4975941},{"id":"2025947600","name":"Restaurante Solar da Praça","tags":"amenity:restaurant","lat":-18.7272343,"lng":-47.4955744},{"id":"2026191163","name":"Drogaria Megafarma","tags":"amenity:pharmacy,healthcare:pharmacy","lat":-18.7330919,"lng":-47.4984551},{"id":"2026197744","name":"Café Castelli","tags":"amenity:cafe","lat":-18.7297973,"lng":-47.4969772},{"id":"2029201158","name":"Drogaria Regina","tags":"amenity:pharmacy,healthcare:pharmacy","lat":-18.7300937,"lng":-47.4970911},{"id":"2029201736","name":"Drogaria São Geraldo","tags":"amenity:pharmacy","lat":-18.7291081,"lng":-47.4962059},{"id":"2029203574","name":"Farmácia Central","tags":"amenity:pharmacy","lat":-18.7288693,"lng":-47.4968845},{"id":"2029208172","name":"Banco Itaú","tags":"amenity:bank","lat":-18.7291944,"lng":-47.4977616},{"id":"2029208181","name":"Banco do Brasil","tags":"amenity:bank","lat":-18.7291603,"lng":-47.4967923},{"id":"2029208306","name":"Bradesco","tags":"amenity:bank,atm:yes,brand:Bradesco,brand:wikidata:Q806181,brand:wikipedia:en:Banco Bradesco,drive_through:no","lat":-18.7295221,"lng":-47.4968711},{"id":"2029208325","name":"Sicoob Aracoop","tags":"amenity:bank","lat":-18.7290039,"lng":-47.4978153},{"id":"2029209214","name":"Farmácia Fidalga","tags":"amenity:pharmacy","lat":-18.7292224,"lng":-47.4979682},{"id":"2032980740","name":"Supermercado Super Seu","tags":"shop:supermarket","lat":-18.7249068,"lng":-47.5067604},{"id":"2032992988","name":"Restaurante Lolozinho","tags":"amenity:restaurant","lat":-18.7385549,"lng":-47.5030079},{"id":"3329731297","name":"Policlínica Dr. Amaury Ferreira Da Silva","tags":"addr:city:Estrela do Sul,addr:postcode:38525000,addr:street:Avenida Padre Julio Raz,amenity:hospital,healthcare:hospital","lat":-18.7448733,"lng":-47.6912887},{"id":"3329731374","tags":"amenity:school","lat":-18.7424913,"lng":-47.6896979},{"id":"3329752003","tags":"amenity:bus_station","lat":-18.7385873,"lng":-47.6921126},{"id":"3329752064","name":"Hospital","tags":"amenity:hospital","lat":-18.7233609,"lng":-47.6992821},{"id":"3329757571","tags":"amenity:school","lat":-18.7320738,"lng":-47.6964766},{"id":"3991019155","name":"Pronto Socorro Municipal","tags":"amenity:hospital","lat":-18.7219345,"lng":-47.50333},{"id":"4227418758","name":"Universidade Federal de Uberlândia (Campus Monte Carmelo)","tags":"addr:city:Monte Carmelo,addr:postcode:38500-000,amenity:university","lat":-18.7240536,"lng":-47.5242182},{"id":"4289259090","name":"Bar do Papagaio","tags":"addr:street:Rua Coronel José Virgílio Rosa,amenity:bar","lat":-18.7340759,"lng":-47.4891155},{"id":"4289300189","name":"Carneirinho Burguer","tags":"addr:street:Rua Piauí,amenity:restaurant,cuisine:burger,internet_access:wlan,phone:+55 34 9 8882 6362","lat":-18.7330764,"lng":-47.4893832},{"id":"4435378190","name":"Escola Estadual Gregoriano Canedo","tags":"addr:street:Avenida Belo Horizonte,amenity:school,name:pt:Escola Estadual Gregoriano Canedo","lat":-18.7308102,"lng":-47.5019292},{"id":"5223679422","name":"Tropical Açaí","tags":"addr:postcode:38500-000,addr:street:Avenida Dona Clara,amenity:restaurant,internet_access:wlan,opening_hours:We-Mo 15:00-23:00","lat":-18.7305807,"lng":-47.4904642},{"id":"5296001287","name":"Pizza Hut","tags":"amenity:restaurant,cuisine:pizza","lat":-18.7363572,"lng":-47.4883875},{"id":"6440087065","name":"Praça Cidade Jardim","tags":"leisure:park","lat":-18.7253445,"lng":-47.5128501},{"id":"6504969786","name":"Drogaria Modelo","tags":"addr:city:Estrela do Sul,addr:postcode:38525000,addr:street:Avenida Padre Julio Raz,amenity:pharmacy,dispensing:yes,healthcare:pharmacy","lat":-18.7447962,"lng":-47.6915161},{"id":"6504969787","name":"Farmacia Popular","tags":"amenity:pharmacy,dispensing:yes,healthcare:pharmacy","lat":-18.7446312,"lng":-47.6914345},{"id":"6504969788","name":"Ribeiro Agropecuaria","tags":"addr:city:Estrela do Sul,addr:postcode:38525000,addr:street:Rua Elias Teotôneo,internet_access:yes,shop:pet","lat":-18.74738,"lng":-47.6924226},{"id":"6504969789","name":"Escola Estadual Robert Kennedy","tags":"addr:city:Estrela do Sul,addr:postcode:38525000,addr:street:Rua Professor Bastos,amenity:school","lat":-18.7413131,"lng":-47.6883266},{"id":"6504969790","name":"Escombros Casa De Dona Beija","tags":"tourism:attraction","lat":-18.7454661,"lng":-47.6895284},{"id":"6831212634","name":"casa da isca","tags":"shop:supermarket","lat":-18.7242651,"lng":-47.5105309},{"id":"7731850751","name":"PSF Bairro do Carmo","tags":"addr:city:Monte Carmelo,addr:postcode:38500-000,addr:street:Avenida Quatro,addr:suburb:Carmo,amenity:hospital,healthcare:hospital,healthcare:speciality:general,operator:PMMC,operator:type:public","lat":-18.7252373,"lng":-47.5062671},{"id":"7731894975","name":"PSF - Elias de Moraes","tags":"addr:city:Monte Carmelo,addr:housenumber:200,addr:postcode:38500-000,addr:street:Avenida Brasil Leste,addr:suburb:Vila Nova,amenity:hospital,healthcare:hospital,healthcare:speciality:general,operator:PMMC,operator:type:public","lat":-18.7313231,"lng":-47.4900678}]