[{"id":"4831277171","name":"AC Silvânia","tags":"addr:city:Silvânia,addr:housenumber:121,addr:street:Rua Conel Vicente Miguel,addr:suburb:Setor Central,amenity:post_office,postal_code:75183970","lat":-16.6603012,"lng":-48.6059522},{"id":"5206778602","name":"Hospital Nosso Senhor do Bonfim","tags":"amenity:hospital,healthcare:hospital","lat":-16.6675041,"lng":-48.6133333},{"id":"5261934499","name":"Escola Estadual Moisés Santana","tags":"amenity:school","lat":-16.6624887,"lng":-48.6080417},{"id":"5264076438","name":"AABB","tags":"leisure:sports_centre,sport:swimming","lat":-16.6693554,"lng":-48.610743},{"id":"6001621014","tags":"amenity:police,police:traffic_police","lat":-16.64573,"lng":-48.7152439},{"id":"7891000114","name":"Sicredi","tags":"amenity:bank,atm:yes,brand:Sicredi,operator:Sicredi","lat":-16.6664197,"lng":-48.6125815}]