[{"id":"2575047592","name":"Via Sul","tags":"addr:city:Anapolis,addr:housenumber:km 10,addr:street:rod.GO330,amenity:cafe,internet_access:yes","lat":-16.4317125,"lng":-48.8829093},{"id":"2575051609","name":"Via Sul","tags":"addr:housename:Via Sul Salão de Festas,amenity:bar","lat":-16.432047,"lng":-48.8834353},{"id":"4102271754","name":"Chão Goiano","tags":"amenity:restaurant,cuisine:regional","lat":-16.4051465,"lng":-48.9426711},{"id":"4357958458","name":"Escola Estadual Genoveva Rezende Carneiro","tags":"addr:city:Anápolis - Go,addr:postcode:75095-200,addr:street:Rua Jarbas Gomes Lobo,addr:suburb:St. Tropical,amenity:school,operator:Escola","lat":-16.3494826,"lng":-48.9231829},{"id":"4357958459","name":"Stillus Hall - Espaço para eventos","tags":"amenity:bar","lat":-16.3481649,"lng":-48.9162199},{"id":"4357958460","name":"C.M.E.I Doutora Zilda Arns Neuman","tags":"addr:city:Anápolis - Go,addr:postcode:75095-200,addr:street:Rua Jarbas Gomes Lobo,addr:suburb:St. Tropical,amenity:childcare,operator:Creche","lat":-16.3492413,"lng":-48.9223117},{"id":"4357958463","name":"Joquei Club de Anápolis","tags":"addr:city:Anápolis - GO,addr:housenumber:124,addr:postcode:75104-240,addr:street:Avenida Brasil - Rodovia Br 060 km,addr:suburb:Bairro de Lourdes,amenity:bar,operator:Club","lat":-16.350368,"lng":-48.9157693},{"id":"4357958468","name":"São Jorge","tags":"addr:city:Anápolis - GO,addr:street:Rua Chica da Silva,addr:suburb:Jardim Palmares,shop:convenience","lat":-16.3480505,"lng":-48.9226334},{"id":"4357958471","name":"Supermercado Super Amigos","tags":"addr:city:Anápolis - GO,addr:street:Rua 19,addr:suburb:Bairro de Lourdes,shop:convenience","lat":-16.3488449,"lng":-48.9189603},{"id":"4357958474","tags":"addr:city:Anápolis - GO,addr:street:Avenida Comercial,addr:suburb:Bairro de Lourdes,amenity:pharmacy","lat":-16.3484994,"lng":-48.9181826},{"id":"4642420792","name":"Banco Itaú","tags":"amenity:bank,name:pt:Banco Itaú","lat":-16.4080661,"lng":-49.2185025},{"id":"4642421098","name":"Advance","tags":"amenity:school,name:pt:Advance","lat":-16.4080931,"lng":-49.2171602},{"id":"4642421302","name":"Lobo jantinha","tags":"amenity:restaurant,name:pt:Lobo jantinha","lat":-16.4204423,"lng":-49.2184414},{"id":"4831028556","name":"AC Jamel Cecilio","tags":"addr:city:Anapolis,addr:housenumber:Q65 L21,addr:street:Avenida Jamel Cecílio,addr:suburb:JK Parque Industrial Nova Capital,amenity:post_office,official_name:Agência de Correios Jamel Cecilio,postal_code:75114970","lat":-16.3479976,"lng":-48.9350707},{"id":"4831040157","name":"AC Goianápolis","tags":"addr:city:Goianápolis,addr:housenumber:236,addr:street:Avenida Câmara Filho,addr:suburb:Setor Central,amenity:post_office,official_name:Agência de Correios Goianapolis,postal_code:75174-970","lat":-16.5064119,"lng":-49.0219941},{"id":"4953641322","name":"Faz Céu Azul, João Vander(Gamaleira)","tags":"amenity:cafe,name:pt:Faz Céu Azul, João Vander(Gamaleira)","lat":-16.4033065,"lng":-48.927997},{"id":"5340686963","name":"Estatua Nossa senhora","tags":"leisure:park","lat":-16.482951,"lng":-49.0935973},{"id":"5340686981","name":"Cruz","tags":"addr:city:Terezopolis de goias,addr:postcode:Cruz,leisure:park","lat":-16.4796989,"lng":-49.1034868},{"id":"5699934522","tags":"leisure:park","lat":-16.3543093,"lng":-48.9408439},{"id":"5699934523","tags":"leisure:park","lat":-16.3536175,"lng":-48.9390939},{"id":"6245635907","name":"Universidade Estadual de Goiás – Câmpus de Ciências Exatas e Tecnológicas – Henrique Santillo","tags":"addr:city:Anápolis,addr:housenumber:3105,addr:postcode:75132-903,addr:street:BR-153,alt_name:UEG,alt_name_1:UEG Anápolis,alt_name_2:CCET,alt_name_3:UEG – Henrique Santillo,amenity:university,internet_access:yes,website:http://www.ccet.ueg.br/,website_1:http://www.ueg.br/exec/consulta_cursos/?funcao=unidades_v2&variavel=1","lat":-16.3813315,"lng":-48.9462022},{"id":"6645399674","name":"Academia Tropical Parque","tags":"leisure:fitness_centre,sport:gymnastics;fitness;multi;exercise","lat":-16.3564105,"lng":-48.9448862},{"id":"6830771588","name":"SUP COPACABANA","tags":"operator:Paulo,shop:supermarket","lat":-16.3775749,"lng":-48.9831728},{"id":"6830816386","name":"Bom Preço","tags":"shop:supermarket","lat":-16.3766194,"lng":-48.9809001},{"id":"6841291086","name":"Barriga Cheia","tags":"amenity:restaurant","lat":-16.3576049,"lng":-48.9615221},{"id":"6883570446","name":"Pró Fitness","tags":"leisure:fitness_centre","lat":-16.348217,"lng":-48.9350799},{"id":"6883570447","name":"Faro Fino rações","tags":"shop:pet","lat":-16.3486337,"lng":-48.9353041},{"id":"7696185565","name":"Centro de estetica automotivo","tags":"amenity:car_wash","lat":-16.3689839,"lng":-48.9509},{"id":"8244819617","name":"Voo livre","tags":"tourism:attraction","lat":-16.4444125,"lng":-49.0192669}]