[{"id":"4610770390","name":"C.M.E.I. Bom Pastor","tags":"addr:street:Rua Zacheu Alves de Castro,amenity:school,name:pt:C.M.E.I. Bom Pastor,opening_hours:Mo-Fr 07:00-17:00","lat":-14.3083132,"lng":-49.1570724},{"id":"4610770392","name":"Boa esperança","tags":"addr:street:Rua Gravata,amenity:school,name:pt:Boa esperança,opening_hours:Mo-Fr 07:00-05:30","lat":-14.3361781,"lng":-49.1559812},{"id":"4610868289","name":"Banco do Brasil","tags":"addr:street:avenida Maranhão,amenity:bank,name:pt:Banco do Brasil,opening_hours:Mo-Su 08:00-19:00","lat":-14.3126982,"lng":-49.154189},{"id":"4610868390","name":"Colégio Estadual Arapoema Meireles","tags":"addr:street:avenida Maranhão,amenity:school,name:pt:Arapoema Meireles","lat":-14.3140713,"lng":-49.1509573},{"id":"4610868490","name":"Serve bem","tags":"addr:street:avenida Bernado saião,name:pt:Serve bem,shop:supermarket","lat":-14.3278103,"lng":-49.1568185},{"id":"4610868492","name":"Do gato","tags":"amenity:bar,name:pt:Do gato","lat":-14.3250033,"lng":-49.1553529},{"id":"4610868589","name":"Servebem","tags":"addr:street:Avenida Bernadosaiao,name:pt:Servebem,shop:supermarket","lat":-14.3279112,"lng":-49.1561215},{"id":"8986755055","name":"Colégio Estadual Deoclides Martins da Costa","tags":"amenity:school","lat":-14.3110421,"lng":-49.156988},{"id":"8986755061","name":"Escola Municipal Nossa Senhora Aparecida","tags":"amenity:school","lat":-14.3084411,"lng":-49.1504855}]