[{"id":"2588117985","name":"Restaurante Rural Casa das Águas","tags":"amenity:restaurant","lat":-16.0098324,"lng":-47.5313683},{"id":"2738637464","name":"Buteco","tags":"amenity:bar","lat":-16.0916899,"lng":-47.7274576},{"id":"3183359729","tags":"amenity:pharmacy","lat":-16.0100573,"lng":-47.5565689},{"id":"3188347121","name":"Missão Batista em Campos Lindos","tags":"building:church","lat":-16.0924016,"lng":-47.5138703},{"id":"6795823926","name":"Egon's Supermercado","tags":"alt_name:Egons Supermercado,opening_hours:Mo-Sa 07:30-18:30,payment:cash:yes,payment:credit_cards:yes,phone:+55 61 3339-6544,shop:supermarket","lat":-16.0001593,"lng":-47.5596911},{"id":"8770844017","name":"Pad Bier","tags":"addr:street:BR 251 Km 6 - PAD DF,amenity:restaurant,name:pt:Pad Bier - Restaurante e Cervejaria,website:http://www.kiosquepadbier.com","lat":-15.9985902,"lng":-47.5607036}]