[{"id":"5235657321","name":"Pizzaria la Bella","tags":"amenity:restaurant","lat":-13.401184,"lng":-46.3131368},{"id":"5235740721","name":"Rodoviária","tags":"amenity:bus_station","lat":-13.402536,"lng":-46.3116801},{"id":"5235740723","name":"Biblioteca professora Maria da Glória Lima","tags":"amenity:library","lat":-13.4003113,"lng":-46.3170269},{"id":"5235740727","name":"Praça Dona Cota","tags":"tourism:attraction","lat":-13.4025914,"lng":-46.3126234},{"id":"5235740821","name":"Casa HL","tags":"shop:supermarket","lat":-13.4015683,"lng":-46.3122417},{"id":"5235740822","name":"Creche Municipal","tags":"amenity:childcare","lat":-13.3999609,"lng":-46.3172867},{"id":"5236195022","name":"Drogaria São Domingos","tags":"amenity:pharmacy","lat":-13.4003502,"lng":-46.3158795},{"id":"5236197421","name":"Drogaria Popular","tags":"amenity:pharmacy","lat":-13.399727,"lng":-46.3168059},{"id":"5237184521","name":"Aquarius Bar","tags":"amenity:restaurant","lat":-13.3987501,"lng":-46.3203016}]