[{"id":"2671774557","tags":"amenity:police","lat":-3.293618,"lng":-60.626544},{"id":"2671875997","name":"Laboratório Central","tags":"amenity:hospital","lat":-3.2916231,"lng":-60.6302964},{"id":"6025989120","tags":"amenity:school","lat":-3.2907676,"lng":-60.6140952},{"id":"6025989126","name":"Banco do Brasil","tags":"amenity:bank,brand:Banco do Brasil,brand:wikidata:Q610817,brand:wikipedia:en:Banco do Brasil","lat":-3.301251,"lng":-60.6207391},{"id":"6026231435","name":"Bradesco","tags":"amenity:bank","lat":-3.301215,"lng":-60.6203394},{"id":"7890738283","name":"Escola Estadual José Seffair","tags":"addr:city:Manacapuru,addr:housenumber:S/N,addr:postcode:69400-000,addr:street:Rua Carolina Fernandes,addr:suburb:Terra Preta,amenity:school","lat":-3.294567,"lng":-60.6323041},{"id":"7890758723","name":"EMEF Zoraida Ribeiro Alexandre","tags":"addr:city:Manacapuru,addr:housenumber:985,addr:postcode:69400000,addr:street:Rua Waldemar Ventura,addr:suburb:São José,amenity:school","lat":-3.2880867,"lng":-60.6259117},{"id":"7894287723","name":"Escola Estadual Regina Fernandes","tags":"addr:city:Manacapuru-Am,addr:housenumber:23,addr:postcode:69400-000,addr:street:Rua Gilberto Mestrinho,addr:suburb:Liberdade,amenity:school","lat":-3.2911776,"lng":-60.6229852},{"id":"7894320937","name":"CMPM IX Jamil Seffair","tags":"addr:city:Manacapuru-AM,addr:postcode:69400-000,addr:street:Rodovia Manoel Urbano,addr:suburb:Terra Preta,amenity:school","lat":-3.291125,"lng":-60.6316247},{"id":"7894331484","name":"Coordenadoria SEDUC Manacapuru","tags":"addr:city:Manacapuru-AM,addr:housenumber:745,addr:postcode:69400-000,addr:street:Rua Ezanor Ataíde,addr:suburb:São José,amenity:school","lat":-3.2901591,"lng":-60.6305962},{"id":"7894353166","name":"Escola Municipal Manoel Urbano","tags":"addr:city:Manacapuru-AM,addr:postcode:69400-000,addr:suburb:Terra Preta,amenity:school","lat":-3.2889823,"lng":-60.6337901},{"id":"7894373099","name":"Escola Estadual Nossa Senhora de Nazaré","tags":"addr:city:Manacapuru-AM,addr:housenumber:902,addr:postcode:69400-000,addr:street:Rua Quintino Bocaiuva,addr:suburb:Centro,amenity:school","lat":-3.3000486,"lng":-60.6214579},{"id":"7894378628","name":"Escola Estadual André Vidal de Araújo","tags":"addr:city:Manacapuru-Am,addr:housenumber:2035,addr:postcode:69400-448,addr:street:Rua Gaspar Fernandes,addr:suburb:Aparecida,amenity:school","lat":-3.2937945,"lng":-60.6238533},{"id":"7894391766","name":"Escola Estadual Joaquim de Souza Coelho","tags":"addr:city:Manacapuru-AM,addr:housenumber:380,addr:postcode:69400-000,addr:street:Avenida Pedro Moura,addr:suburb:Terra Preta,amenity:school","lat":-3.2934831,"lng":-60.6352465},{"id":"7894402720","name":"EMEF Prof. Beatriz da Silva Bezerra","tags":"addr:city:Manacapuru,addr:postcode:69400000,addr:street:Rua Daniel Simões,addr:suburb:São José,amenity:school","lat":-3.2883811,"lng":-60.627612},{"id":"7894413441","name":"Escola Estadual José Kallil Assaf","tags":"addr:city:Manacapuru-Am,addr:housenumber:215,addr:postcode:69400-000,addr:street:Avenida Eduardo Ribeiro,addr:suburb:Centro,amenity:school","lat":-3.2979402,"lng":-60.6277038},{"id":"7894430566","name":"EMEF José da Luz","tags":"addr:city:Manacapuru-AM,addr:postcode:69400-000,addr:street:Travessa Raimundo Guimarães,addr:suburb:Liberdade,amenity:school","lat":-3.2870328,"lng":-60.6226299},{"id":"7894432750","name":"Escola Estadual Carlos Pinho","tags":"addr:city:Manacapuru-AM,addr:housenumber:168,addr:postcode:69400-000,addr:street:Avenida Ribeiro Júnior,addr:suburb:Centro,amenity:school","lat":-3.3016819,"lng":-60.6205733},{"id":"7894438735","name":"Escola Nossa Senhora de Nazaré","tags":"addr:city:Manacapuru-Am,addr:housenumber:843,addr:postcode:69400-000,addr:street:Avenida Joaquim Alexandre,addr:suburb:Liberdade,amenity:school","lat":-3.2909724,"lng":-60.6221122},{"id":"7894449754","name":"Creche Municipal Marlúcia Dantas da Silva","tags":"addr:city:Manacapuru,addr:postcode:69400-000,addr:street:Rua Itacoatiara,addr:suburb:União,amenity:school","lat":-3.283246,"lng":-60.6306662},{"id":"7894725068","name":"Restaurante e Lanche do Roberto","tags":"addr:city:Manacapuru,addr:postcode:69409899,addr:street:Rodovia Manoel Urbano,addr:suburb:Zona Rural - Miriti,amenity:restaurant,cuisine:regional","lat":-3.2624712,"lng":-60.6260463},{"id":"7894759930","name":"Coisa da Chacara","tags":"addr:city:Manacapuru,addr:housenumber:1154,addr:postcode:6940000,addr:street:Rodovia Manacapuru - Novo Airão,addr:suburb:Nova Mancá,amenity:restaurant,cuisine:regional","lat":-3.2632261,"lng":-60.6514714},{"id":"7897105040","name":"Restaurante Visão de Águia","tags":"addr:city:Manacapuru,addr:housenumber:842,addr:postcode:69400000,addr:street:Rua Calado,addr:suburb:Correnteza,amenity:restaurant","lat":-3.3055422,"lng":-60.6147123},{"id":"7897134030","name":"Restaurante Canto do Roxinho","tags":"addr:city:Manacapuru,addr:housenumber:389,addr:postcode:69400000,addr:street:Rua Castro Alves,amenity:restaurant","lat":-3.2966996,"lng":-60.6177957},{"id":"7897143260","name":"Restaurante E Pizzaria 40 Sabores","tags":"addr:city:Manacapuru,addr:housenumber:1008,addr:postcode:69400000,addr:street:Rua Castro Alves,addr:suburb:Centro,amenity:restaurant","lat":-3.2964996,"lng":-60.6182301},{"id":"7897169851","name":"Restaurante Panela de Barro","tags":"addr:city:Manacapuru,addr:housenumber:576,addr:postcode:69400000,addr:street:Avenida Eduardo Ribeiro,addr:suburb:Centro,amenity:restaurant","lat":-3.3007952,"lng":-60.624247},{"id":"7897175567","name":"Stop Lanche","tags":"addr:city:Manacapuru,addr:postcode:69400-000,addr:street:Avenida Cristo Rei,amenity:restaurant","lat":-3.300822,"lng":-60.6215126},{"id":"7897183187","name":"Lanche Fome de Lião","tags":"addr:city:Manacapuru,addr:housenumber:102,addr:postcode:69400000,addr:street:Rua São João,addr:suburb:Centro,amenity:restaurant","lat":-3.3005318,"lng":-60.6228988},{"id":"7897215878","name":"Restaurante Almoco e Janta","tags":"addr:city:Manacapuru,addr:housenumber:1170,addr:postcode:69400000,addr:street:Avenida João XXIII,addr:suburb:Liberdade,amenity:restaurant","lat":-3.2960813,"lng":-60.6205778},{"id":"7897238884","name":"Restaurante Xibé Chique","tags":"addr:city:Manacapuru-Am,addr:housenumber:376,addr:postcode:69400-000,addr:street:Rua Gaspar Fernandes,addr:suburb:Aparecida,amenity:restaurant","lat":-3.2970219,"lng":-60.6243503},{"id":"7897243651","name":"Restaurante Popular","tags":"addr:city:Manacapuru-Am,addr:housenumber:434,addr:postcode:69400-000,addr:street:Rua Gaspar Fernandes,addr:suburb:Aparecida,amenity:restaurant","lat":-3.296238,"lng":-60.6246697},{"id":"7897252842","name":"Restaurante Sanduba Lanchonete & Pizzaria","tags":"addr:city:Manacapuru-Am,addr:housenumber:451,addr:postcode:69400-000,addr:street:Avenida Manoel Urbano,addr:suburb:Centro,amenity:restaurant","lat":-3.2975475,"lng":-60.6265966},{"id":"7897253232","name":"Restaurante Fonte da Carne de Sol","tags":"addr:city:Manacapuru-AM,addr:housenumber:1243,addr:postcode:69400-000,addr:street:Avenida Eduardo Ribeiro,addr:suburb:Centro,amenity:restaurant","lat":-3.3035919,"lng":-60.6190959},{"id":"7897273388","name":"Restaurante Lanchonete e Restaurante Kelly","tags":"addr:city:Manacapuru-Am,addr:housenumber:21,addr:postcode:69400-000,addr:street:Rua Pernambucano,addr:suburb:Centro,amenity:restaurant","lat":-3.2972289,"lng":-60.6274371},{"id":"7897274380","name":"Restaurante Elina Lanche","tags":"addr:city:Manacapuru,addr:housenumber:373,addr:postcode:69400000,addr:street:Rua Luciano Galvão,addr:suburb:biribiri,amenity:restaurant","lat":-3.3010013,"lng":-60.6178446},{"id":"7897306502","name":"Restaurante Denise Restaurante","tags":"addr:city:Manacapuru,addr:postcode:69400000,addr:street:Avenida Manoel Urbano,addr:suburb:Terra Preta,amenity:restaurant","lat":-3.293135,"lng":-60.6302546},{"id":"7905301484","name":"Mercadinho do Povo","tags":"addr:city:Manacapuru,addr:postcode:69400000,addr:street:Rua Waldemar Ventura,addr:suburb:São José,shop:supermarket","lat":-3.2876311,"lng":-60.6252627},{"id":"7905325321","name":"Banco Caixa Econômica Federal","tags":"addr:city:Manacapuru,addr:postcode:69400000,addr:street:Avenida Manoel Urbano,addr:suburb:Centro,amenity:bank","lat":-3.2996833,"lng":-60.6230023},{"id":"7905367378","name":"Mercadinho e Açougue Solimões","tags":"addr:city:Manacapuru,addr:postcode:69400-000,addr:street:Rua Daniel Simões,addr:suburb:São José,shop:supermarket","lat":-3.2880453,"lng":-60.6286712},{"id":"7905367788","name":"Banco Itaú","tags":"addr:city:Manacapuru,addr:housenumber:76,addr:postcode:69400000,addr:street:Rua Quintino Bocaiúva,addr:suburb:Centro,amenity:bank","lat":-3.3000851,"lng":-60.6222726},{"id":"7905368754","name":"Mercadinho Deus é Maior","tags":"addr:city:Manacapuru,addr:housenumber:884,addr:postcode:69400-000,addr:street:Rua Virgilio Barroso Alexandre,shop:supermarket","lat":-3.290836,"lng":-60.6281275},{"id":"7905374704","name":"Banco da Amazônia","tags":"addr:city:Manacapuru,addr:postcode:69400000,addr:street:Avenida Manoel Urbano,addr:suburb:Centro,amenity:bank","lat":-3.2995128,"lng":-60.6233215},{"id":"7905405939","name":"Bar do Sodre","tags":"addr:city:Manacapuru,addr:postcode:69400000,addr:street:Avenida Tancredo Neves,addr:suburb:Liberdade,amenity:bar","lat":-3.2842692,"lng":-60.6183415},{"id":"7905417326","name":"Bar Vermelhão","tags":"addr:city:Manacapuru,addr:housenumber:2611,addr:postcode:69400000,addr:street:Avenida Senador Fábio Lucena,addr:suburb:Liberdade,amenity:bar","lat":-3.284664,"lng":-60.6170941},{"id":"7905417354","name":"Distribuidora e Mercadinho J.A","tags":"addr:city:Manacapuru-Am,addr:postcode:69400-000,addr:street:Rua Gaspar Fernandes,addr:suburb:Aparecida,shop:supermarket","lat":-3.2958836,"lng":-60.6237397},{"id":"7905419583","name":"Restaurante 3 Marias","tags":"addr:city:Manacapuru,addr:postcode:69400000,addr:street:Avenida Padre Rafael,addr:suburb:São Francisco,amenity:restaurant","lat":-3.2910695,"lng":-60.6162865},{"id":"7905424790","name":"Bar Cigana’s Bar","tags":"addr:city:Manacapuru,addr:postcode:69400000,addr:street:Avenida Tancredo Neves,addr:suburb:Liberdade,amenity:bar","lat":-3.2840938,"lng":-60.618169},{"id":"7905424934","name":"Restaurante Samuel Lanche E Restaurante","tags":"addr:city:Manacapuru,addr:housenumber:1845,addr:postcode:69400000,addr:street:Rua Gilberto Mestrinho,addr:suburb:Liberdade,amenity:restaurant","lat":-3.284174,"lng":-60.6200109},{"id":"7905426374","name":"Mercadinho Princesinha","tags":"addr:city:Manacapuru-Am,addr:postcode:69400-000,addr:street:Rua Coronel Madeira,addr:suburb:Aparecida,shop:supermarket","lat":-3.2967426,"lng":-60.6229712},{"id":"7905432779","name":"Bar da Cacheada","tags":"addr:city:Manacapuru,addr:postcode:69400000,addr:street:Travessa Joana Darc,addr:suburb:Liberdade,amenity:bar","lat":-3.2860524,"lng":-60.6206704},{"id":"7905437179","name":"Mercadinho do Peruano 1","tags":"addr:city:Manacapuru-Am,addr:postcode:69400-000,addr:street:Rua Almirante Tamandaré,shop:supermarket","lat":-3.2959422,"lng":-60.6229661},{"id":"7905446489","name":"Bar Velho Canoeiro","tags":"addr:city:Manacapuru,addr:housenumber:1864,addr:postcode:69400000,addr:street:Rua Raimundo Dias,addr:suburb:Liberdade,amenity:bar","lat":-3.2880039,"lng":-60.620307},{"id":"7905454516","name":"Escola Estadual Castelo Branco","tags":"addr:city:Manacapuru,addr:postcode:69400000,addr:street:Rua Presidente Costa e Silva,addr:suburb:São Francisco,amenity:school","lat":-3.2906612,"lng":-60.6148956},{"id":"7905468264","name":"Mercadinho Maxnai","tags":"addr:city:Manacapuru,addr:postcode:69400000,addr:street:Rua Coronel Juvêncio Soriano,addr:suburb:São José,shop:supermarket","lat":-3.286629,"lng":-60.630416},{"id":"7905472720","name":"Mercadinho Tradicional","tags":"addr:city:Manacapuru,addr:postcode:69400-000,addr:street:Rua Carolina Fernandes,addr:suburb:Terra Preta,shop:supermarket","lat":-3.2941065,"lng":-60.631756},{"id":"7905483406","name":"Mercadinho F. Santos","tags":"addr:city:Manacapuru,addr:housenumber:1798,addr:postcode:69400000,addr:street:Rua João de Deus,addr:suburb:Liberdade,shop:supermarket","lat":-3.2893555,"lng":-60.6203292},{"id":"7905483990","name":"Restaurante Terraço Restaurante","tags":"addr:city:Manacapuru,addr:housenumber:1056,addr:postcode:69400000,addr:street:Rua Adelaide Cabral,addr:suburb:São Francisco,amenity:restaurant","lat":-3.2952378,"lng":-60.6189615},{"id":"7905521111","name":"BAr do Andrade","tags":"addr:city:Manacapuru,addr:housenumber:239,addr:postcode:69400000,addr:street:Rua Iauara,addr:suburb:Correnteza,amenity:bar","lat":-3.3032477,"lng":-60.6161384},{"id":"7905521653","name":"Pólo de Apoio Presencial de Manacapuru","tags":"addr:city:Manacapuru-AM,addr:housenumber:1335,addr:postcode:69400-000,addr:street:Avenida Eduardo Ribeiro,addr:suburb:Centro,amenity:university","lat":-3.3037701,"lng":-60.6184481},{"id":"7905522685","name":"Bar do Iran","tags":"addr:city:Manacapuru,addr:postcode:69400000,addr:street:Travessa Paulo Jaco,addr:suburb:Biribiri,amenity:bar","lat":-3.2999526,"lng":-60.6167878},{"id":"7905525665","name":"Bar da Zu","tags":"addr:city:Manacapuru-AM,addr:housenumber:55,addr:postcode:69400-000,addr:street:Rua Benjamin Constant,addr:suburb:Centro,amenity:bar","lat":-3.3033987,"lng":-60.6186005},{"id":"7905533217","name":"Bar da Família II","tags":"addr:city:Manacapuru,addr:postcode:69400-000,addr:street:Avenida Ribeiro Júnior,addr:suburb:Centro,amenity:bar","lat":-3.3004228,"lng":-60.6201128},{"id":"7905544655","name":"Bar da Má","tags":"addr:city:Manacapuru-AM,addr:housenumber:50,addr:postcode:69400-000,addr:street:Rua Benjamin Constant,addr:suburb:Centro,amenity:bar","lat":-3.3035448,"lng":-60.6184318},{"id":"7905549916","name":"Natan Congelados","tags":"addr:city:Manacapuru-AM,addr:housenumber:1073,addr:postcode:69400-000,addr:street:Avenida Eduardo Ribeiro,addr:suburb:Centro,shop:supermarket","lat":-3.3028274,"lng":-60.6205112},{"id":"7905553160","name":"Supermercado Bom Preço","tags":"addr:city:Manacapuru-AM,addr:housenumber:815,addr:postcode:69400-000,addr:street:Avenida Eduardo Ribeiro,addr:suburb:Centro,shop:supermarket","lat":-3.3017167,"lng":-60.6226667},{"id":"7905566499","name":"Empório e Conveniência do Alê","tags":"addr:city:Manacapuru-Am,addr:postcode:69400-000,addr:street:Rua Pernambucano,addr:suburb:Centro,amenity:bar","lat":-3.2962049,"lng":-60.6286385},{"id":"7905599633","name":"Supermercado Barateiro","tags":"addr:city:Manacapuru-AM,addr:housenumber:1035,addr:postcode:69400-000,addr:street:Avenida Eduardo Ribeiro,addr:suburb:Centro,shop:supermarket","lat":-3.302204,"lng":-60.621693},{"id":"7905599643","name":"Supermercado Leal","tags":"addr:city:Manacapuru-AM,addr:housenumber:888,addr:postcode:69400-000,addr:street:Rua Quintino Bocaiuva,addr:suburb:Centro,shop:supermarket","lat":-3.3004923,"lng":-60.6216751},{"id":"7905604448","name":"Supermercado Bastos Cristo Rei","tags":"addr:city:Manacapuru,addr:housenumber:189,addr:postcode:69400-000,addr:street:Avenida Cristo Rei,addr:suburb:Centro,shop:supermarket","lat":-3.3007014,"lng":-60.6214332},{"id":"7905618706","name":"Bar Jones Bar","tags":"addr:city:Manacapuru,addr:housenumber:807,addr:postcode:69400000,addr:street:Rua Rio Solimões,addr:suburb:Morada do Sol,amenity:bar","lat":-3.2787006,"lng":-60.6443255},{"id":"7905625100","name":"Supermercado Bastos","tags":"addr:city:Manacapuru-AM,addr:postcode:69400000,addr:street:Avenida Boulevard Pedro Rates de Oliveira,addr:suburb:Centro,shop:supermarket","lat":-3.2996012,"lng":-60.6231682},{"id":"7905969962","name":"Supermercado Joia","tags":"addr:city:Manacapuru-Am,addr:postcode:69400-000,addr:street:Rua Raimundo Oliva e Silva,addr:suburb:Liberdade,shop:supermarket","lat":-3.2893698,"lng":-60.6223765},{"id":"7905972483","name":"Mercadinho JG","tags":"addr:city:Manacapuru,addr:housenumber:715,addr:postcode:69400-000,addr:street:Rua Waldemar Ventura,addr:suburb:Aparecida,shop:supermarket","lat":-3.2905757,"lng":-60.6268647},{"id":"7911233474","name":"Bradesco Dia&Noite","tags":"addr:city:Manacapuru-AM,addr:housenumber:218,addr:postcode:69400-903,addr:street:Avenida Ribeiro Júnior,addr:suburb:Centro,amenity:bank","lat":-3.3010959,"lng":-60.6202358},{"id":"7911246316","name":"Agibank","tags":"addr:city:Manacapuru-AM,addr:housenumber:524,addr:postcode:69400-286,addr:street:Avenida Boulevard Pedro Rates de Oliveira,addr:suburb:Centro,amenity:bank","lat":-3.2990933,"lng":-60.6239789},{"id":"7911247588","name":"Banco do Brasil","tags":"addr:city:Manacapuru-AM,addr:housenumber:155,addr:postcode:69400-000,addr:street:Avenida Ribeiro Júnior,addr:suburb:Centro,amenity:bank","lat":-3.3014339,"lng":-60.6206622},{"id":"7911260335","name":"Crefisa | Polo Fam","tags":"addr:city:Manacapuru-AM,addr:housenumber:1550,addr:postcode:69400-000,addr:street:Rua Coronel Julio Ribeiro,addr:suburb:São José,amenity:bank","lat":-3.2906753,"lng":-60.6312873},{"id":"7911270561","name":"Caixa Eletrônico - Caixa Econômica Federal","tags":"addr:city:Manacapuru-Am,addr:postcode:69400-000,addr:street:Rua Castro Alves,addr:suburb:Centro,amenity:bank","lat":-3.2969003,"lng":-60.6179232},{"id":"7913052249","name":"Mercadinho Oliveira","tags":"addr:city:Manacapuru,addr:housenumber:3146,addr:postcode:69400-000,addr:street:Rua Coronel Juvêncio Soriano,addr:suburb:São José,shop:supermarket","lat":-3.2782546,"lng":-60.6259237},{"id":"7913071284","name":"Supermercado 24 horas","tags":"addr:city:Manacapuru,addr:postcode:69400000,addr:street:Travessa Paulo Jaco,addr:suburb:Biribiri,shop:supermarket","lat":-3.2996879,"lng":-60.6176654},{"id":"7913079495","name":"Mercadinho Dona Maria","tags":"addr:city:Manacapuru,addr:street:Rua Coronel Juvêncio Soriano,addr:suburb:União,shop:supermarket","lat":-3.281078,"lng":-60.6279842},{"id":"7913080263","name":"Mercadinho WN","tags":"addr:city:Manacapuru,addr:postcode:69400000,addr:street:Estrada do Aeroporto,addr:suburb:Nova Manacá,shop:supermarket","lat":-3.266492,"lng":-60.6545695},{"id":"7913084170","name":"Mercadinho Ciro Atacadista","tags":"addr:city:Manacapuru,addr:postcode:69400000,addr:street:Avenida Getúlio Vargas,addr:suburb:Biribiri,shop:supermarket","lat":-3.2994897,"lng":-60.6176842},{"id":"7913085399","name":"Mercadinho Novo Manacá","tags":"addr:city:Manacapuru,addr:postcode:69400000,addr:street:Estrada Manoel Urbano,addr:suburb:Nova Manacá,shop:supermarket","lat":-3.2792897,"lng":-60.6466405},{"id":"7913095802","name":"Mercadinho do Carito","tags":"addr:city:Manacapuru,addr:postcode:69400000,addr:street:Rua Rio Purus,addr:suburb:Morada do Sol,shop:supermarket","lat":-3.2774252,"lng":-60.643592},{"id":"7913100891","name":"Comercial Surubin","tags":"addr:city:Manacapuru,addr:postcode:69400000,addr:street:Ramal do Japones, Rua João Esperança,addr:suburb:Ramal do Japones,shop:supermarket","lat":-3.2640836,"lng":-60.6336531},{"id":"7913179038","name":"Mercadinho do Povo","tags":"addr:city:Manacapuru,addr:postcode:69400000,addr:street:Rua Waldemar Ventura,addr:suburb:São José,shop:supermarket","lat":-3.2846141,"lng":-60.6242336},{"id":"7913196978","name":"Mercadinho e Açougue do Pingo","tags":"addr:city:Manacapuru,addr:postcode:69400000,addr:street:Rua Waldemar Ventura,addr:suburb:São José,shop:supermarket","lat":-3.2843506,"lng":-60.6240514},{"id":"7913213452","name":"E.M.E.F Manoel Afonso De Brito","tags":"addr:city:Manacapuru,addr:housenumber:2032,addr:postcode:69400000,addr:street:Rua Joaquim de Melo,addr:suburb:Nova Manacá,amenity:school","lat":-3.2786476,"lng":-60.647689},{"id":"7913260602","name":"Churascaria Jesus Me Deu","tags":"addr:city:Manacapuru,addr:postcode:69400000,addr:street:Estrada Estramar,addr:suburb:Nova Manacá,amenity:restaurant","lat":-3.2806364,"lng":-60.6466053},{"id":"7913262472","name":"CETI - Centro de Educação de Tempo Integral - Prefeito Washington Luís Régis da Silva","tags":"addr:city:Manacapuru,addr:postcode:69400000,addr:street:Estrada do Aeroporto,addr:suburb:Nova Manacá,amenity:school","lat":-3.265685,"lng":-60.652295},{"id":"7913358030","name":"Bob's Shakes","tags":"addr:city:Manacapuru-Am,addr:postcode:69400-000,addr:street:Travessa Goiás,addr:suburb:Centro,amenity:restaurant","lat":-3.2972,"lng":-60.6278544},{"id":"7913375765","name":"Mercearia 2 Irmãos","tags":"addr:city:Manacapuru,addr:postcode:69400-286,addr:street:Avenida Eduardo Ribeiro,addr:suburb:Centro,shop:supermarket","lat":-3.2995185,"lng":-60.6259342},{"id":"7913450426","name":"Farmácias Pague Menos","tags":"addr:city:Manacapuru-AM,addr:postcode:69400-000,addr:street:Rua Fausto Ventura,addr:suburb:Centro,amenity:pharmacy,dispensing:yes,healthcare:pharmacy","lat":-3.2995425,"lng":-60.6227092},{"id":"7920554014","name":"Escola Estadual Magnólia Ventura","tags":"addr:city:Manacapuru,addr:housenumber:2224,addr:postcode:69400000,addr:street:Rua Joana Dangelo,addr:suburb:Biribiri,amenity:school","lat":-3.3000705,"lng":-60.6144088},{"id":"7920562343","name":"Mercadinho JJM","tags":"addr:city:Manacapuru-AM,addr:housenumber:1782,addr:postcode:69400000,addr:street:Avenida Correnteza,addr:suburb:Correnteza,shop:supermarket","lat":-3.3036636,"lng":-60.6141424},{"id":"9092774186","name":"Escola Municipal Marta Vasconcelos","tags":"amenity:school","lat":-3.2923398,"lng":-60.6354279},{"id":"9219196502","name":"Monteiro´s conveniencia","tags":"addr:city:Manacapuru-AM,addr:housenumber:1556,addr:postcode:69400800,addr:street:Avenida Boulevard Pedro Rates de Oliveira,addr:suburb:São José,shop:convenience,wheelchair:yes","lat":-3.290751,"lng":-60.6312889}]