[{"id":"3152392950","tags":"amenity:bar","lat":-3.1282047,"lng":-58.4271394},{"id":"3152475020","tags":"shop:beauty","lat":-3.1283406,"lng":-58.4266887},{"id":"3152529046","tags":"amenity:restaurant","lat":-3.1307272,"lng":-58.4279819},{"id":"3774578419","name":"UFAM - Universidade Federal do Amazonas","tags":"addr:street:Rua Nossa Senhora do Rosário,amenity:university,internet_access:yes,internet_access:fee:customers,website:www.icet.ufam.edu.br","lat":-3.1428455,"lng":-58.4362281},{"id":"3774581993","name":"Universidade do Estado do Amazonas - UEA, Centro de Estudos Superiores de Itacoatiara- CESIT","tags":"addr:street:Avenida Mario Andreaza,amenity:university","lat":-3.1256714,"lng":-58.4310176},{"id":"4391177793","name":"Irashai","tags":"amenity:restaurant,name:pt:Irashai","lat":-3.1485055,"lng":-58.4388011},{"id":"4429302689","name":"Churrascaria e Peixaria","tags":"amenity:restaurant,name:pt:Churrascaria e Peixaria","lat":-3.1430308,"lng":-58.4441233},{"id":"4675288635","name":"Nossa Senhora do Rosário","tags":"amenity:school","lat":-3.1474169,"lng":-58.446902},{"id":"6366409052","name":"Drogaria do Carmo","tags":"amenity:pharmacy,dispensing:yes,healthcare:pharmacy","lat":-3.1424985,"lng":-58.4461939},{"id":"6366409082","name":"Banco do Brasil","tags":"amenity:bank,brand:Banco do Brasil,brand:wikidata:Q610817,brand:wikipedia:en:Banco do Brasil","lat":-3.1439965,"lng":-58.4466479},{"id":"6366409219","name":"Caixa Econômica Federal","tags":"amenity:bank,brand:Caixa Econômica Federal,brand:wikidata:Q835283,brand:wikipedia:pt:Caixa Econômica Federal","lat":-3.1441376,"lng":-58.4462186},{"id":"6366409231","name":"Rodoviária","tags":"amenity:bus_station,bus:yes,public_transport:station","lat":-3.1361045,"lng":-58.4455938},{"id":"6366409272","name":"Jamel Amed","tags":"amenity:school","lat":-3.1402802,"lng":-58.4468494},{"id":"6366434734","name":"Portal","tags":"tourism:attraction","lat":-3.1309002,"lng":-58.446472},{"id":"6366436670","name":"José Mendes","tags":"amenity:hospital,healthcare:hospital","lat":-3.1368248,"lng":-58.4436158},{"id":"6369106943","name":"Balneário Pérola do Piquiá","tags":"addr:city:Itacoatiara,addr:housenumber:km12,addr:street:Estrada do Piquiá,amenity:restaurant","lat":-2.9900762,"lng":-58.4516378},{"id":"6371256973","name":"Banco da Amazônia","tags":"amenity:bank","lat":-3.1463809,"lng":-58.4472649},{"id":"6371256974","name":"Bradesco","tags":"amenity:bank,brand:Bradesco,brand:wikidata:Q806181,brand:wikipedia:en:Banco Bradesco","lat":-3.1460671,"lng":-58.447818},{"id":"6371256975","name":"Panorama","tags":"amenity:restaurant","lat":-3.1487658,"lng":-58.4463887},{"id":"6371257624","name":"Ouro Verde","tags":"shop:supermarket","lat":-3.1487827,"lng":-58.4459867}]