[{"id":"1042087874","name":"Aeródromo Miracema do Tocantins","tags":"aeroway:aerodrome,iata:NTM","lat":-9.5502001,"lng":-48.3982224},{"id":"2610148256","name":"Supermercado Araguaia","tags":"shop:supermarket","lat":-9.5748934,"lng":-48.406847},{"id":"4112241176","tags":"amenity:ferry_terminal,ferry:yes,public_transport:station","lat":-9.5708099,"lng":-48.3811887},{"id":"9524744328","name":"Escola Estadual Indigena Waipainere","tags":"amenity:school","lat":-9.5995625,"lng":-48.250616},{"id":"9524771053","name":"Escola Indigena Akezane","tags":"amenity:school","lat":-9.5806606,"lng":-48.2720496},{"id":"9524912258","name":"Centro Municipal De Educacao Infantil Dona Regina","tags":"amenity:school","lat":-9.5605569,"lng":-48.3905844},{"id":"9524949205","name":"Centro Educacional Mundo Feliz","tags":"amenity:school","lat":-9.5613319,"lng":-48.3908553},{"id":"9524949648","name":"Centro Educacional Tia Ana","tags":"addr:city:Miracema do Tocantins,addr:housenumber:1330,addr:postcode:77650-000,addr:street:Rua Maranhão,addr:suburb:Centro,amenity:school","lat":-9.5671931,"lng":-48.3905254},{"id":"9524967893","name":"Centro Municipal De Educacao Infantil Dona Maracaipe","tags":"addr:city:Miracema do Tocantins,addr:postcode:77650-000,addr:street:Avenida Alzelino Luz,addr:suburb:Setor Universitário,amenity:school","lat":-9.5723215,"lng":-48.4065865},{"id":"9524972040","name":"Estacao Da Crianca","tags":"addr:city:Miracema do Tocantins,addr:housenumber:507,addr:postcode:77650-000,addr:street:Rua Dois,amenity:school","lat":-9.5630009,"lng":-48.4062834},{"id":"9524972041","name":"Centro Educacional Flor De Lirio","tags":"addr:city:Miracema do Tocantins,addr:housenumber:577,addr:postcode:77650-000,addr:street:Rua Três,amenity:school,phone:+55 63 3366 3067","lat":-9.5637335,"lng":-48.4068654},{"id":"9524972717","name":"Associacao De Apoio A Esc Especial Um Raio De Luz","tags":"addr:city:Miracema do Tocantins,addr:housenumber:780,addr:postcode:77650-000,addr:street:Avenida Rio Branco,addr:suburb:Santa Filomena,amenity:school,phone:+55 63 3366 1392","lat":-9.5564943,"lng":-48.4052132},{"id":"9528439895","name":"Escola Estadual Indigena Soiti","tags":"amenity:school,phone:+55 63 3929 3014","lat":-9.4934902,"lng":-48.346615},{"id":"9562732440","name":"Escola Indigena Wareti","tags":"amenity:school,phone:+55 63 3929 3014","lat":-9.6315031,"lng":-48.3950101},{"id":"9562735093","name":"Escola Estadual Indigena Romtepre","tags":"amenity:school","lat":-9.6286656,"lng":-48.3878754},{"id":"9562741533","name":"Escola Estadual Indigena Waikawra","tags":"amenity:school,phone:+55 63 3929 3014","lat":-9.6600931,"lng":-48.3808453},{"id":"9562741534","name":"Escola Estadual Indigena Sakruiwe","tags":"amenity:school","lat":-9.6472448,"lng":-48.3717661},{"id":"9562741667","name":"Escola Estadual Indigena Kbarewdehu","tags":"amenity:school,phone:+55 63 3929 3014","lat":-9.6444789,"lng":-48.3920623},{"id":"9562752166","name":"Centro Municipal De Educacao Infantil Isis Sardinha Moraes","tags":"addr:city:Miracema do Tocantins,addr:postcode:77650-000,addr:street:Avenida Anora Ribeiro,addr:suburb:Setor Brasil,amenity:school,phone:+55 63 3366 1939","lat":-9.5515111,"lng":-48.4101229}]