[{"id":"9524677987","name":"Escola Estadual Indigena Sina","tags":"amenity:school","lat":-9.5927339,"lng":-47.9244219},{"id":"9524677989","name":"Escola Estadual Indigena Srapte","tags":"amenity:school","lat":-9.6620101,"lng":-48.1533189},{"id":"9524688199","name":"Escola Estadual Indigena Wakomekwa","tags":"amenity:school","lat":-9.5764633,"lng":-47.9593308},{"id":"9524734367","name":"Escola Estadual Indigena Dakburokwa","tags":"amenity:school","lat":-9.6201928,"lng":-48.0035685},{"id":"9524734562","name":"Escola Estadual Indigena Wazase","tags":"amenity:school","lat":-9.6483686,"lng":-47.9959671},{"id":"9528140671","name":"Escola Estadual Indigena Dbatopre","tags":"amenity:school","lat":-9.53267,"lng":-48.1087835}]