[{"id":"9191706693","name":"Canion Encantado","tags":"tourism:attraction","lat":-11.1441189,"lng":-47.2265447},{"id":"9191706694","name":"Cachoeira da Cortina","tags":"tourism:attraction,waterway:waterfall","lat":-11.1690237,"lng":-47.2382069},{"id":"9191706695","name":"Cachoeira do Urubu Rei","tags":"tourism:attraction,waterway:waterfall","lat":-11.1727392,"lng":-47.2411037},{"id":"9521582753","name":"Esc Mul Teodomiro Melquiades De Souza","tags":"amenity:school,phone:+55 63 3373 1652","lat":-11.1237284,"lng":-47.3026107},{"id":"9521600752","name":"Esc Mul Janoario M Ferreira","tags":"amenity:school,phone:+55 63 3373 1652","lat":-11.1732786,"lng":-47.2694667}]