[{"id":"5922490386","name":"Acesso à Comunidade Mumbuca","tags":"tourism:attraction","lat":-10.3512503,"lng":-46.5684214},{"id":"5922490803","name":"Restaurante e Camping do Vicente","tags":"amenity:restaurant","lat":-10.3362621,"lng":-46.5192742},{"id":"5922490804","name":"Acesso à Cachoeira do Formiga","tags":"tourism:attraction","lat":-10.3340642,"lng":-46.4706042},{"id":"9122857128","name":"Fervedouro das Macaúbas","tags":"natural:spring,seasonal:no,tourism:attraction","lat":-10.3135801,"lng":-46.5556839},{"id":"9122858071","name":"Fervedouro Encontro das Águas","tags":"natural:spring,seasonal:no,tourism:attraction","lat":-10.3411986,"lng":-46.5472189},{"id":"9122896815","name":"Fervedouro do Buritizinho","tags":"natural:spring,seasonal:no,tourism:attraction","lat":-10.3379082,"lng":-46.5213355},{"id":"9520636340","name":"Escola Municipal Boa Esperanca","tags":"amenity:school","lat":-10.2241426,"lng":-46.6491602},{"id":"9520704664","name":"Escola Municipal Dona Isabel Barreira De Oliveira","tags":"amenity:school","lat":-10.2626761,"lng":-46.5655343}]