[{"id":"4220381494","name":"Beer.com","tags":"addr:housenumber:846,addr:postcode:68537-000,addr:street:Av Weyne Cavalcante,amenity:restaurant,cuisine:fish,internet_access:wlan","lat":-6.5363906,"lng":-49.850371},{"id":"4220417389","name":"Recanto Goiano","tags":"addr:street:PA-160,amenity:restaurant,cuisine:brazilian,internet_access:wlan","lat":-6.5154943,"lng":-49.8538269},{"id":"4257925289","name":"Casa da Vovó","tags":"addr:housenumber:42,addr:street:Rua Mogno,amenity:restaurant,internet_access:wlan","lat":-6.5324676,"lng":-49.8520144},{"id":"4261835092","name":"Hospital Municipal Canaã dos Carajás","tags":"addr:street:Avenida Juscelino Kubitscheck,amenity:hospital,healthcare:hospital","lat":-6.5291965,"lng":-49.8537079},{"id":"8896120641","name":"Piratas Lounge","tags":"addr:city:Canaã dos Carajás,addr:housenumber:297,addr:postcode:68537-000,addr:street:Avenida Rio Branco,addr:suburb:Novo Horizonte,amenity:restaurant,cuisine:fast_food,phone:+55 94 9 8172 9584","lat":-6.5407932,"lng":-49.8565344},{"id":"9907866317","name":"Hospital 5 de Outubro","tags":"amenity:hospital","lat":-6.524568,"lng":-49.8444477}]