[{"id":"9165848929","name":"Em Vital Brasil","tags":"amenity:school","lat":-5.713585,"lng":-47.4750841},{"id":"9546155425","name":"Esc Mul Bom Jesus","tags":"amenity:school","lat":-5.629981,"lng":-47.7751248},{"id":"9548278689","name":"Esc Mul Sao Raimundo","tags":"amenity:school","lat":-5.638317,"lng":-47.5109111},{"id":"9548278690","name":"Esc Mul Maria Silva Barreto","tags":"amenity:school","lat":-5.6789066,"lng":-47.5679563},{"id":"9548322402","name":"Esc Mul Menino Jesus","tags":"amenity:school","lat":-5.6469199,"lng":-47.738003},{"id":"9548334200","name":"Esc Mul Rui Barbosa","tags":"amenity:school","lat":-5.6268659,"lng":-47.557772},{"id":"9548335761","name":"Escola Municipal Caminho Para O Futuro","tags":"amenity:school","lat":-5.7931731,"lng":-47.7230658},{"id":"9548353594","name":"Colegio Estadual Olavo Bilac","tags":"amenity:school","lat":-5.7673306,"lng":-47.4841829},{"id":"9548376852","name":"Esc Mul Angico","tags":"amenity:school","lat":-5.6670533,"lng":-47.4984495},{"id":"9548379916","name":"Escola Municipal Santa Barbara","tags":"amenity:school","lat":-5.6764911,"lng":-47.7720724},{"id":"9548381544","name":"Esc Mul Sao Bento","tags":"amenity:school","lat":-5.7697938,"lng":-47.7026032},{"id":"9548384746","name":"Esc Mul Sao Jose","tags":"amenity:school","lat":-5.7028235,"lng":-47.7419619},{"id":"9548389247","name":"Esc Mul Agua Azul","tags":"amenity:school","lat":-5.7037015,"lng":-47.7756961},{"id":"9548392418","name":"Esc Mul Suely Barbosa","tags":"addr:street:Rua Deocleciano Amorim,amenity:school","lat":-5.7865578,"lng":-47.4717991}]