[{"id":"9025302822","name":"EM Dom Pedro II","tags":"addr:city:Amarante do Maranhão,addr:postcode:65923-000,amenity:school,phone:+55 99 3532 2179","lat":-5.7053972,"lng":-46.7892357},{"id":"9025348271","name":"EM Humberto de Campos","tags":"addr:city:Amarante do Maranhão,addr:postcode:65923-000,amenity:school,phone:+55 99 3532 2179","lat":-5.6749097,"lng":-46.799731},{"id":"9165719135","name":"Em São Raimundo","tags":"amenity:school","lat":-5.6721219,"lng":-46.9986452},{"id":"9165720369","name":"Em Gonçalves Dias","tags":"amenity:school","lat":-5.6318046,"lng":-46.9913877},{"id":"9165730521","name":"Ue Dom Pedro I","tags":"amenity:school","lat":-5.6710805,"lng":-46.9735976},{"id":"9165740089","name":"Escola Raimundo Nonato De Sousa","tags":"amenity:school","lat":-5.6420098,"lng":-47.0440243}]