[{"id":"6980072367","name":"Bradesco","tags":"addr:city:Fortaleza dos Nogueiras,addr:housenumber:171,addr:postcode:65805-000,addr:street:Rua do Cormecio,addr:suburb:Centro,amenity:bank,atm:yes,brand:Bradesco,brand:wikidata:Q806181,brand:wikipedia:en:Banco Bradesco,email:5230.gerencia@bradesco.com.br,phone:+55 99 3531 1231,website:https://banco.bradesco","lat":-6.9609183,"lng":-46.1799425},{"id":"9032605725","name":"Em Artur Coutinho","tags":"amenity:school","lat":-6.9734649,"lng":-46.3775542},{"id":"9152178553","name":"Pequena Universidade Vovo Ana","tags":"amenity:school","lat":-6.9592354,"lng":-46.1793969},{"id":"9152200408","name":"Em Luiz Gonzaga","tags":"amenity:school","lat":-6.8700979,"lng":-46.2287803},{"id":"9152206301","name":"Centro De Ensino Vera Lucia Dos Santos Carvalho","tags":"amenity:school","lat":-6.9613245,"lng":-46.1805415},{"id":"9152212670","name":"Em Sao Francisco De Assis","tags":"amenity:school","lat":-6.8711132,"lng":-46.2749223},{"id":"9152379024","name":"Em Jesus Cristo","tags":"amenity:school","lat":-6.984908,"lng":-46.0733821},{"id":"9152382142","name":"Em Nossa Senhora De Guadalupe","tags":"amenity:school","lat":-6.9674766,"lng":-46.1896181}]