[{"id":"9056165342","name":"Em Santo Antonio","tags":"amenity:school","lat":-6.5991467,"lng":-46.346591},{"id":"9152138607","name":"Em Sirino Rodrigues","tags":"amenity:school","lat":-6.6699224,"lng":-46.2427268},{"id":"9152190011","name":"E M Sao Francisco De Assis","tags":"amenity:school","lat":-6.6146273,"lng":-46.1932003},{"id":"9152400201","name":"Em Joao Castelo","tags":"amenity:school","lat":-6.6200756,"lng":-46.3934126},{"id":"9152427258","name":"EM Zeus e Amor","tags":"amenity:school","lat":-6.5383877,"lng":-46.3706328},{"id":"9156319159","name":"Em Rosalvo De Arruda","tags":"amenity:school","lat":-6.50516,"lng":-46.3178781}]