[{"id":"4688608026","tags":"amenity:school","lat":-6.4428635,"lng":-46.1901823},{"id":"6981739609","name":"Bradesco","tags":"addr:city:Formosa da Serra Negra,addr:postcode:65943-000,addr:street:Avenida João Mata e Silva,addr:suburb:Centro,amenity:bank,atm:yes,brand:Bradesco,brand:wikidata:Q806181,brand:wikipedia:en:Banco Bradesco,email:1766.gerencia@bradesco.com.br,phone:+55 99 3565 1033","lat":-6.4378966,"lng":-46.1908411},{"id":"9035407216","name":"Em Santa Dionizia","tags":"amenity:school","lat":-6.4112805,"lng":-46.3959315},{"id":"9040791416","name":"Em Professor Juca Cruz","tags":"addr:city:Formosa da Serra Negra,addr:postcode:65943-000,addr:street:Rua Tancredo Neves,addr:suburb:Centro,amenity:school","lat":-6.4345452,"lng":-46.1899821},{"id":"9041319051","name":"Ui Eliza Moreira Ferraz","tags":"addr:city:Formosa da Serra Negra,addr:postcode:65943-000,addr:street:Rua Tancredo Neves,addr:suburb:Centro,amenity:school","lat":-6.4342973,"lng":-46.1899526},{"id":"9152378378","name":"Pre Escolar Profª Maria Francisca Da Silva","tags":"amenity:school","lat":-6.4428527,"lng":-46.190345},{"id":"9152381196","name":"Escola Especial Moyra Lais","tags":"amenity:school","lat":-6.4442316,"lng":-46.1950324},{"id":"9152399680","name":"Em Santos Dumont","tags":"amenity:school","lat":-6.3773008,"lng":-46.1019823},{"id":"9152448723","name":"Centro De Ensino Antonio Sirley De Arruda Lima - Anexo Ii - Soara","tags":"amenity:school","lat":-6.3293507,"lng":-46.0716682}]