[{"id":"5293775907","name":"Mercado Peixoto","tags":"addr:city:Grajaú,addr:postcode:65940000,addr:street:Rua da Mangueira,addr:suburb:Rodoviaria,shop:supermarket","lat":-5.8150104,"lng":-46.1320414},{"id":"5293784958","name":"Zuqui Bar e Restaurante","tags":"addr:city:Grajaú,addr:postcode:65940000,addr:suburb:Rodoviaria,amenity:restaurant,cuisine:regional,outdoor_seating:yes,smoking:yes,takeaway:yes","lat":-5.8166017,"lng":-46.1317709},{"id":"5293796220","name":"Mercearia Mello","tags":"addr:city:Grajaú,addr:postcode:65940000,addr:street:Avenida Professor Hilton Nunes,addr:suburb:Rodoviaria,shop:supermarket","lat":-5.8149983,"lng":-46.1344833},{"id":"5293810034","name":"Restaurante Popular","tags":"addr:city:Grajaú,addr:postcode:65940000,amenity:restaurant,delivery:no,description:Restaurante publico municipal com refeição barata para a população.,outdoor_seating:no,takeaway:no","lat":-5.8233838,"lng":-46.1560783},{"id":"5308231624","name":"Banco do Brasil","tags":"addr:street:Rua 7 de Setembro,amenity:bank,brand:Banco do Brasil,brand:wikidata:Q610817,brand:wikipedia:en:Banco do Brasil","lat":-5.8181472,"lng":-46.1420219},{"id":"5308244722","name":"Bradesco","tags":"amenity:bank,brand:Bradesco,brand:wikidata:Q806181,brand:wikipedia:en:Banco Bradesco","lat":-5.81868,"lng":-46.1419444},{"id":"5564307320","name":"Praça de Alimentação","tags":"amenity:restaurant","lat":-5.8238456,"lng":-46.1602279},{"id":"5564308023","name":"Gullas Pães e Pizzas","tags":"amenity:cafe,opening_hours:Mo-Su 06:00-20:00","lat":-5.8167729,"lng":-46.1586122},{"id":"5602660522","name":"Hospital Itamar Guará","tags":"amenity:hospital,healthcare:hospital","lat":-5.8158442,"lng":-46.156885},{"id":"5602785280","name":"Cachoeira do Viriato","tags":"leisure:park","lat":-5.8714422,"lng":-46.1268834},{"id":"8719475906","name":"Escola Municipal Ferreira Lima","tags":"amenity:school","lat":-5.8197282,"lng":-46.1635347},{"id":"9033200353","name":"Escola Evangelica Dinalva Barros","tags":"amenity:school","lat":-5.8155095,"lng":-46.136693},{"id":"9033231072","name":"Em Professor Pedro Santana","tags":"addr:city:Grajaú,addr:postcode:65940-000,addr:street:Rodovia MA-006,addr:suburb:Canoeiro,amenity:school","lat":-5.8141298,"lng":-46.1610492},{"id":"9035538257","name":"Centro De Ensino Pinoquio","tags":"addr:city:Grajaú,addr:housenumber:70,addr:postcode:65940-000,addr:street:Rua Tiradentes,addr:suburb:Canoeiro,amenity:school","lat":-5.8225699,"lng":-46.1583602},{"id":"9040528827","name":"Em Professora Marly Araujo","tags":"addr:city:Grajaú,addr:postcode:65940-000,addr:street:Rua Major Gustavo Santos,addr:suburb:Aeroporto,amenity:school","lat":-5.8083593,"lng":-46.11955},{"id":"9040866201","name":"Escola Municipal Frei Benjamim De Borno","tags":"amenity:school","lat":-5.8215333,"lng":-46.1356755},{"id":"9041901978","name":"Em Paulo Ferraz De Souza","tags":"addr:city:Grajaú,addr:postcode:65940-000,addr:street:Rua Doutor João Batista Nava,addr:suburb:Fátima,amenity:school,phone:+55 99 3532 7024","lat":-5.8079724,"lng":-46.122428},{"id":"9041962416","name":"Em Antonio Pinheiro De Carvalho","tags":"amenity:school","lat":-5.8162845,"lng":-46.1688598},{"id":"9053512536","name":"Em Joao Bezerra Da Silva - Pov Morros","tags":"amenity:school","lat":-5.8751624,"lng":-46.2526895},{"id":"9056759022","name":"Pre Escola Balao Magico","tags":"addr:city:Grajaú,addr:postcode:65940-000,addr:street:Rua Mercia Lima de Arruda,addr:suburb:Vila Viana,amenity:school","lat":-5.8212958,"lng":-46.1350022},{"id":"9118177647","name":"Educandario Sonho De Crianca","tags":"addr:city:Grajaú,addr:housenumber:13,addr:postcode:65940-000,addr:street:Rua das Orquídeas,addr:suburb:Cohab,amenity:school","lat":-5.817416,"lng":-46.1568673},{"id":"9118179736","name":"Em Educar Para Crescer","tags":"addr:city:Grajaú,addr:postcode:65940-000,addr:street:Rua Capitão Joaquin Ferraz,addr:suburb:Extrema,amenity:school","lat":-5.8315355,"lng":-46.1561908},{"id":"9118182746","name":"Em Professora Maria Nilce Sousa","tags":"addr:city:Grajaú,addr:postcode:65940-000,addr:street:Rua Tiradentes,addr:suburb:Canoeiro,amenity:school","lat":-5.8220376,"lng":-46.1583482},{"id":"9118183603","name":"Em Profª Celi Cunha Do Carmo","tags":"addr:city:Grajaú,addr:housenumber:112,addr:postcode:65940-000,addr:street:Rua Capitão Joaquin Ferraz,addr:suburb:Extrema,amenity:school","lat":-5.8270675,"lng":-46.1572619},{"id":"9118190300","name":"Em Geracao Do Saber","tags":"addr:city:Grajaú,addr:housenumber:121,addr:postcode:65940-000,addr:street:Rua Tiradentes,addr:suburb:Canoeiro,amenity:school","lat":-5.8218935,"lng":-46.1587693},{"id":"9118190305","name":"Centro Educacional Dunamis","tags":"addr:city:Grajaú,addr:housenumber:201,addr:postcode:65940-000,addr:street:Rua Capitão Joaquin Ferraz,addr:suburb:Extrema,amenity:school","lat":-5.8287112,"lng":-46.1567013},{"id":"9118203101","name":"Em Alcindo Felipe Da Silva","tags":"amenity:school","lat":-5.8086298,"lng":-46.1560902},{"id":"9118203697","name":"Escola Municipal Monteiro Lobato","tags":"addr:city:Grajaú,addr:housenumber:211,addr:postcode:65940-000,addr:street:Rua Tiradentes,addr:suburb:Canoeiro,amenity:school","lat":-5.8176428,"lng":-46.159244},{"id":"9118219977","name":"Em Ezon Moreira Ferraz","tags":"addr:city:Grajaú,addr:housenumber:204,addr:postcode:65940-000,addr:street:Avenida Brasil,addr:suburb:Canoeiro,amenity:school","lat":-5.8218188,"lng":-46.157227},{"id":"9118224575","name":"Em Nova Aliança","tags":"addr:city:Grajaú,addr:postcode:65940-000,addr:street:Rua Tiradentes,addr:suburb:Canoeiro,amenity:school","lat":-5.8197214,"lng":-46.1591528},{"id":"9118237020","name":"Em Sao Francisco De Assis","tags":"addr:city:Grajaú,addr:housenumber:68A,addr:postcode:65940-000,addr:street:Rua Capitão Joaquin Ferraz,addr:suburb:Extrema,amenity:school","lat":-5.8265129,"lng":-46.1573076},{"id":"9118250643","name":"Escola Educar","tags":"addr:city:Grajaú,addr:postcode:65940-000,addr:street:Rua Raimundo Sales,addr:suburb:Canoeíro,amenity:school","lat":-5.8205026,"lng":-46.1534261},{"id":"9152426755","name":"Em Joao Pedro Ferreira Neto","tags":"amenity:school","lat":-5.9000464,"lng":-46.0555581},{"id":"9155528270","name":"Pre Escola Dos Anjos","tags":"addr:city:Grajaú,addr:postcode:65940-000,addr:street:Rua Santa Luzia,addr:suburb:Aeroporto,amenity:school","lat":-5.8149782,"lng":-46.1223498},{"id":"9156319051","name":"Em Professora Maria Eliza Cunha Lima","tags":"addr:city:Grajaú,addr:postcode:65940-000,addr:street:Rua marly Sarney,addr:suburb:Rodoviária,amenity:school","lat":-5.811404,"lng":-46.138334},{"id":"9165182346","name":"Em Amaral Raposo - Dois Riacho","tags":"amenity:school","lat":-5.9502855,"lng":-46.3372257},{"id":"9165182347","name":"Em Francisco Dias","tags":"amenity:school","lat":-5.9349944,"lng":-46.3702763},{"id":"9166120133","name":"Em Pedro De Alcantara - Pov Garrafao","tags":"amenity:school","lat":-5.9257418,"lng":-46.23618},{"id":"9170402266","name":"Em Zeus E Amor - Pov Mata Fria","tags":"amenity:school","lat":-5.8257437,"lng":-46.2207734},{"id":"9170422673","name":"Em Portal Do Saber","tags":"amenity:school","lat":-5.8094747,"lng":-46.1236436},{"id":"9170438348","name":"Em Sao Joao - Tanque","tags":"amenity:school","lat":-5.8622243,"lng":-46.2095842},{"id":"9170444952","name":"Pre Escola Nossa Senhora De Fatima","tags":"amenity:school","lat":-5.8146711,"lng":-46.1356474},{"id":"9170449900","name":"Escola Visao Junior","tags":"amenity:school","lat":-5.8169378,"lng":-46.1379014},{"id":"9170454571","name":"Em Prof Osvaldo Barros","tags":"amenity:school","lat":-5.8138027,"lng":-46.1349037},{"id":"9170454572","name":"Creche E Pre - Escola Menino Deus","tags":"amenity:school","lat":-5.8128251,"lng":-46.1326946},{"id":"9170454575","name":"Em Paulo Freire","tags":"amenity:school","lat":-5.8173616,"lng":-46.1338791},{"id":"9170597307","tags":"amenity:school","lat":-5.8085105,"lng":-46.1241735},{"id":"9170608638","name":"Pre Escola Tia Zuzu","tags":"amenity:school","lat":-5.8044809,"lng":-46.1224514},{"id":"9171599046","name":"Em Bom Samaritano","tags":"amenity:school","lat":-5.8090403,"lng":-46.1140561},{"id":"9171610633","name":"Pre Escola Semeando O Saber","tags":"amenity:school","lat":-5.8081335,"lng":-46.1131898}]