[{"id":"1042069169","name":"Caima","tags":"aeroway:aerodrome","lat":-4.3053961,"lng":-56.209303},{"id":"1042079532","name":"Fazenda Rosa de Maio","tags":"aerodrome:type:private,aeroway:aerodrome,anac:495/2015,anac:link:http://pergamum.anac.gov.br/arquivos/PA2015-0495.pdf,icao:SIYR,owner:Renato da Silva Moreira","lat":-4.3157392,"lng":-56.108119},{"id":"1042079793","name":"Santa Teresa","tags":"aeroway:aerodrome","lat":-4.291389,"lng":-56.0875015},{"id":"4515340889","name":"Café","tags":"addr:housenumber:km 0,addr:street:Rodovia Transamazônica,amenity:cafe,internet_access:wlan,name:en:Coffee","lat":-4.2740607,"lng":-55.9864418},{"id":"4707290989","name":"Sindicato dos Produtores Rurais","tags":"addr:street:Rodovia Transamazônica,opening_hours:Mo-Su 09:00-18:00,tourism:attraction","lat":-4.2511708,"lng":-56.011229},{"id":"4790876621","name":"Hospital Dom Bosco","tags":"addr:street:Rua Nova de Santana,amenity:hospital,opening_hours:24/7","lat":-4.2733225,"lng":-55.9843862},{"id":"4790876721","name":"Hospital Santo Antônio","tags":"addr:street:Rua Nova de Santana,amenity:hospital,name:en:Hospital Santo Antonio,opening_hours:24/7","lat":-4.2719019,"lng":-55.9821819},{"id":"6482187888","name":"Pizzaria Daxa","tags":"amenity:restaurant,internet_access:wlan,opening_hours:Tu-Su 09:00-18:00; Mo 09:00-18:00","lat":-4.2794826,"lng":-55.9913215},{"id":"7172863285","name":"Mercado Machado","tags":"shop:supermarket","lat":-4.243138,"lng":-55.9871161},{"id":"9054169015","name":"UNI-Z Miritituba","tags":"addr:city:Itaituba,addr:housenumber:Lote 02,addr:postcode:68180020,addr:street:Margem direta do Rio Tapajós, lote 02 Gleba Santa Cruz,addr:suburb:São José,amenity:ferry_terminal,ferry:yes,internet_access:yes,operator:UNI-Z,public_transport:station","lat":-4.269566,"lng":-55.945162},{"id":"9560309236","name":"AleFarma Drogaria","tags":"amenity:pharmacy","lat":-4.2981672,"lng":-55.9619361}]