[{"id":"2972178835","name":"Casa do Saulo","tags":"amenity:restaurant,cuisine:regional","lat":-2.4193346,"lng":-54.846899},{"id":"6154289786","name":"Barraca Nativa Nº5","tags":"amenity:restaurant","lat":-2.4396494,"lng":-54.9163235},{"id":"7042011785","name":"44 expedição","tags":"tourism:attraction","lat":-2.4307417,"lng":-55.1868154},{"id":"8290526918","name":"Povoado São Marcos","tags":"tourism:attraction","lat":-2.4152607,"lng":-55.1745061},{"id":"8290527120","name":"Ponta do Icuxi","tags":"tourism:attraction","lat":-2.331667,"lng":-55.0608059}]