[{"id":"289662697","name":"Imperatriz","tags":"amenity:ferry_terminal,ferry:yes,public_transport:station","lat":-5.5366289,"lng":-47.4909241},{"id":"1042072602","name":"Aeródromo Haras Bela Vista","tags":"aeroway:aerodrome","lat":-5.541667,"lng":-47.5024986},{"id":"1773087564","name":"Cabana do Sol","tags":"amenity:restaurant","lat":-5.5191476,"lng":-47.4727499},{"id":"1773214141","name":"Atacadão","tags":"brand:Atacadão,brand:wikidata:Q2868739,brand:wikipedia:en:Atacadão,shop:supermarket","lat":-5.5486499,"lng":-47.4617417},{"id":"1801254249","name":"São Miguel do Tocantins","tags":"amenity:ferry_terminal,ferry:yes,public_transport:station","lat":-5.5395787,"lng":-47.4959304},{"id":"1823196353","name":"Peixaria da Tia","tags":"amenity:restaurant,cuisine:fish","lat":-5.5299359,"lng":-47.4925995},{"id":"1886682385","name":"Chacrinha","tags":"addr:housename:Chacrinha,addr:street:Rua Floriano Peixoto,building:public,leisure:sports_centre,sport:soccer","lat":-5.5096095,"lng":-47.4928441},{"id":"1886698788","name":"Supermercado Kelly","tags":"phone:+55 98 3524-3742,shop:supermarket","lat":-5.5138671,"lng":-47.4883946},{"id":"1888748537","name":"Barro Futebol Clube","tags":"leisure:sports_centre,sport:soccer","lat":-5.510249,"lng":-47.4927594},{"id":"1888750032","tags":"amenity:pharmacy","lat":-5.5140754,"lng":-47.4882194},{"id":"1888750785","tags":"amenity:pharmacy,healthcare:pharmacy","lat":-5.5176605,"lng":-47.4856006},{"id":"1888751129","tags":"amenity:pharmacy,healthcare:pharmacy","lat":-5.5175403,"lng":-47.485437},{"id":"1888781315","name":"Banco da Caixa","tags":"amenity:bank,atm:yes","lat":-5.5190381,"lng":-47.4873439},{"id":"1888798477","tags":"amenity:atm,fee:STR - Secretária do Trabalho Regional","lat":-5.5265001,"lng":-47.4903882},{"id":"1900425066","name":"Drogaria Big Bem","tags":"amenity:pharmacy,healthcare:pharmacy","lat":-5.5183501,"lng":-47.4864},{"id":"1900429582","name":"Correios","tags":"amenity:post_office,operator:Correios,operator:wikidata:Q3375004,operator:wikipedia:en:Correios","lat":-5.5179043,"lng":-47.485531},{"id":"1900467510","tags":"amenity:restaurant,cuisine:gaucho","lat":-5.5221225,"lng":-47.4906218},{"id":"2632361164","name":"Drogaria Extra Farma","tags":"amenity:pharmacy,healthcare:pharmacy","lat":-5.5260875,"lng":-47.4770553},{"id":"2632361166","name":"Drogaria Pague Menos","tags":"amenity:pharmacy","lat":-5.5248055,"lng":-47.4754787},{"id":"2909351938","name":"alan","tags":"amenity:bar","lat":-5.5147933,"lng":-47.4652903},{"id":"4673741510","name":"Polícia Rodoviária Federal","tags":"amenity:police,opening_hours:24/7,operator:Polícia Rodoviária Federal,operator:wikidata:Q1158853,operator:wikipedia:pt:Polícia Rodoviária Federal,phone:+55 98 3211 5409,police:traffic_police","lat":-5.4553073,"lng":-47.4726562},{"id":"4919978778","tags":"leisure:sports_centre","lat":-5.4763457,"lng":-47.4701859},{"id":"4919978830","tags":"leisure:sports_centre,sport:swimming","lat":-5.4759396,"lng":-47.4705984},{"id":"5676845664","name":"Taotiè Culinária Asiática","tags":"addr:city:Imperatriz,addr:housenumber:47,addr:postcode:65901-520,addr:street:Rua Amazonas,addr:suburb:Centro,amenity:restaurant,cuisine:chinese;asian,delivery:yes,outdoor_seating:yes,payment:cash:yes,payment:credit_cards:yes,payment:debit_cards:yes,phone:+559935254096,smoking:no,takeaway:yes,website:http://www.taotie.com.br,wheelchair:yes","lat":-5.526961,"lng":-47.4843656},{"id":"5676845665","name":"Padaria Pão da Hora","tags":"addr:city:Imperatriz,addr:postcode:65900-390,addr:street:Rua Bom Futuro,addr:suburb:Centro,amenity:cafe,cuisine:pizza;coffee_shop,internet_access:no,outdoor_seating:yes","lat":-5.5269413,"lng":-47.4845682},{"id":"6739627577","name":"Biblioteca do IFMA","tags":"amenity:library","lat":-5.4908592,"lng":-47.4963442},{"id":"8607677550","name":"Supermercado Irmão Sousa","tags":"addr:housenumber:3665,opening_hours:Mo-Sa 07:00-20:00; Su 07:00-12:00,shop:supermarket","lat":-5.5437682,"lng":-47.4733755},{"id":"8796667112","name":"Mercantio FC","tags":"addr:street:Rua Godofredo Viana,opening_hours:Mo-Sa 07:30-22:00, 07:30-18:00,shop:supermarket","lat":-5.5439123,"lng":-47.4741356},{"id":"8940024442","name":"Studio Beca - Design de Sobracelhas","tags":"addr:city:Imperatriz,addr:housenumber:113,addr:postcode:65910-185,addr:street:Rua Padre Anchieta,addr:suburb:Vila Lobão,air_conditioning:yes,beauty:nails,opening_hours:Mo-Su 09:00-21:00,opening_hours:covid19:Mo-Su 08:00-20:00,phone:+55 99 9 8187 8775,shop:beauty","lat":-5.5059843,"lng":-47.4647758},{"id":"9032636181","name":"Escola Adventista De Imperatriz","tags":"addr:city:Imperatriz,addr:housenumber:223,addr:postcode:65901-520,addr:street:Rua Amazonas,addr:suburb:Centro,amenity:school,phone:+55 99 3529 9948","lat":-5.529465,"lng":-47.4825735},{"id":"9032665017","name":"Casa Escola Dei Bambini","tags":"addr:city:Imperatriz,addr:housenumber:2280,addr:postcode:65903-250,addr:street:Avenida Bernardo Sayão,addr:suburb:Três Poderes,amenity:school,phone:+55 99 3523 4499","lat":-5.5138815,"lng":-47.4804412},{"id":"9032668702","name":"Centro Educacional Gotinhas De Amor","tags":"addr:city:Imperatriz,addr:housenumber:1095,addr:postcode:65901-340,addr:street:Rua Aquiles Lisboa,addr:suburb:Mercadinho,amenity:school,phone:+55 99 3524 8431","lat":-5.5262944,"lng":-47.4735402},{"id":"9033205374","name":"Em De Ens Fundamental Ipiranga","tags":"addr:city:Imperatriz,addr:postcode:65908-063,addr:street:Rua Cinco,addr:suburb:Vila Ipiranga,amenity:school","lat":-5.4901038,"lng":-47.4662362},{"id":"9033265178","name":"Escola Dom Pedro I","tags":"addr:city:Imperatriz,addr:housenumber:274,addr:postcode:65910-150,addr:street:Rua Duque de Caxias,addr:suburb:Vila Lobão,amenity:school","lat":-5.5136198,"lng":-47.465782},{"id":"9035335474","name":"EM Fraternidade","tags":"addr:city:Imperatriz,addr:housenumber:3519,addr:postcode:65901-500,addr:street:Rua Coriolando Milhomem,addr:suburb:São Salvador,amenity:school","lat":-5.5419912,"lng":-47.4715845},{"id":"9035520023","name":"Escola Coelho Neto","tags":"addr:city:Imperatriz,addr:housenumber:1518,addr:postcode:65901-290,addr:street:Rua Paraíba,amenity:school","lat":-5.5311896,"lng":-47.4731536},{"id":"9038922204","name":"EM São Sebastião","tags":"addr:city:Imperatriz,addr:housenumber:10,addr:postcode:65900-772,addr:street:Rua Um,addr:suburb:Caema,amenity:school","lat":-5.5398808,"lng":-47.485768},{"id":"9038998989","name":"Creche Aconchego","tags":"addr:city:Imperatriz,addr:housenumber:176,addr:postcode:65917-100,addr:street:Rua Santa Isabel,addr:suburb:Santa Rita,amenity:school","lat":-5.4976396,"lng":-47.4859317},{"id":"9041060888","name":"EM Creche Esperança","tags":"addr:city:Imperatriz,addr:housenumber:1882,addr:postcode:65919-161,addr:street:Rua Alagoas,addr:suburb:Santa Rita,amenity:school","lat":-5.5003655,"lng":-47.4940427},{"id":"9041491275","name":"EM Ditador Costa e Silva","tags":"addr:city:Imperatriz,addr:postcode:65907-010,addr:street:Rua Fortunato Bandeira,addr:suburb:Nova Imperatriz,amenity:school","lat":-5.5201355,"lng":-47.4895553},{"id":"9053279598","name":"Escola Criativa","tags":"addr:city:Imperatriz,addr:housenumber:92,addr:postcode:65900-510,addr:street:Rua Paraíba,addr:suburb:Juçara,amenity:school","lat":-5.5194788,"lng":-47.4816562},{"id":"9053293831","name":"Colegio Delta Infantil - Delta Mais","tags":"addr:city:Imperatriz,addr:housenumber:1091,addr:postcode:65903-045,addr:street:Rua Rio de Janeiro,addr:suburb:Três Poderes,amenity:school","lat":-5.5163471,"lng":-47.4770965},{"id":"9056023884","name":"Em Leoncio Pires Dourado","tags":"addr:city:Imperatriz,addr:housenumber:50,addr:postcode:65900-500,addr:street:Rua Pernambuco,addr:suburb:Juçara,amenity:school","lat":-5.5195108,"lng":-47.4803849},{"id":"9056270046","name":"Em Guilherme Dourado","tags":"addr:city:Imperatriz,addr:housenumber:36,addr:postcode:65916-590,addr:street:Rua Dezesseis,addr:suburb:São João,amenity:school","lat":-5.4854729,"lng":-47.4887909},{"id":"9056431299","name":"Em De Educacao Infantil Jair Rosignoli","tags":"addr:street:Avenida dos Sabias Laranjeiras,amenity:school","lat":-5.5054009,"lng":-47.5002278},{"id":"9117894812","name":"Centro Educa Mais Tancredo De Almeida Neves","tags":"addr:city:Imperatriz,addr:postcode:65910-030,addr:street:Rua Antonnio de Miranda,addr:suburb:Vila Redenção,amenity:school","lat":-5.5115094,"lng":-47.4616389},{"id":"9117900620","name":"Em Sta Tereza D Avila","tags":"addr:city:Imperatriz,addr:housenumber:294,addr:postcode:65911-520,addr:street:Rua Tancredo Neves,amenity:school","lat":-5.4897548,"lng":-47.4610152},{"id":"9117921976","name":"Em Nucleo Santa Cruz","tags":"addr:city:Imperatriz,addr:housenumber:674,addr:postcode:65910-080,addr:street:Rua Glauber Rocha,addr:suburb:Vila Redenção,amenity:school","lat":-5.5108607,"lng":-47.4613707},{"id":"9117928637","name":"Em Lago Do Cisne","tags":"addr:city:Imperatriz,addr:housenumber:1005,addr:postcode:65910-550,addr:street:Rua Marechal Hermes da Fonseca,addr:suburb:Vila Redenção,amenity:school","lat":-5.5092481,"lng":-47.4613707},{"id":"9117938497","name":"Escola Dos Amiguinhos","tags":"addr:city:Imperatriz,addr:postcode:65910-185,addr:street:Rua São José,addr:suburb:Vila Lobão,amenity:school","lat":-5.5066824,"lng":-47.4644364},{"id":"9117944592","name":"Em Solidariedade","tags":"addr:city:Imperatriz,addr:housenumber:50,addr:postcode:65904-295,addr:street:Avenida Juscelino Kubitschek,addr:suburb:Cinco Irmãos,amenity:school","lat":-5.4981056,"lng":-47.47647},{"id":"9117947656","name":"Creche Moranguinho","tags":"addr:city:Imperatriz,addr:housenumber:30,addr:postcode:65911-321,addr:street:Rua Almores,addr:suburb:Parque das Estrelas,amenity:school","lat":-5.5030861,"lng":-47.4637981},{"id":"9117947661","name":"Escola Espaco Infantil Maranatha","tags":"addr:city:Imperatriz,addr:housenumber:88,addr:postcode:65910-210,addr:street:Rua São João,addr:suburb:Vila Lobão,amenity:school","lat":-5.5017559,"lng":-47.4648056},{"id":"9117953889","name":"Col Joao Silva","tags":"addr:city:Imperatriz,addr:housenumber:557,addr:postcode:65915-070,addr:street:Rua W1,addr:suburb:Bom Jesus,amenity:school","lat":-5.4998007,"lng":-47.4843457},{"id":"9117968609","name":"Creche Santa Terezinha","tags":"addr:city:Imperatriz,addr:housenumber:26,addr:postcode:65908-015,addr:street:Rua C,addr:suburb:Vila Ipiranga,amenity:school","lat":-5.4917525,"lng":-47.467631},{"id":"9117969338","name":"Em Samaritana","tags":"addr:city:Imperatriz,addr:housenumber:143,addr:postcode:65917-100,addr:street:Rua Santa Isabel,addr:suburb:Santa Rita,amenity:school","lat":-5.4984246,"lng":-47.4865508},{"id":"9117973034","name":"Centro Educacional Castelo Do Saber","tags":"addr:city:Imperatriz,addr:housenumber:504,addr:postcode:65919-010,addr:street:Rua Padre Cicero,addr:suburb:Santa Rita,amenity:school","lat":-5.5004456,"lng":-47.4874096},{"id":"9117984264","name":"EM Santa RIta","tags":"addr:city:Imperatriz,addr:housenumber:617,addr:postcode:65917-140,addr:street:Rua Bilar Dutra,addr:suburb:Boca da Mata,amenity:school","lat":-5.4959365,"lng":-47.4816698},{"id":"9117997613","name":"Em Moranguinho","tags":"addr:city:Imperatriz,addr:housenumber:469,addr:postcode:65919-195,addr:street:Rua Raimundo de Moraes Barros,addr:suburb:Santa Rita,amenity:school","lat":-5.4993882,"lng":-47.4886421},{"id":"9118008702","name":"Em Evangelica Bom Pastor","tags":"addr:city:Imperatriz,addr:housenumber:816,addr:postcode:65905-105,addr:street:Rua Alves Pereira,addr:suburb:Bom Sucesso,amenity:school","lat":-5.4962967,"lng":-47.4890055},{"id":"9154899261","name":"Em Enock Alves Bezerra","tags":"amenity:school","lat":-5.4609054,"lng":-47.5602006},{"id":"9155414005","name":"Creche Cidade Esperanca","tags":"amenity:school","lat":-5.5272451,"lng":-47.4922845},{"id":"9155497372","name":"Complexo Educacional Dom Bosco","tags":"addr:city:Imperatriz,addr:housenumber:439,addr:postcode:65901-590,addr:street:Rua Maranhão,addr:suburb:Centro,amenity:school","lat":-5.5276186,"lng":-47.4808555},{"id":"9159305965","name":"Escola Infantil Alfa","tags":"amenity:school","lat":-5.5168075,"lng":-47.4789784},{"id":"9159365065","name":"Centro De Ensino Vinicius De Moraes","tags":"amenity:school","lat":-5.5185482,"lng":-47.4799372},{"id":"9159408368","name":"Colegio Evangelico Paraiso","tags":"addr:street:Rua Paulo Afonso,amenity:school","lat":-5.5227366,"lng":-47.4649787},{"id":"9159410196","name":"Escola Arte De Educar E Ceb","tags":"amenity:school","lat":-5.5254935,"lng":-47.4680338},{"id":"9159411211","name":"Em De 1 Grau Princesa Izabel","tags":"amenity:school","lat":-5.5249535,"lng":-47.4730988},{"id":"9159413420","name":"Creche Municipal Mundo Infantil","tags":"amenity:school","lat":-5.5191661,"lng":-47.4781845},{"id":"9159415877","name":"Escola Nova Dinamica","tags":"amenity:school","lat":-5.5181116,"lng":-47.4857968},{"id":"9159417364","name":"Ice Instituto Cristao De Educacao","tags":"amenity:school","lat":-5.5222303,"lng":-47.4775459},{"id":"9159431696","name":"Centro Educacional Reino Da Alegria","tags":"amenity:school","lat":-5.5154525,"lng":-47.4641551},{"id":"9165802550","name":"Col Frei Paulo De Graymoor","tags":"amenity:school","lat":-5.543289,"lng":-47.4712022},{"id":"9165820846","name":"Em Renato Cortez Moreira","tags":"amenity:school","lat":-5.5259852,"lng":-47.4908991},{"id":"9165822060","name":"Educandario Frei Osvaldo","tags":"amenity:school","lat":-5.5226274,"lng":-47.4905065},{"id":"9165825656","name":"Escolinha Alianca","tags":"amenity:school","lat":-5.5480784,"lng":-47.4716313},{"id":"9165826794","name":"Em Santa Laura","tags":"amenity:school","lat":-5.5418292,"lng":-47.4780699},{"id":"9165826803","name":"Escola Municipal De Educacao Infantil Goncalves Dias","tags":"amenity:school","lat":-5.5364158,"lng":-47.4716616},{"id":"9165830206","name":"Escola Municipal Tiradentes Ii","tags":"amenity:school","lat":-5.5487914,"lng":-47.4747437},{"id":"9165837390","name":"Col Imperatriz","tags":"amenity:school","lat":-5.5318402,"lng":-47.4767612},{"id":"9165841243","name":"Centro Educacional Magia Do Saber","tags":"amenity:school","lat":-5.5180854,"lng":-47.4874847},{"id":"9165848673","name":"Ce Decisao Mumdiluza","tags":"amenity:school","lat":-5.5311613,"lng":-47.4902795},{"id":"9165848687","name":"Em Sta Tereza","tags":"amenity:school","lat":-5.4859056,"lng":-47.4868073},{"id":"9165848924","name":"Em Parsondas De Carvalho","tags":"amenity:school","lat":-5.4779885,"lng":-47.4958595},{"id":"9165850204","name":"Inst Educacional Sul Maranhense Coc","tags":"amenity:school","lat":-5.5113454,"lng":-47.4747983},{"id":"9165850542","name":"Escola De Qualificacao Tecnica De Enfermagem De Imperatriz - Eqtei","tags":"amenity:school","lat":-5.5286382,"lng":-47.4790647},{"id":"9165850690","name":"Em Tomazia Carvalho","tags":"amenity:school","lat":-5.5423325,"lng":-47.4799581},{"id":"9165851457","name":"Escola Municipal Tiradentes Ii","tags":"amenity:school","lat":-5.5465314,"lng":-47.4775273},{"id":"9165851479","name":"Centro De Ensino De Educacao De Jovens E Adultos Ii","tags":"amenity:school","lat":-5.5349081,"lng":-47.4785434},{"id":"9165855195","name":"Creche Parque Anhanguera","tags":"amenity:school","lat":-5.5551954,"lng":-47.4693822},{"id":"9165856250","name":"Escolinha Alianca","tags":"amenity:school","lat":-5.5485871,"lng":-47.4712653},{"id":"9165857053","name":"Centro De Estudos Tecnico Alvorada","tags":"amenity:school","lat":-5.5290833,"lng":-47.4771828},{"id":"9165857561","name":"Escola Municipal Dom Affonso","tags":"amenity:school","lat":-5.4866591,"lng":-47.4990191},{"id":"9165858716","name":"Esc Municipalizada Frei Paulo De Graymoor","tags":"amenity:school","lat":-5.5433317,"lng":-47.4710422},{"id":"9165860480","name":"Colegio Frei Gil","tags":"amenity:school","lat":-5.5392614,"lng":-47.4733997},{"id":"9165861037","name":"Em Santos Dumont","tags":"amenity:school","lat":-5.5429589,"lng":-47.4803849},{"id":"9165861052","name":"Em Castro Alves Ii","tags":"amenity:school","lat":-5.5145071,"lng":-47.4679097},{"id":"9165861278","name":"Colegio Aquarela","tags":"amenity:school","lat":-5.5162175,"lng":-47.4876812},{"id":"9165864599","name":"Em Sto Inacio De Loyola","tags":"amenity:school","lat":-5.5392216,"lng":-47.4776171},{"id":"9165865087","name":"Escola Municipal Morada Do Sol","tags":"amenity:school","lat":-5.5298648,"lng":-47.4638793},{"id":"9165865351","name":"Em Lauro Tupinamba Valente","tags":"amenity:school","lat":-5.5361928,"lng":-47.4795531},{"id":"9165865507","name":"Escola Municipal De Ensino Fundamental Goncalves Dias","tags":"amenity:school","lat":-5.5349802,"lng":-47.4737971},{"id":"9165865517","name":"Em Educ Bilingue Para Surdos Prof Telasco Pereira Filho","tags":"amenity:school","lat":-5.536981,"lng":-47.4787104},{"id":"9165865820","name":"Centro Educacional Fortaleza","tags":"amenity:school","lat":-5.518829,"lng":-47.4898338},{"id":"9165868200","name":"Em Sao Vicente De Paula","tags":"amenity:school","lat":-5.5342742,"lng":-47.4747868},{"id":"9165869870","name":"Centro De Ensino Estado De Goias","tags":"amenity:school","lat":-5.5293959,"lng":-47.4832382},{"id":"9165871313","name":"Em Menino Jesus Ii","tags":"amenity:school","lat":-5.5132693,"lng":-47.4652857},{"id":"9165873211","name":"Ce Balao Magico","tags":"amenity:school","lat":-5.5210942,"lng":-47.4854659},{"id":"9165877683","name":"Escola Machado De Assis","tags":"amenity:school","lat":-5.512631,"lng":-47.4655864},{"id":"9165880732","name":"Em Wady Fiquene","tags":"amenity:school","lat":-5.5173699,"lng":-47.495426},{"id":"9165881667","name":"Em Hebe Cortez","tags":"amenity:school","lat":-5.5041443,"lng":-47.4807765},{"id":"9165883073","name":"Em Jucimar Rodrigues","tags":"amenity:school","lat":-5.4988619,"lng":-47.4970272},{"id":"9165887567","name":"Em Castro Alves I","tags":"amenity:school","lat":-5.5156707,"lng":-47.4687185},{"id":"9165891534","name":"Creche Mul Educandario Do Saber","tags":"amenity:school","lat":-5.5312679,"lng":-47.4889101},{"id":"9165891565","name":"Escolinha Do Mickey","tags":"amenity:school","lat":-5.5000415,"lng":-47.4939968},{"id":"9165891724","name":"Escola Muncipalizada De Ens Fundamental Frei Osvaldo Caronine","tags":"amenity:school","lat":-5.5081076,"lng":-47.4879089},{"id":"9165892268","name":"Em Frei Manoel Procopio","tags":"amenity:school","lat":-5.5330236,"lng":-47.4885505},{"id":"9165897646","name":"Em Marechal Rondon","tags":"amenity:school","lat":-5.5059557,"lng":-47.4913378},{"id":"9165900660","name":"Escola Pequeno Davi","tags":"amenity:school","lat":-5.4917409,"lng":-47.4917382},{"id":"9165902432","name":"Em Mariana Luz","tags":"amenity:school","lat":-5.5032883,"lng":-47.4906772},{"id":"9165906236","name":"Em Dom Joao Vi","tags":"amenity:school","lat":-5.5001922,"lng":-47.4908984},{"id":"9165909764","name":"Creche Risco E Rabisco","tags":"amenity:school","lat":-5.5087187,"lng":-47.487529},{"id":"9165912236","name":"Escola Nova Geracao","tags":"amenity:school","lat":-5.503732,"lng":-47.4927971},{"id":"9165914413","name":"Creche Mul Cirandinha","tags":"amenity:school","lat":-5.4838435,"lng":-47.4815784},{"id":"9165915797","name":"Ce Maranhense","tags":"amenity:school","lat":-5.4906984,"lng":-47.4787872},{"id":"9165920552","name":"Creche Municipal Antonia Glaucimeire","tags":"amenity:school","lat":-5.4816595,"lng":-47.4894412},{"id":"9165921280","name":"Em Sumare","tags":"amenity:school","lat":-5.4818728,"lng":-47.502481},{"id":"9545217795","name":"Escola Municipal Tancredo Neves","tags":"amenity:school","lat":-5.4670554,"lng":-47.7082492},{"id":"9545232769","name":"Esc Mul Rui Barbosa","tags":"amenity:school","lat":-5.4613283,"lng":-47.7308361},{"id":"9545274938","name":"Banco do Brasil","tags":"addr:city:Sítio Novo do Tocantins,addr:postcode:77940-000,amenity:bank,brand:Banco do Brasil,brand:wikidata:Q610817,brand:wikipedia:en:Banco do Brasil","lat":-5.6032031,"lng":-47.6407323},{"id":"9545274945","tags":"addr:city:Sítio Novo do Tocantins,addr:postcode:77940-000,amenity:post_office,operator:Correios,operator:wikidata:Q3375004,operator:wikipedia:en:Correios","lat":-5.6033575,"lng":-47.639902},{"id":"9545274948","name":"Farmacia do Trabalhador","tags":"addr:city:Sítio Novo do Tocantins,addr:postcode:77940-000,amenity:pharmacy,dispensing:yes,healthcare:pharmacy","lat":-5.6033973,"lng":-47.6399009},{"id":"9545274949","name":"Supermecado Tatiana","tags":"addr:city:Sítio Novo do Tocantins,addr:postcode:77940-000,shop:supermarket","lat":-5.6037698,"lng":-47.6398487},{"id":"9545274950","name":"Academia Corpus","tags":"addr:city:Sítio Novo do Tocantins,addr:postcode:77940-000,leisure:fitness_centre","lat":-5.6035808,"lng":-47.6401297},{"id":"9545829101","name":"Escola Municipal Jarbas Passarinho","tags":"amenity:school,phone:+55 63 3446 1286","lat":-5.5893346,"lng":-47.6042841},{"id":"9545869748","name":"Bradesco","tags":"amenity:bank,brand:Bradesco,brand:wikidata:Q806181,brand:wikipedia:en:Banco Bradesco","lat":-5.6031598,"lng":-47.6397366},{"id":"9545873738","name":"Escola Municipal Rui Barbosa","tags":"addr:city:Sítio Novo do Tocantins,addr:housenumber:2281,addr:postcode:77940-000,addr:street:Rua do Comércio,addr:suburb:Centro,amenity:school,phone:+55 63 3446 1286","lat":-5.5963926,"lng":-47.6324634},{"id":"9545873746","name":"Unidade Escolar Crianca Feliz","tags":"addr:city:Sítio Novo do Tocantins,addr:postcode:77940-000,addr:street:Rua Maranhense,addr:suburb:Vila Araujo,amenity:school","lat":-5.6027304,"lng":-47.6332436},{"id":"9545892790","name":"Escola Municipal Bela Vista","tags":"amenity:school","lat":-5.5429216,"lng":-47.5155942},{"id":"9545908973","name":"Escola Municipal Dom Joao Xxiii","tags":"addr:city:São Miguel do Tocantins,amenity:school","lat":-5.5481301,"lng":-47.5367622},{"id":"9545923395","name":"Escola Municipal Turma Da Monica","tags":"amenity:school","lat":-5.5412744,"lng":-47.5038864},{"id":"9545924482","name":"Creche Municipal Caminho Do Futuro","tags":"amenity:school","lat":-5.5473265,"lng":-47.5337072},{"id":"9545935860","name":"Escola Est Bela Vista","tags":"amenity:school","lat":-5.5404494,"lng":-47.5060053},{"id":"9545943430","name":"Creche Municipal Menino Jesus","tags":"amenity:school","lat":-5.5413865,"lng":-47.5061207},{"id":"9545950239","name":"Esc Mul Sete Barracas","tags":"amenity:school","lat":-5.5203838,"lng":-47.5793315},{"id":"9546094311","name":"Esc Mul Praia Alta","tags":"amenity:school","lat":-5.523996,"lng":-47.5063755},{"id":"9546094316","name":"Escola Municipal Joao Paulo Ii","tags":"amenity:school","lat":-5.6137729,"lng":-47.766657},{"id":"9546119721","name":"Esc Mul Peso Duro","tags":"amenity:school","lat":-5.5904397,"lng":-47.5230078},{"id":"9546122481","name":"Colegio Estadual Marechal Ribas Junior","tags":"addr:postcode:77930-000,amenity:school","lat":-5.6197175,"lng":-47.7730246},{"id":"9546135472","name":"Esc Mul Padre Irton","tags":"amenity:school","lat":-5.61282,"lng":-47.770734},{"id":"9546155594","name":"Pre Escolar Sao Fracisco De Assis","tags":"addr:city:Axixá do Tocantins,addr:housenumber:2061,addr:postcode:77930-000,addr:street:Rua do Comercio,addr:suburb:Centro,amenity:school","lat":-5.6167492,"lng":-47.7689905},{"id":"9546165903","name":"Pre Escolar Menino Jesus","tags":"amenity:school","lat":-5.6135647,"lng":-47.770616},{"id":"9546170558","name":"Esc Mul Marechal Rondon","tags":"amenity:school","lat":-5.6138317,"lng":-47.7742101},{"id":"9548346203","tags":"addr:city:Axixá do Tocantins,addr:housenumber:2703,addr:postcode:77930-000,addr:street:Avenida Vila Nova,amenity:school,phone:+55 63 3444 1168","lat":-5.6128307,"lng":-47.765155},{"id":"9548372526","name":"Esc Mul Boa Esperanca","tags":"amenity:school","lat":-5.4680994,"lng":-47.559451},{"id":"9548375843","name":"Escola Municipal Osvaldo Reis","tags":"amenity:school","lat":-5.6100519,"lng":-47.7616359},{"id":"9611959808","name":"Pizzaria Maverick","tags":"addr:street:Rua Marechal Castelo Branco,amenity:restaurant,description:Pizzaa de vários sabores","lat":-5.5392599,"lng":-47.4763794},{"id":"9678640881","name":"Academia Infantil Hora do Recreio","tags":"leisure:fitness_centre","lat":-5.5116498,"lng":-47.4730882},{"id":"9927259612","name":"Supermercado Ribeiro","tags":"shop:supermarket","lat":-5.5088017,"lng":-47.4650823},{"id":"9939265442","name":"Supermercado Econômico","tags":"shop:supermarket","lat":-5.5108816,"lng":-47.4656027},{"id":"9939265445","name":"Delegacia de Polícia Civil - 5º Distrito Policial","tags":"amenity:police","lat":-5.5092092,"lng":-47.4648345},{"id":"9939265446","name":"Drogaria Alves","tags":"amenity:pharmacy,dispensing:yes,healthcare:pharmacy","lat":-5.5086007,"lng":-47.4649921},{"id":"10054964917","name":"Supermercado Alex","tags":"shop:supermarket","lat":-5.5081454,"lng":-47.4652317},{"id":"10157372917","name":"Pizza Raiz Imp","tags":"amenity:restaurant,cuisine:pizza","lat":-5.5171026,"lng":-47.467064},{"id":"10220778917","name":"Drogaria Juline","tags":"addr:housenumber:765,addr:postcode:65919000,addr:street:Rua Bom Jesus,amenity:pharmacy,name:en:Juline Drugstore,opening_hours:Mo-Su 08:00-12:00, 14:00-20:00","lat":-5.4981888,"lng":-47.4856721}]