[{"id":"1042068061","name":"Aeródromo Fazenda Soberana","tags":"aeroway:aerodrome","lat":-5.455833,"lng":-46.0625},{"id":"9024686116","name":"EM Belo Monte II","tags":"addr:city:Amarante do Maranhão,addr:postcode:65923-000,addr:suburb:Belo Monte Dois,amenity:school","lat":-5.5356495,"lng":-46.3566125},{"id":"9025327293","name":"EM Belo Monte I","tags":"addr:city:Amarante do Maranhão,addr:postcode:65923-000,amenity:school","lat":-5.5885721,"lng":-46.3485846},{"id":"9025578030","name":"EM Salma Sales","tags":"amenity:school","lat":-5.6188544,"lng":-46.3461933},{"id":"9039034395","name":"Em Prof Iracilda De Sousa Falcao - Pov Bom Dia","tags":"amenity:school","lat":-5.5270528,"lng":-46.2795813},{"id":"9041017075","name":"Em Sao Raimundo - Ass Jussaral","tags":"amenity:school","lat":-5.5186004,"lng":-46.1399134},{"id":"9170588509","name":"Em Silvino Arruda","tags":"amenity:school","lat":-5.5457902,"lng":-46.1625414},{"id":"9170606568","name":"Em Goncalves Dias - Pov Bela Estrela","tags":"amenity:school","lat":-5.4865583,"lng":-46.2086025},{"id":"9170611918","name":"Escola Municipal Santa Maria - Pov Patos","tags":"amenity:school","lat":-5.6097672,"lng":-46.1506953},{"id":"9170613123","name":"Em Nossa Senhora De Fatima - Lagoa Do Tabuleiro","tags":"amenity:school","lat":-5.5411414,"lng":-46.2414988},{"id":"9170615695","name":"Em Princesa Isabel - Vargem Grande","tags":"amenity:school","lat":-5.4651588,"lng":-46.1327628}]