[{"id":"9037999099","name":"Centro De Ensino Ardaliao Americo Pires - Anexo I - São Gonçalo","tags":"amenity:school","lat":-5.2529324,"lng":-45.2012689},{"id":"9043191520","name":"Ui Teodorico Anacleto Da Silva - Cajazeira II","tags":"amenity:school","lat":-5.1324492,"lng":-45.210434},{"id":"9092753308","name":"Ui Osvaldo Cruz - Cacau","tags":"amenity:school","lat":-5.2129765,"lng":-45.2114694},{"id":"9155440121","name":"Ui Aldenora Pereira Da Silva - Centro Do José Antônio","tags":"amenity:school","lat":-5.2526091,"lng":-45.2803124},{"id":"9188092815","name":"Escola Municipal Antonio Amador","tags":"amenity:school","lat":-5.1058704,"lng":-45.0947692},{"id":"9194450943","name":"Ui Manoel Martins Jorge - Tres Lagoas Do Manduca","tags":"amenity:school","lat":-5.2346331,"lng":-45.3262794},{"id":"9194462931","name":"Centro De Ensino Ardaliao Americo Pires - Anexo Ii - Tres Lagoas Do Manduca","tags":"amenity:school","lat":-5.2352432,"lng":-45.3267895},{"id":"9194494615","name":"Ue Duque De Caxias - Cajueiro","tags":"amenity:school","lat":-5.1883611,"lng":-45.0873214},{"id":"9204946501","name":"Ue Salviano José De Maria - Povoado Desejo","tags":"amenity:school","lat":-5.1711961,"lng":-45.1467326},{"id":"9204955888","name":"Ui Martins Vieira - Lagoa Do Angico","tags":"amenity:school","lat":-5.2543302,"lng":-45.1544988},{"id":"9204960607","name":"Ui João Lopes Barbosa - Sumauma Da Mata","tags":"amenity:school","lat":-5.1452364,"lng":-45.1457321},{"id":"9204972688","name":"Creche Comunitaria Pingo De Gente","tags":"amenity:school","lat":-5.1021185,"lng":-45.0887851},{"id":"9204976156","name":"Unidade Escolar Francisco De Assis","tags":"amenity:school","lat":-5.1063785,"lng":-45.0778122},{"id":"9204985980","name":"Unidade Escolar Pedro Bezerra","tags":"amenity:school","lat":-5.1063707,"lng":-45.0774426},{"id":"9205013010","name":"Unidade Escolar Jose Rodrigues","tags":"amenity:school","lat":-5.1587902,"lng":-45.0040583},{"id":"9205013510","name":"Unidade Escolar Ditador Dutra","tags":"amenity:school","lat":-5.1052824,"lng":-45.0182374},{"id":"9221522817","name":"Ui Ademar Pereira De Sousa - Centro Do Barroso","tags":"amenity:school","lat":-5.1412434,"lng":-45.2347037},{"id":"9221523595","name":"Ui Rui Barbosa - Lagoa Do Socorro","tags":"amenity:school","lat":-5.1804549,"lng":-45.1964902}]