[{"id":"9038250139","name":"Ue Vila Eliete","tags":"amenity:school","lat":-4.4248067,"lng":-46.0967616},{"id":"9041420025","name":"Em Alto Parional","tags":"amenity:school","lat":-4.4902451,"lng":-46.0974728},{"id":"9041427863","name":"Unidade Escolar Joao Sabino","tags":"amenity:school","lat":-4.5018848,"lng":-46.0655518},{"id":"9137839715","name":"Em Airton Senna","tags":"amenity:school","lat":-4.547595,"lng":-46.3769263},{"id":"9137860063","name":"Em Chapada Santa Inacia","tags":"amenity:school","lat":-4.461712,"lng":-46.0804251},{"id":"9137862878","name":"Ue Assis Marreca","tags":"amenity:school","lat":-4.5461446,"lng":-46.168424},{"id":"9137869670","name":"Centro De Ensino Professor Valmir Da Paixao Santos - Anexo - Vi -Faisa","tags":"amenity:school","lat":-4.5457319,"lng":-46.1682346},{"id":"9170603151","name":"Em Brejo Parional","tags":"amenity:school","lat":-4.4056933,"lng":-46.1323581}]