[{"id":"9033313923","name":"Unidade Escolar São Raimundo","tags":"amenity:school","lat":-4.4543421,"lng":-45.5382027},{"id":"9040752706","name":"Escola Rural Santa Terezinha","tags":"amenity:school","lat":-4.3983749,"lng":-45.5006169},{"id":"9053504749","name":"Unidade Escolar Feliciano Alves Da Silvas","tags":"amenity:school","lat":-4.4493188,"lng":-45.374148},{"id":"9137925301","name":"Unidade Integrada Raimunda Ramos","tags":"amenity:school","lat":-4.470755,"lng":-45.5477167},{"id":"9137933767","name":"Ue Rural São Francisco","tags":"amenity:school","lat":-4.4049153,"lng":-45.5638214},{"id":"9137934797","name":"Unidade Integrada Sivirina Maris","tags":"amenity:school","lat":-4.5318768,"lng":-45.5953874},{"id":"9137944619","name":"Unidade Escolar José Moreira Farias","tags":"amenity:school","lat":-4.433155,"lng":-45.5113352},{"id":"9137944883","name":"Unidade Integrada Silva Santos","tags":"amenity:school","lat":-4.4723251,"lng":-45.5866875},{"id":"9137947743","name":"Ue Rural São Francisco","tags":"amenity:school","lat":-4.423859,"lng":-45.5814633},{"id":"9219286493","name":"UE Santa Rosa","tags":"amenity:school","lat":-4.4382264,"lng":-45.6899128},{"id":"9219498576","name":"Unidade Escolar Marcelino Gregorio","tags":"amenity:school","lat":-4.4485151,"lng":-45.4037311}]