[{"id":"9034769320","name":"U E Jose Luis Oliveira","tags":"amenity:school","lat":-4.5197692,"lng":-45.0089787},{"id":"9038195376","name":"Unidade Escolar José Francisco De Andrade","tags":"amenity:school","lat":-4.4125321,"lng":-45.1613249},{"id":"9038926884","name":"Unidade Escolar Pedro Pereira Da Silva","tags":"amenity:school","lat":-4.5493323,"lng":-45.2197762},{"id":"9038976720","name":"Ue Jose Nascimento Dos Santos","tags":"amenity:school","lat":-4.5655484,"lng":-45.1945017},{"id":"9040436958","name":"Unidade Escolar José Marques Duarte","tags":"amenity:school","lat":-4.4320223,"lng":-45.2057509},{"id":"9040900602","name":"Unidade Escolar Timoteo Costa Nunes","tags":"amenity:school","lat":-4.5053182,"lng":-45.1867475},{"id":"9041318095","name":"Ui Terezinha Meireles Sales","tags":"addr:city:Lago da Pedra,addr:postcode:65715-000,addr:street:Rua Humberto de Campos,addr:suburb:Centro,amenity:school","lat":-4.5690429,"lng":-45.1292999},{"id":"9056168122","name":"Unidade Integrada Venancio Gomes Rodrigues","tags":"amenity:school","lat":-4.4435881,"lng":-45.3308438},{"id":"9092648956","name":"Creche Municipal Professora Vanuza Fernandes Machado","tags":"amenity:school","lat":-4.5539244,"lng":-45.1345865},{"id":"9106390429","name":"UE Santa Tereza","tags":"amenity:school","lat":-4.4851763,"lng":-45.0732482},{"id":"9114093554","name":"Maternal Pingo De Mel","tags":"addr:city:Lago da Pedra,addr:postcode:65715-000,addr:street:Rua Euclides Pereira da Silva,amenity:school","lat":-4.5562599,"lng":-45.1269047},{"id":"9114100625","name":"Escolinha Piu-Piu","tags":"addr:city:Lago da Pedra,addr:housenumber:195,addr:postcode:65715-000,addr:street:Rua Mendes Fonseca,addr:suburb:Centro,amenity:school","lat":-4.5701391,"lng":-45.1291229},{"id":"9114380718","name":"Creche Vovo Raimundinha","tags":"addr:city:Lago da Pedra,addr:postcode:65715-000,addr:street:Rua Elizeu Soares de Oliveira,addr:suburb:Planalto,amenity:school","lat":-4.5582893,"lng":-45.1278086},{"id":"9114893628","name":"Ui Maria De Lourdes Silva Dias","tags":"amenity:school","lat":-4.5546951,"lng":-45.1337739},{"id":"9114925956","name":"Em São Vicente","tags":"amenity:school","lat":-4.5523001,"lng":-45.0943615},{"id":"9114930943","name":"Ue Hilario Rodrigues Sales","tags":"amenity:school","lat":-4.5279205,"lng":-45.1068284},{"id":"9114939631","name":"UI Ditador Artur Costa e Silva","tags":"amenity:school","lat":-4.5675393,"lng":-45.137423},{"id":"9114941628","name":"Ui Prof Maria Cesalpina C Brandao","tags":"amenity:school","lat":-4.5699596,"lng":-45.116531},{"id":"9115157307","name":"UI Lauro Aprigio do Nascimento","tags":"amenity:school","lat":-4.5664711,"lng":-45.1806016},{"id":"9115160938","name":"UE Antonio da Silva Barros","tags":"amenity:school","lat":-4.5687561,"lng":-45.1609504},{"id":"9115163734","name":"Unidade Escolar Francisco Aragão","tags":"amenity:school","lat":-4.5318272,"lng":-45.1741492},{"id":"9115165843","name":"Ue Francisco Kleber Lopes De Lima","tags":"amenity:school","lat":-4.5238883,"lng":-45.1633237},{"id":"9115169832","name":"Ui Raimunda Alves De Melo","tags":"amenity:school","lat":-4.523415,"lng":-45.1362468},{"id":"9155457848","name":"Unidade Escolar Benedito Correia Nascimento","tags":"amenity:school","lat":-4.5396187,"lng":-45.2669801},{"id":"9164924589","name":"Unidade Integrada Noberto Ribeiro","tags":"amenity:school","lat":-4.5539965,"lng":-45.2571379},{"id":"9202550798","name":"Escola Municipal Sao Francisco","tags":"amenity:school","lat":-4.4916074,"lng":-45.03065},{"id":"9219484333","name":"Unidade Integrada Nazeu Oliveira Souza","tags":"amenity:school","lat":-4.4441686,"lng":-45.2383844},{"id":"9219497362","name":"Unidade Escolar Cicero Fernandes Da Silva","tags":"amenity:school","lat":-4.4308802,"lng":-45.1754234},{"id":"9219497723","name":"Escola Municipal Cantinho Do Saber","tags":"amenity:school","lat":-4.468553,"lng":-45.3055654},{"id":"9219500328","name":"Unidade Escola São Jeronimo","tags":"amenity:school","lat":-4.4068865,"lng":-45.2691391},{"id":"9219501756","name":"Unidade Escolar Manoel Santana","tags":"amenity:school","lat":-4.4578288,"lng":-45.1293475},{"id":"9219514128","name":"Unidade Escolar Aprigio Angelo Da Silva","tags":"amenity:school","lat":-4.4428636,"lng":-45.2399488},{"id":"9219514972","name":"Escola Municipal São Bento","tags":"amenity:school","lat":-4.5394915,"lng":-45.3274696},{"id":"9219553132","name":"Unidade Escolar Valdemar Pereira Da Silva","tags":"amenity:school","lat":-4.4793253,"lng":-45.1765607},{"id":"9219649580","name":"Escola Familia Agricola Francisco Das Chagas Vieira - Paulo Ramos","tags":"amenity:school","lat":-4.4470521,"lng":-45.3006643},{"id":"9257042916","name":"Ue Paulo Alexandre Duarte","tags":"amenity:school","lat":-4.504143,"lng":-45.0577654},{"id":"9257076867","name":"Unidade Escolar Maria Alves De Sousa","tags":"amenity:school","lat":-4.4960062,"lng":-45.0428899},{"id":"9257078123","name":"Unidade Escolar Frei Solano","tags":"amenity:school","lat":-4.4530024,"lng":-45.05776},{"id":"9257088088","name":"Unidade Escolar Sebastiao Estevao Campos","tags":"amenity:school","lat":-4.4354921,"lng":-45.0319009},{"id":"9257091569","name":"Ui Alexandre Duarte","tags":"amenity:school","lat":-4.4856365,"lng":-45.0743414},{"id":"9257092289","name":"Unidade Escolar Vagno Vieira Melo","tags":"amenity:school","lat":-4.4789274,"lng":-45.0458135},{"id":"9257118226","name":"Ue Ze Mar Pereira","tags":"amenity:school","lat":-4.459963,"lng":-45.066091},{"id":"9257127642","name":"Unidade Escolar Eloi Pereira","tags":"amenity:school","lat":-4.421137,"lng":-45.0220867},{"id":"9257246159","name":"U E Joao Azevedo","tags":"amenity:school","lat":-4.548863,"lng":-45.0451697},{"id":"9257286108","name":"U E Joao Ribeiro Da Silva","tags":"amenity:school","lat":-4.568194,"lng":-45.0123905},{"id":"9257290636","name":"U E Antonio Gomes De Lima","tags":"amenity:school","lat":-4.5526464,"lng":-45.0119962},{"id":"9481690292","name":"CESLAP (UEMA)","tags":"amenity:university,operator:UEMA","lat":-4.5553561,"lng":-45.1251088}]