[{"id":"9035035761","name":"Unidade Integrada Matias Mendes De Oliveira","tags":"amenity:school","lat":-4.2890365,"lng":-45.2478811},{"id":"9039036524","name":"Escola Rural Duque De Caxias","tags":"amenity:school","lat":-4.2854678,"lng":-45.2016927},{"id":"9040845698","name":"Unidade Integrada Tancredo Neves","tags":"amenity:school","lat":-4.3327873,"lng":-45.1131235},{"id":"9041266811","name":"Jardim de Infância Pato Donald","tags":"amenity:school","lat":-4.3332687,"lng":-45.1142366},{"id":"9051714478","name":"Centro De Ensino Padre Joao Mohana","tags":"addr:city:Vitorino Freire,amenity:school","lat":-4.2872946,"lng":-45.2455066},{"id":"9095099298","name":"Jardim De Infancia Juarez De Carvalho","tags":"amenity:school","lat":-4.2619099,"lng":-45.2831809},{"id":"9101763547","name":"Unidade Integrada São Raimundo","tags":"amenity:school","lat":-4.2955581,"lng":-45.2467297},{"id":"9164963755","name":"Centro De Educacao Infantil Antonildes Santos Da Costa","tags":"amenity:school","lat":-4.2904605,"lng":-45.2398559},{"id":"9219413664","name":"Unidade Integrada Professor Carlos Oliveira Santos","tags":"amenity:school","lat":-4.2890234,"lng":-45.2466812},{"id":"9219421262","name":"Centro De Educacao Infantil Vovo Lili Maciel","tags":"amenity:school","lat":-4.2834263,"lng":-45.2432809},{"id":"9219422766","name":"Unidade Integrada Professor Carlos Oliveira Santos","tags":"amenity:school","lat":-4.2891786,"lng":-45.2463693},{"id":"9219422767","name":"Unidade Integrada Maria Tomasia","tags":"amenity:school","lat":-4.2892379,"lng":-45.2441611},{"id":"9219427337","name":"Unidade Escolar Raimunda Bandeira","tags":"amenity:school","lat":-4.2939648,"lng":-45.2459316},{"id":"9219443995","name":"Unidade Escolar Professora Leonice Cutrim Dos Santos","tags":"amenity:school","lat":-4.2876464,"lng":-45.2401649},{"id":"9219448903","name":"Unidade Escolar Professora Creusa Mesquita Sousa","tags":"amenity:school","lat":-4.2866797,"lng":-45.2546844},{"id":"9219453658","name":"Unidade Escolar Ulysses Guimaraes","tags":"amenity:school","lat":-4.2835836,"lng":-45.2430134},{"id":"9219459187","name":"Escola Rural Alexandre Guimaraes","tags":"amenity:school","lat":-4.3410479,"lng":-45.1605984},{"id":"9219465105","name":"Ui Newton Bello","tags":"amenity:school","lat":-4.2849946,"lng":-45.2507545},{"id":"9219465111","name":"Unidade Integrada Oseas Castro","tags":"amenity:school","lat":-4.2931602,"lng":-45.2383995},{"id":"9219467702","name":"Unidade Escolar Joaquina Noronha","tags":"amenity:school","lat":-4.3022621,"lng":-45.2484912},{"id":"9219474977","name":"Centro De Educacao Infantil Denys Henrique","tags":"amenity:school","lat":-4.2955302,"lng":-45.2509993},{"id":"9219481908","name":"Jardim De Infancia Vovo Leotina","tags":"amenity:school","lat":-4.2890494,"lng":-45.2507108},{"id":"9219487956","name":"Efa - Escola Familia Agricola Nossa Senhora De Fatima - Uaefama","tags":"amenity:school","lat":-4.3078784,"lng":-45.2385048},{"id":"9219489262","name":"Colegio Antonio Dino","tags":"amenity:school","lat":-4.2853985,"lng":-45.2525043},{"id":"9219501849","name":"Escola Rural Humberto De Campos","tags":"amenity:school","lat":-4.2616768,"lng":-45.2824848},{"id":"9219503068","name":"Escola Rural Odivio Da Silva Rezende","tags":"amenity:school","lat":-4.3761324,"lng":-45.3383708},{"id":"9219503071","name":"Unidade Escolar José Gregorio Romeu","tags":"amenity:school","lat":-4.2480912,"lng":-45.0748313},{"id":"9219512296","name":"Escola Rural Nossa Senhora Das Gracas","tags":"amenity:school","lat":-4.3687668,"lng":-45.2762067},{"id":"9219674222","name":"Escola Rural Conrado Eloi","tags":"amenity:school","lat":-4.2945039,"lng":-45.2875534},{"id":"9219678482","name":"Escola Rural Jose Bonifacio","tags":"amenity:school","lat":-4.2587158,"lng":-45.1583911},{"id":"9219690745","name":"Unidade Escolar Centro Dos Caianos","tags":"amenity:school","lat":-4.2270212,"lng":-45.0629377},{"id":"9257083112","name":"Unidade Escolar Francisco Arraes De Morais","tags":"amenity:school","lat":-4.3788642,"lng":-45.0876291},{"id":"9257118853","name":"Unidade Escolar São Francisco","tags":"amenity:school","lat":-4.3939101,"lng":-45.0992404},{"id":"9257121242","name":"Unidade Escolar Carlos Dias Sardinha","tags":"amenity:school","lat":-4.3726757,"lng":-45.0320376},{"id":"9257204726","name":"Unidade Escolar Santa Luzia","tags":"amenity:school","lat":-4.3801961,"lng":-45.0790353}]