[{"id":"7367841904","tags":"amenity:hospital","lat":-4.0391897,"lng":-45.2372253},{"id":"9035631579","name":"UE José Alencar","tags":"amenity:school","lat":-3.9023174,"lng":-45.0869451},{"id":"9035879467","name":"Escola Municipal Tia Santoca","tags":"amenity:school","lat":-4.0117475,"lng":-45.0663297},{"id":"9039038449","name":"Escola Municipal Jucaralzinho","tags":"amenity:school","lat":-3.9051178,"lng":-45.3000279},{"id":"9040765176","name":"Escola Municipal Dom Pedro I","tags":"amenity:school","lat":-3.9917429,"lng":-45.1705308},{"id":"9040845689","name":"Em O Pescador","tags":"addr:city:Pio XII,addr:postcode:65707-000,addr:street:Rua Um,addr:suburb:Vila Batalha,amenity:school","lat":-3.8809561,"lng":-45.1652308},{"id":"9106390228","name":"UE Nossa Senhora do Perpetuo Socorro","tags":"amenity:school","lat":-3.8938211,"lng":-45.1707079},{"id":"9110870880","tags":"amenity:school","lat":-3.8744251,"lng":-45.0786678},{"id":"9155461415","name":"Escola Municipal José Antônio Azevedo","tags":"amenity:school","lat":-4.0119795,"lng":-45.1135146},{"id":"9156315544","name":"Em Ester Figueredo","tags":"amenity:school","lat":-3.8789865,"lng":-45.095508},{"id":"9202519090","name":"Em Rosa De Saron","tags":"amenity:school","lat":-3.8900278,"lng":-45.1742386},{"id":"9216681455","name":"Escola Rural Santa Terezinha","tags":"amenity:school","lat":-3.8994537,"lng":-45.3482952},{"id":"9216982235","name":"Escola Municipal Professora Raimunda Carvalho","tags":"amenity:school","lat":-3.9352712,"lng":-45.2859477},{"id":"9216990943","name":"Escola Municipal Deputado Bete Lago","tags":"amenity:school","lat":-3.9428011,"lng":-45.2993937},{"id":"9216993786","name":"Escola Municipal Professora Geralda Aparecida","tags":"amenity:school","lat":-4.036566,"lng":-45.2331677},{"id":"9217000928","name":"Escola Municipal Elias Jorge Fahd","tags":"amenity:school","lat":-3.9607749,"lng":-45.2900674},{"id":"9217004827","name":"Escola Municipal Professora Raimunda Ramos","tags":"addr:city:Satubinha,addr:postcode:65709-000,addr:street:Avenida Matos Carvalho,addr:suburb:Centro,amenity:school","lat":-4.0395565,"lng":-45.2359243},{"id":"9217008464","name":"Escola Municipal Leda Tajra","tags":"amenity:school","lat":-4.0083669,"lng":-45.2623165},{"id":"9217014065","name":"Escola Municipal Coronel Pedro Goncalves","tags":"amenity:school","lat":-3.9868213,"lng":-45.2653128},{"id":"9217014066","name":"Escola Municipal São Raimundo","tags":"amenity:school","lat":-4.0313669,"lng":-45.1891376},{"id":"9217015928","name":"Associacao De Pais E Amigos Dos Excepcionais De Satubinha","tags":"amenity:school","lat":-4.0422005,"lng":-45.2361723},{"id":"9219697311","name":"Unidade Escolar Municipal Professor Sergio Carlos De Lima","tags":"amenity:school","lat":-4.0193384,"lng":-45.06597},{"id":"9219708398","name":"Ue Jose Henrique Da Costa","tags":"amenity:school","lat":-4.0207898,"lng":-45.0104105},{"id":"9219710280","name":"Escola Municipal Argemira Bastos","tags":"amenity:school","lat":-4.0163896,"lng":-45.0660278},{"id":"9221987646","name":"Ue Bom Menino","tags":"amenity:school","lat":-3.8906049,"lng":-45.1724713},{"id":"9221992429","name":"Escola Municipal Coronel Pedro Goncalves","tags":"amenity:school","lat":-3.9210605,"lng":-45.2645023},{"id":"9222018784","name":"Ue Raimundo Rodrigues Batalha","tags":"amenity:school","lat":-3.9081217,"lng":-45.1897374},{"id":"9222032394","name":"Ue Francisco Neres Portela","tags":"amenity:school","lat":-3.9003726,"lng":-45.0710038},{"id":"9222040804","name":"Ue Deputado Miguel Bahury","tags":"amenity:school","lat":-3.8894243,"lng":-45.1697952},{"id":"9222044761","name":"Ce Rodrigo Silva","tags":"amenity:school","lat":-3.8845855,"lng":-45.1698296},{"id":"9222053706","name":"Em São Cristovao","tags":"amenity:school","lat":-3.8784659,"lng":-45.0247128},{"id":"9222053751","name":"Jardim De Infancia Nossa Senhora Do Carmo","tags":"amenity:school","lat":-3.887636,"lng":-45.1740018},{"id":"9222056691","name":"Escola Municipal Raimundo Leal","tags":"amenity:school","lat":-3.9412443,"lng":-45.0709882},{"id":"9222058585","name":"Esc A Nova Pre-Escola","tags":"amenity:school","lat":-3.895466,"lng":-45.1678849},{"id":"9222069527","name":"Ue Dr Emilio Faray","tags":"amenity:school","lat":-3.8964243,"lng":-45.0743885},{"id":"9222070732","name":"Unidade Escolar Itamar Franco","tags":"amenity:school","lat":-3.9125023,"lng":-45.113064},{"id":"9222070733","name":"Ue Itamar Bastos","tags":"amenity:school","lat":-3.9234464,"lng":-45.1204862},{"id":"9222078661","name":"E M Centro Do Doca","tags":"amenity:school","lat":-3.8945087,"lng":-45.0642395},{"id":"9227056047","name":"Escola Municipal Manoel Furtado","tags":"amenity:school","lat":-4.042779,"lng":-45.2918525}]