[{"id":"1581631176","name":"Supermercado Mateus","tags":"shop:supermarket","lat":-1.5188007,"lng":-48.6893304},{"id":"2544976660","name":"Supermercado Lider","tags":"shop:supermarket","lat":-1.5129899,"lng":-48.6904681},{"id":"2544988238","tags":"leisure:stadium","lat":-1.5137467,"lng":-48.6091527},{"id":"2547921874","name":"SENAI","tags":"amenity:school","lat":-1.5190049,"lng":-48.7061173},{"id":"2547934127","name":"Cabana Clube","tags":"leisure:sports_centre","lat":-1.5196325,"lng":-48.6855679},{"id":"2547948852","name":"Correios","tags":"amenity:post_office","lat":-1.5056989,"lng":-48.6254714},{"id":"2547969796","tags":"amenity:hospital","lat":-1.5050653,"lng":-48.6228307},{"id":"2548098423","name":"Escola Santa Sofia","tags":"amenity:school","lat":-1.509379,"lng":-48.6280564},{"id":"2548098424","name":"Escola Tio Patinhas","tags":"amenity:school","lat":-1.5046909,"lng":-48.6235797},{"id":"2548098455","name":"Praça da Bíblia","tags":"leisure:park","lat":-1.5069832,"lng":-48.6188197},{"id":"2548607430","name":"Escola Alegria de Viver","tags":"amenity:school","lat":-1.5144612,"lng":-48.6181424},{"id":"2548678140","name":"Escola Bem-Me-Quer","tags":"amenity:school","lat":-1.5042911,"lng":-48.6212855},{"id":"2548678155","tags":"amenity:hospital","lat":-1.518871,"lng":-48.6158749},{"id":"2548724834","name":"Supermercado Serve Bem","tags":"shop:supermarket","lat":-1.504358,"lng":-48.6247203},{"id":"2548724838","tags":"amenity:bus_station","lat":-1.5029473,"lng":-48.6248042},{"id":"2548724841","name":"Escola Professor Aloísio Costa Chaves","tags":"amenity:school","lat":-1.5099774,"lng":-48.6131787},{"id":"2548724848","tags":"amenity:grave_yard","lat":-1.5088637,"lng":-48.6111003},{"id":"2548724852","name":"Escola Palmira Gabriel","tags":"amenity:school","lat":-1.5180302,"lng":-48.6151649},{"id":"2548724857","name":"Escola Jose Maria de Moraes","tags":"amenity:school","lat":-1.5137979,"lng":-48.6146047},{"id":"2548724859","name":"Escola Checralla Salim Khayat","tags":"amenity:school","lat":-1.5221487,"lng":-48.6212722},{"id":"2548948277","name":"supermercado","tags":"shop:supermarket","lat":-1.5084911,"lng":-48.6191827},{"id":"2549216541","name":"Escola Maria Cecilia","tags":"amenity:school","lat":-1.5087908,"lng":-48.6204984},{"id":"2549216542","name":"Polícia","tags":"amenity:police","lat":-1.5144891,"lng":-48.6221314},{"id":"2550058133","name":"Escola Laurival Cunha","tags":"amenity:school","lat":-1.5174102,"lng":-48.6876504},{"id":"2550058134","name":"Núcleo de Ensino Profissionalizante da Amazônia","tags":"amenity:school,short_name:NEPAM","lat":-1.5189914,"lng":-48.6870177},{"id":"2550060775","name":"Quadra de Esportes","tags":"leisure:sports_centre","lat":-1.5166546,"lng":-48.6868937},{"id":"2550060776","tags":"amenity:school","lat":-1.5281012,"lng":-48.6875886},{"id":"2550077917","name":"Escola Bem-Me-Quer","tags":"amenity:school","lat":-1.5051886,"lng":-48.6246128},{"id":"2550688005","name":"Supermercado Moraes","tags":"shop:supermarket","lat":-1.5058874,"lng":-48.6262859},{"id":"2550688011","name":"Supermercado São Francisco","tags":"shop:supermarket","lat":-1.5050294,"lng":-48.6257173},{"id":"2550688014","name":"Supermercado Paraense","tags":"shop:supermarket","lat":-1.5032919,"lng":-48.6244727},{"id":"2550699142","tags":"amenity:school","lat":-1.509694,"lng":-48.6172721},{"id":"2550699152","tags":"amenity:school","lat":-1.5088849,"lng":-48.6095122},{"id":"2550815951","name":"Bar do Cantão","tags":"amenity:bar","lat":-1.5064184,"lng":-48.6220318},{"id":"2552613235","name":"Bradesco","tags":"amenity:bank","lat":-1.5303405,"lng":-48.6880007},{"id":"2552685310","name":"Farmácia do Trabalhador","tags":"amenity:pharmacy","lat":-1.5196823,"lng":-48.6900998},{"id":"2552685314","name":"Microlins","tags":"amenity:school","lat":-1.5192949,"lng":-48.6901551},{"id":"3517795107","name":"Hospital São José","tags":"amenity:hospital","lat":-1.518289,"lng":-48.698058},{"id":"3528469181","name":"Escola Dom Ângelo Frosi","tags":"amenity:school","lat":-1.5133594,"lng":-48.6872163},{"id":"3528485437","name":"Banco do Brasil","tags":"amenity:bank,opening_hours:Mo-Fr 10:00-15:00; Sa,Su,PH off","lat":-1.5162703,"lng":-48.6982371},{"id":"3528488197","name":"Caixa Eletrônico Bradesco","tags":"amenity:atm","lat":-1.5149771,"lng":-48.6969162},{"id":"3528489718","name":"Caixa Eletrônico Bradesco","tags":"amenity:atm","lat":-1.5152428,"lng":-48.6983772},{"id":"3528518585","name":"Itaú","tags":"amenity:bank,atm:yes,opening_hours:Mo-Fr 10:00-15:00; Sa,Su,PH off","lat":-1.5163523,"lng":-48.6977217},{"id":"3528521503","name":"Farmácia Big Ben","tags":"amenity:pharmacy","lat":-1.5192303,"lng":-48.6879353},{"id":"3528527096","name":"Caixa Econômica Federal","tags":"amenity:bank,atm:yes,opening_hours:Mo-Fr 10:00-15:00; Sa,Su,PH off","lat":-1.5182126,"lng":-48.6974321},{"id":"3533804593","name":"Supermercado Real","tags":"shop:supermarket","lat":-1.517018,"lng":-48.6976315},{"id":"5371467781","name":"Fiscal modelar","tags":"amenity:police","lat":-1.5050473,"lng":-48.6248479},{"id":"5372387146","name":"Fiscal Tucano","tags":"amenity:police","lat":-1.516216,"lng":-48.6145984},{"id":"5372400014","name":"Fiscal Caite","tags":"amenity:police","lat":-1.5278769,"lng":-48.6231162},{"id":"5372411486","name":"Fiscal conde","tags":"amenity:police,operator:cooperativa cobarta","lat":-1.5646915,"lng":-48.7609363},{"id":"5376151737","name":"Fiscal Magnos","tags":"amenity:police","lat":-1.5200769,"lng":-48.6976805},{"id":"5907227706","tags":"amenity:hospital","lat":-1.5322458,"lng":-48.6816234},{"id":"6255712872","name":"EMEIF Vereador Genaro Apollar","tags":"addr:city:Vila dos Cabanos,addr:housenumber:s/n,addr:postcode:68447000,addr:street:Travessa Minas Gerais,addr:suburb:Renascer com Cristo,amenity:school,operator:Prefeitura de Barcarena","lat":-1.5021217,"lng":-48.6950215},{"id":"6650883125","name":"cooperativa cootransbar","tags":"amenity:bus_station,bus:yes,public_transport:station","lat":-1.5112636,"lng":-48.6141185},{"id":"6650886581","name":"Cooperativa Cobarta","tags":"amenity:bus_station,bus:yes,public_transport:station","lat":-1.5109767,"lng":-48.6070696},{"id":"6650943369","name":"Fiscal Lider","tags":"amenity:police","lat":-1.5125412,"lng":-48.6906768},{"id":"6650967268","name":"Fiscal Unip","tags":"amenity:police","lat":-1.515378,"lng":-48.7051125},{"id":"7787467671","name":"Terminal Rodoviário","tags":"addr:city:Barcarena,addr:state:PA,amenity:bus_station,public_transport:station","lat":-1.5289742,"lng":-48.6873891},{"id":"9823323086","name":"Tempero de Família","tags":"amenity:restaurant","lat":-1.5117069,"lng":-48.6192478}]