[{"id":"9033211674","name":"CEF Pedro Neiva de Santana","tags":"amenity:school","lat":-2.2929781,"lng":-45.1445134},{"id":"9036307057","name":"EM Maria Costa","tags":"amenity:school","lat":-2.4263223,"lng":-45.2804082},{"id":"9039017302","name":"Em Terezinha Leite","tags":"amenity:school","lat":-2.3020381,"lng":-45.0271346},{"id":"9040895236","name":"Em Nhazinha Palavra","tags":"amenity:school","lat":-2.3366933,"lng":-45.0360261},{"id":"9056731749","name":"Em Matias Santos","tags":"amenity:school","lat":-2.3926153,"lng":-45.201218},{"id":"9056756854","name":"Em Camilo Leles Soares","tags":"amenity:school","lat":-2.3971067,"lng":-45.169246},{"id":"9188141191","name":"Em Felipe Neres Monteiro","tags":"amenity:school","lat":-2.4228626,"lng":-45.3193854},{"id":"9241519360","name":"Ue Elizabeto Moreira","tags":"amenity:school","lat":-2.4584836,"lng":-45.3098072},{"id":"9338148840","name":"Em Sinhazinha Ferreira","tags":"amenity:school","lat":-2.4352768,"lng":-45.1512082},{"id":"9338155245","name":"Em Antônio Caninde Dos Santos","tags":"amenity:school","lat":-2.3448364,"lng":-45.0995488},{"id":"9338166633","name":"Ue João Manoel Ribeiro","tags":"amenity:school","lat":-2.3515416,"lng":-45.0293984},{"id":"9338167444","name":"Em Domingos Andrade Brito","tags":"amenity:school","lat":-2.3883395,"lng":-45.1284631},{"id":"9338168310","name":"Em Luis Gonzaga","tags":"amenity:school","lat":-2.3554088,"lng":-45.1324864},{"id":"9338168357","name":"Em De Nova Jerusalem","tags":"amenity:school","lat":-2.4051986,"lng":-45.0056045},{"id":"9338175167","name":"Em Francisco Dorotheo Da Silva","tags":"amenity:school","lat":-2.3234555,"lng":-45.0164674},{"id":"9338176762","name":"Em José Gabriel Ferreira","tags":"amenity:school","lat":-2.3766016,"lng":-45.0179105},{"id":"9338181155","name":"Em Batuba","tags":"amenity:school","lat":-2.2881272,"lng":-45.0952761},{"id":"9338182111","name":"Ue João Batista Pinheiro","tags":"amenity:school","lat":-2.3083643,"lng":-45.0938492},{"id":"9338182563","name":"Em Des Sarney Costa","tags":"amenity:school","lat":-2.4555385,"lng":-45.1684736},{"id":"9338187540","name":"Em Joaquim Cunha Neto Guterres","tags":"amenity:school","lat":-2.2861279,"lng":-45.0536536},{"id":"9338191141","name":"Em Rio Dos Peixes","tags":"amenity:school","lat":-2.3055208,"lng":-45.112917},{"id":"9338191176","name":"Em Ver Lourenco Farias","tags":"amenity:school","lat":-2.4315975,"lng":-45.1640318},{"id":"9338195042","name":"Colegio Romualdo Ferreira","tags":"amenity:school","lat":-2.422931,"lng":-45.1467101},{"id":"9342256743","name":"Cef Palmerio Martins","tags":"amenity:school","lat":-2.3839231,"lng":-45.2758451},{"id":"9342256744","name":"Em Jorzino Farias","tags":"amenity:school","lat":-2.3934608,"lng":-45.232227},{"id":"9342283564","name":"Cef Sebastiao Torres Froes","tags":"amenity:school","lat":-2.3568828,"lng":-45.255589},{"id":"9342294947","name":"Cef Ludigero Dias","tags":"amenity:school","lat":-2.414251,"lng":-45.3478704},{"id":"9344883871","name":"Centro De Ensino Deputado Luis Rocha - Anexo I - Queimadas","tags":"amenity:school","lat":-2.3085974,"lng":-45.2696411},{"id":"9344883897","name":"Cef Jorge Camilo Weba","tags":"amenity:school","lat":-2.3137994,"lng":-45.3073289},{"id":"9344884939","name":"Creche Distrito De Queimadas","tags":"amenity:school","lat":-2.3113632,"lng":-45.2699737},{"id":"9344893891","name":"Cef Maria Raimunda Lopes Espindola","tags":"amenity:school","lat":-2.2877091,"lng":-45.2717708},{"id":"9344895659","name":"Cef Kiola Costa Sarney","tags":"amenity:school","lat":-2.3066598,"lng":-45.272318},{"id":"9344896374","name":"Cef Maria Amalia Martins Reis","tags":"amenity:school","lat":-2.3029345,"lng":-45.273238},{"id":"9344913781","name":"Cef General Anacleto","tags":"amenity:school","lat":-2.3199822,"lng":-45.1871713},{"id":"9344920870","name":"Em Fausta Barbosa De Carvalho","tags":"amenity:school","lat":-2.4121206,"lng":-45.2475022},{"id":"9344943419","name":"Em Profª Elvira Pereira","tags":"amenity:school","lat":-2.4451277,"lng":-45.0128035},{"id":"9344943880","name":"Em João Raimundo Nunes","tags":"amenity:school","lat":-2.445401,"lng":-45.0937553},{"id":"9344951735","name":"Ue Major Jacinto Guterres","tags":"amenity:school","lat":-2.3705477,"lng":-45.0605898}]