[{"id":"9023437202","name":"Unidade Escola Raimunda Torres","tags":"addr:city:Amapá do Maranhão,addr:postcode:65293-000,addr:street:Rua São Pedro,addr:suburb:Centro,amenity:school,phone:+55 98 9 8348 6582","lat":-1.6768992,"lng":-46.0117218},{"id":"9023635511","name":"Unidade Escola Nossa Senhora Aparecida","tags":"addr:city:Amapá do Maranhão,addr:postcode:65293-000,amenity:school","lat":-1.6233398,"lng":-45.9930263},{"id":"9023835361","name":"Unidade Escola Tancredo Neves","tags":"addr:city:Amapá do Maranhão,addr:postcode:65293-000,addr:suburb:Formiga,amenity:school,phone:+55 98 9 8434 3359","lat":-1.6067177,"lng":-45.8374304},{"id":"9024668339","name":"Instituto de Ensino Pequeno Polegar","tags":"addr:city:Amapá do Maranhão,addr:housenumber:16,addr:postcode:65293-000,addr:street:Rua Treze de Maio,addr:suburb:Centro,amenity:school,phone:+55 98 9 8175 6238","lat":-1.6757641,"lng":-46.0117627},{"id":"9025191554","name":"Unidade Escola Professora Doraci Gomes De Sousa","tags":"addr:city:Amapá do Maranhão,addr:postcode:65293-000,amenity:school","lat":-1.7064286,"lng":-45.9529484},{"id":"9025279879","name":"Unidade Escola Professora Raimunda Borges Silva","tags":"addr:city:Amapá do Maranhão,addr:postcode:65293-000,addr:street:Rodovia MA-206,addr:suburb:Bela Vista,amenity:school,phone:+55 98 9 8440 7620","lat":-1.607747,"lng":-45.9965742},{"id":"9025286335","name":"Anexo I - Ce Prof Maria Do Socorro Mendonca Da Silva","tags":"addr:city:Amapá do Maranhão,addr:postcode:65293-000,addr:street:Rua Barão do Rio Branco,addr:suburb:Centro,amenity:school,phone:+55 98 9 8181 5929","lat":-1.6741186,"lng":-46.0110413},{"id":"9025383226","name":"Unidade Escola Alfredo Barroso","tags":"addr:city:Amapá do Maranhão,addr:postcode:65293-000,addr:suburb:Vila Nova,amenity:school","lat":-1.5925653,"lng":-45.883549},{"id":"9025575904","name":"Centro De Ensino João Teixeira Sousa - Anexo Ii - 21 De Abril","tags":"amenity:school","lat":-1.6776389,"lng":-46.0210003},{"id":"9193960766","name":"EM Rui Barbosa","tags":"amenity:school","lat":-1.633936,"lng":-46.0380682},{"id":"9193997637","name":"UI Floriano Peixoto","tags":"amenity:school","lat":-1.7493672,"lng":-46.0513288},{"id":"9204860300","name":"Unidade Escolar Nova Esperança","tags":"amenity:school","lat":-1.6842181,"lng":-45.8269671},{"id":"9204870605","name":"EM João Felix","tags":"amenity:school","lat":-1.6632859,"lng":-45.7988981}]