[{"id":"268882989","tags":"shop:supermarket","lat":-1.025283,"lng":-46.6402128},{"id":"420725203","name":"Escola Emanoel Costa Neves","tags":"amenity:school","lat":-1.0536201,"lng":-46.644547},{"id":"5324598124","name":"Delegacia de Augusto correa","tags":"amenity:police","lat":-1.0253309,"lng":-46.6393441},{"id":"5324613621","name":"Delegacia de Augusto correa","tags":"amenity:police,name:en:Delegacia","lat":-1.0252432,"lng":-46.639258},{"id":"5325328221","name":"Orla de Augusto Corrêa","tags":"tourism:attraction","lat":-1.0240824,"lng":-46.635408},{"id":"5345565124","name":"Merc. BRANCO","tags":"shop:supermarket","lat":-1.0235457,"lng":-46.63959},{"id":"7230665689","name":"EMEF ROSA MARIA GONÇALVES DA COSTA","tags":"amenity:school","lat":-1.0290709,"lng":-46.690384},{"id":"7230665690","name":"EEEFM GERMANO GARCIA","tags":"amenity:school","lat":-0.9925134,"lng":-46.6718189},{"id":"7230665691","name":"EMEIF QUIRINO CRISTIANO FURTADO","tags":"amenity:school","lat":-1.0155552,"lng":-46.6712131},{"id":"7230665692","name":"Entrada para o Eldorado","tags":"amenity:school","lat":-1.0217939,"lng":-46.6842017},{"id":"7230730697","name":"EMEIF MARIA HELENA SANTOS DE AVIZ","tags":"amenity:school,wheelchair:yes","lat":-1.0299937,"lng":-46.7528967},{"id":"7230730787","name":"EMEF VIRGÍLIO FERNANDES MIRANDA","tags":"amenity:school","lat":-1.0062832,"lng":-46.6835243},{"id":"7230730788","name":"EMEF LUCIA DE FÁTIMA","tags":"amenity:school","lat":-0.9939329,"lng":-46.6755565},{"id":"7230730811","name":"EMEF GUILHERMINA PINHEIRO PORTO","tags":"amenity:school","lat":-1.0522062,"lng":-46.7448157},{"id":"7230730812","name":"EMEF MARIA MACHADO CARDOSO","tags":"amenity:school","lat":-1.017021,"lng":-46.7283484},{"id":"7230731299","name":"EMEIF PADRE ÂNGELO MARIA ABENI","tags":"amenity:school","lat":-0.9975349,"lng":-46.724657},{"id":"7230731300","name":"EEEFM ALBINO CARDOSO","tags":"amenity:school","lat":-0.9929341,"lng":-46.7228749},{"id":"7230731301","name":"EMEIF ESMAELINO DA SILVA MATOS","tags":"amenity:school,wheelchair:yes","lat":-1.0230334,"lng":-46.7187867},{"id":"7230731315","name":"EMEIF MARIA AUGUSTA CORREIA DA SILVA","tags":"amenity:school","lat":-0.9447133,"lng":-46.7513803},{"id":"7230731316","name":"EMEIF YOLANDA PEREIRA DA SILVA","tags":"amenity:school","lat":-0.9668068,"lng":-46.7480918},{"id":"9032909290","name":"Centro de Augusto Corrêa","tags":"leisure:park","lat":-1.0238542,"lng":-46.6372129}]