[{"id":"345840585","name":"Restaurante do Nicolau","tags":"amenity:restaurant","lat":-0.6222537,"lng":-47.3653546},{"id":"1042079685","name":"Aeroporto de Salinópolis","tags":"aerodrome:type:public,aeroway:aerodrome,anac:432/1999,anac:link:http://pergamum.anac.gov.br/arquivos/PD1999-0432.pdf,icao:SNSM","lat":-0.6966527,"lng":-47.3375795},{"id":"3677011427","name":"Terminal Rodoviário Engenheiro Luiz Alves","tags":"amenity:bus_station","lat":-0.6202352,"lng":-47.3492922},{"id":"3677011428","name":"Y. Yamada","tags":"shop:supermarket","lat":-0.6188404,"lng":-47.3507928},{"id":"4958532823","tags":"amenity:bar","lat":-0.5965065,"lng":-47.3041559},{"id":"4958813824","name":"Extrafarma","tags":"amenity:pharmacy,drive_through:no","lat":-0.6240066,"lng":-47.3450566},{"id":"4958830722","name":"Big Ben Sal","tags":"amenity:pharmacy","lat":-0.6239482,"lng":-47.3451264},{"id":"6013354256","tags":"amenity:police,police:traffic_police","lat":-0.682798,"lng":-47.3088548},{"id":"6919056825","tags":"amenity:restaurant","lat":-0.6508935,"lng":-47.2619914},{"id":"7179470385","name":"Café da Ruth","tags":"amenity:restaurant","lat":-0.5968343,"lng":-47.3131123},{"id":"9707936371","name":"Lider Salinopolis","tags":"addr:city:salinopolis,addr:postcode:68721000,addr:street:Avenida Doutor Miguel Santa Brígida,internet_access:wlan,opening_hours:24/7,opening_hours:covid19:open,operator:Grupo Lider,payment:american_express:yes,payment:cards:yes,payment:credit_cards:yes,payment:debit_cards:yes,payment:diners_club:yes,payment:discover_card:yes,payment:maestro:yes,payment:mastercard:yes,payment:pix:yes,payment:visa:yes,payment:visa_debit:yes,payment:visa_electron:yes,phone:+55 91 4008-1042,shop:supermarket,stroller:yes,website:https://maislider.com,wheelchair:yes","lat":-0.6283599,"lng":-47.3413087}]