[{"id":"883432957","name":"Rodoviária do Povo de Maricá","tags":"amenity:bus_station,bus:yes,name:en:Maricá Bus Station,name:pt:Rodoviária de Maricá,public_transport:station,wheelchair:no","lat":-22.9163873,"lng":-42.8154779},{"id":"953532055","name":"Churrascaria Maminha de Ouro","tags":"amenity:restaurant,cuisine:barbecue,wheelchair:limited","lat":-22.9076689,"lng":-42.8221187},{"id":"2752505411","name":"Supermercado Gomes","tags":"shop:supermarket","lat":-22.8621887,"lng":-42.6004638},{"id":"2752505482","name":"lava jato","tags":"amenity:car_wash","lat":-22.9323783,"lng":-42.8886732},{"id":"2752505858","tags":"amenity:restaurant","lat":-22.902919,"lng":-42.7983725},{"id":"2938331170","name":"Polícia Rodoviária Militar","tags":"amenity:police,operator:Policia do Estado do Rio de Janeiro,police:traffic_police","lat":-22.8989918,"lng":-42.6773401},{"id":"3339965293","name":"Frutos do Mar","tags":"amenity:restaurant","lat":-22.9488129,"lng":-42.82268},{"id":"4091109372","name":"Super Market","tags":"shop:supermarket","lat":-22.9140444,"lng":-42.820584},{"id":"4091227809","name":"Bradesco","tags":"amenity:bank,brand:Bradesco,brand:wikidata:Q806181,brand:wikipedia:en:Banco Bradesco","lat":-22.9169179,"lng":-42.8179683},{"id":"4091227810","name":"Itaú","tags":"amenity:bank,atm:yes,brand:Itaú Unibanco,brand:wikidata:Q1424293,brand:wikipedia:pt:Itaú Unibanco,drive_through:no","lat":-22.9171542,"lng":-42.8174105},{"id":"4091227811","name":"Banco do Brasil","tags":"amenity:bank,brand:Banco do Brasil,brand:wikidata:Q610817,brand:wikipedia:en:Banco do Brasil","lat":-22.9179174,"lng":-42.8178006},{"id":"4091227813","name":"Santander","tags":"amenity:bank,brand:Santander,brand:wikidata:Q5835668,brand:wikipedia:en:Santander Bank","lat":-22.9184332,"lng":-42.8179107},{"id":"4091227814","name":"Correios","tags":"amenity:post_office,brand:Correios,brand:wikidata:Q3375004,brand:wikipedia:en:Correios","lat":-22.9186345,"lng":-42.817928},{"id":"4091246031","name":"Terminal de Vans","tags":"amenity:bus_station,bus:yes,public_transport:station","lat":-22.9166679,"lng":-42.8153882},{"id":"4091289483","name":"Boate Maria do Céu","tags":"amenity:nightclub","lat":-22.9168618,"lng":-42.8092426},{"id":"4091321682","name":"Caixa","tags":"amenity:bank,brand:Caixa Econômica Federal,brand:wikidata:Q835283,brand:wikipedia:pt:Caixa Econômica Federal","lat":-22.9163984,"lng":-42.8165877},{"id":"4091409804","name":"Terminal de Vans","tags":"amenity:bus_station,bus:yes,public_transport:station","lat":-22.9160907,"lng":-42.8201562},{"id":"4092205806","name":"Agropecuária Araken","tags":"shop:pet","lat":-22.9235164,"lng":-42.8168857},{"id":"4094269676","name":"Bonanza Supermercado","tags":"shop:supermarket","lat":-22.9066981,"lng":-42.8034981},{"id":"4094421482","name":"Beco do Chopp","tags":"amenity:restaurant","lat":-22.9163805,"lng":-42.8195828},{"id":"4094545740","tags":"amenity:parking","lat":-22.9169658,"lng":-42.8194514},{"id":"4094545741","tags":"amenity:parking","lat":-22.9172267,"lng":-42.8184458},{"id":"4094545742","name":"Varandão Restaurante","tags":"amenity:restaurant","lat":-22.9166751,"lng":-42.8185979},{"id":"4094545743","name":"Caixa","tags":"amenity:bank,brand:Caixa Econômica Federal,brand:wikidata:Q835283,brand:wikipedia:pt:Caixa Econômica Federal","lat":-22.9164598,"lng":-42.8176466},{"id":"4094545744","name":"Princesa Supermercados","tags":"shop:supermarket","lat":-22.9167148,"lng":-42.8175509},{"id":"4094545745","tags":"amenity:parking","lat":-22.9165071,"lng":-42.8180451},{"id":"4094605709","name":"Jangada Restaurante","tags":"amenity:restaurant","lat":-22.9253502,"lng":-42.8278815},{"id":"4094605718","name":"Restaurante do Alexandre","tags":"amenity:restaurant","lat":-22.9413448,"lng":-42.8291689},{"id":"4095454884","name":"Posto Policial","tags":"amenity:police","lat":-22.9334226,"lng":-42.8901605},{"id":"4096444358","name":"Sublimes Supermercados","tags":"shop:supermarket","lat":-22.9257412,"lng":-42.813669},{"id":"4096450702","name":"Itaú","tags":"amenity:bank,brand:Itaú Unibanco,brand:wikidata:Q1424293,brand:wikipedia:pt:Itaú Unibanco","lat":-22.9205774,"lng":-42.8177346},{"id":"4096456973","name":"Mega Cheff Restaurante","tags":"amenity:restaurant","lat":-22.9194952,"lng":-42.8180172},{"id":"4098370543","tags":"amenity:pharmacy,healthcare:pharmacy","lat":-22.921781,"lng":-42.8176259},{"id":"4098370544","tags":"amenity:pharmacy,healthcare:pharmacy","lat":-22.9200468,"lng":-42.8181603},{"id":"4098370549","tags":"amenity:pharmacy,healthcare:pharmacy","lat":-22.9188472,"lng":-42.8184665},{"id":"4102783725","tags":"amenity:pharmacy,healthcare:pharmacy","lat":-22.9168063,"lng":-42.8175727},{"id":"4103018043","tags":"amenity:pharmacy","lat":-22.9069466,"lng":-42.8036219},{"id":"4714878014","name":"Casa de Festas","tags":"addr:street:Rua Azamor José Da Silva,amenity:bar","lat":-22.9240184,"lng":-42.8174639},{"id":"4714912170","name":"Mistura Grill","tags":"addr:street:Rua Almeida fagundes,amenity:restaurant","lat":-22.9204467,"lng":-42.8194708},{"id":"4827442621","name":"Restaurante Alemão","tags":"addr:street:Rua Cinquenta e Oito,amenity:restaurant,cuisine:german","lat":-22.9342345,"lng":-42.8263434},{"id":"6556256367","tags":"leisure:park","lat":-22.949226,"lng":-42.6935647},{"id":"6556256368","tags":"leisure:park","lat":-22.9492349,"lng":-42.6933771},{"id":"6556256369","tags":"leisure:park","lat":-22.9491249,"lng":-42.6932276},{"id":"6658021803","tags":"amenity:restaurant","lat":-22.9009801,"lng":-42.8176498},{"id":"6658021805","tags":"amenity:hospital,healthcare:hospital","lat":-22.9012451,"lng":-42.818268},{"id":"6658021806","tags":"shop:supermarket","lat":-22.901792,"lng":-42.8182864},{"id":"6832749226","name":"ponta negra park","tags":"leisure:park,operator:crpn","lat":-22.9492253,"lng":-42.693486},{"id":"6835985185","name":"Andicha","tags":"amenity:pharmacy","lat":-22.9339916,"lng":-42.890175},{"id":"7659518644","name":"Marcado Oceânico","tags":"opening_hours:Mo-Su 08:00-20:00,shop:supermarket","lat":-22.9585303,"lng":-42.7838817},{"id":"7659589511","name":"DPO","tags":"amenity:police","lat":-22.9595994,"lng":-42.8145807},{"id":"8283023214","name":"Maraká Expresso","tags":"addr:city:Maricá,addr:housenumber:198,addr:postcode:24901000,addr:street:Rua Athayde Parreira,addr:suburb:centro,amenity:cafe,internet_access:no,opening_hours:Mo-Sa 08:00-18:00,outdoor_seating:no,website:https://www.instagram.com/marakaexpresso/","lat":-22.916762,"lng":-42.8193572},{"id":"8397645317","name":"Supermercado Sublime","tags":"name:en:Sublime Supermarket,shop:supermarket","lat":-22.9336414,"lng":-42.872091}]