[{"id":"2752505856","name":"restaurante e lanchonete","tags":"amenity:restaurant","lat":-22.801671,"lng":-42.4888786},{"id":"4338760919","tags":"amenity:pharmacy,drive_through:no,healthcare:pharmacy","lat":-22.8419262,"lng":-42.2252055},{"id":"5991701210","tags":"amenity:police,police:traffic_police","lat":-22.7890555,"lng":-42.5366347},{"id":"6381413182","name":"Restaurante Água na Boca","tags":"amenity:restaurant","lat":-22.8470208,"lng":-42.2293491},{"id":"6381413396","name":"Banco do Brasil","tags":"amenity:bank,atm:yes,brand:Banco do Brasil,brand:wikidata:Q610817,brand:wikipedia:en:Banco do Brasil","lat":-22.8416298,"lng":-42.2249834},{"id":"6381413397","name":"Pizza e ETC","tags":"amenity:restaurant,delivery:yes,takeaway:yes","lat":-22.8413266,"lng":-42.2246751},{"id":"6381413398","name":"Bradesco","tags":"amenity:bank,atm:yes,brand:Bradesco,brand:wikidata:Q806181,brand:wikipedia:en:Banco Bradesco","lat":-22.8411605,"lng":-42.2245716},{"id":"6381413401","name":"Drogalagos","tags":"amenity:pharmacy,dispensing:yes,healthcare:pharmacy","lat":-22.8407204,"lng":-42.2238397},{"id":"6381580275","name":"Academia Popular De Iguaba Grande","tags":"leisure:fitness_centre,sport:multi","lat":-22.8393928,"lng":-42.2162808},{"id":"6381580282","name":"Itaú","tags":"amenity:bank,atm:yes,brand:Itaú Unibanco,brand:wikidata:Q1424293,brand:wikipedia:pt:Itaú Unibanco","lat":-22.8395194,"lng":-42.221035},{"id":"6381580283","name":"Pronto Socorro de Prefeitura de Iguaba Grande","tags":"amenity:hospital,emergency:yes,healthcare:hospital,healthcare:speciality:general,operator:Prefeitura de Iguaba Grande","lat":-22.8359432,"lng":-42.2235905},{"id":"6381580284","name":"129º Delegacia de Policia","tags":"amenity:police","lat":-22.8357615,"lng":-42.2232763},{"id":"6458769216","name":"Drogaria Lagoa de Iguaba","tags":"amenity:pharmacy,dispensing:yes,drive_through:no,healthcare:pharmacy","lat":-22.8399355,"lng":-42.2245809},{"id":"7109159585","name":"Da Sombra","tags":"amenity:restaurant","lat":-22.7896263,"lng":-42.5388174},{"id":"7109335185","name":"O Queijão","tags":"shop:convenience","lat":-22.7949665,"lng":-42.4484321},{"id":"7668063977","name":"Faculdade Estacio Polo Iguaba","tags":"amenity:university","lat":-22.8360132,"lng":-42.2257278},{"id":"9874549050","name":"Recanto Casa do Tamba","tags":"addr:city:Araruama,addr:door:66,addr:postcode:28970000,addr:suburb:Banqueiros,amenity:restaurant,cuisine:regional,description:Estrada do Pau Brasil, s/n casa 66,opening_hours:11:00-17:00,phone:(22) 99755-9004,website:https://www.instagram.com/recantocasadotamba/","lat":-22.7913874,"lng":-42.2722703}]