[{"id":"533906071","tags":"amenity:restaurant","lat":-22.4641788,"lng":-44.2878432},{"id":"854472052","name":"Escola Municipal John Kennedy","tags":"amenity:school","lat":-22.4980033,"lng":-44.0738575},{"id":"2438087834","name":"Celeiro","tags":"amenity:restaurant","lat":-22.4219065,"lng":-44.290323},{"id":"2438088718","name":"Ginásio Poliesportivo Municipal","tags":"leisure:sports_centre","lat":-22.422508,"lng":-44.290846},{"id":"2438090309","name":"Cantina Tia Zefa","tags":"amenity:restaurant","lat":-22.4202645,"lng":-44.28923},{"id":"2438144167","name":"Lava Jato","tags":"amenity:car_wash","lat":-22.4183189,"lng":-44.2916793},{"id":"2438189881","name":"Unidade Saúde Família - USF Centro","tags":"addr:city:Porto Real , RJ,addr:postcode:27570-000,addr:street:Avenida Dom Pedro II,addr:suburb:Centro,amenity:hospital,emergency:no,operator:Prefeitura Municipal de Porto Real,website:http://cnes.datasus.gov.br/Mod_Profissional.asp?VCo_Unidade=3304117151837,wheelchair:yes","lat":-22.4169529,"lng":-44.2931747},{"id":"2440399104","name":"Correios - Agência Central","tags":"amenity:post_office,operator:ECT - federal","lat":-22.4134676,"lng":-44.2968495},{"id":"2443147344","name":"Lava Jato Pai e Filho","tags":"amenity:car_wash","lat":-22.4156191,"lng":-44.2941844},{"id":"2443151923","name":"Arco Íris Bar","tags":"amenity:bar","lat":-22.4151639,"lng":-44.2949549},{"id":"2450718219","name":"Biblioteca Municipal","tags":"amenity:library","lat":-22.4186917,"lng":-44.2961222},{"id":"2450770833","tags":"leisure:sports_centre","lat":-22.4210968,"lng":-44.2944641},{"id":"2457623283","name":"Quadra de Tênis","tags":"leisure:sports_centre,operator:Município,sport:tennis","lat":-22.421016,"lng":-44.294635},{"id":"2464569858","name":"Bar Bonamigos","tags":"amenity:bar","lat":-22.424175,"lng":-44.285055},{"id":"2466587848","name":"SPACEONE - Cartuchos","tags":"amenity:cafe,internet_access:yes","lat":-22.4134893,"lng":-44.2968247},{"id":"2482176096","name":"Deorides Bar","tags":"amenity:bar","lat":-22.423561,"lng":-44.285717},{"id":"2482176892","name":"Bar do Gedeon","tags":"amenity:bar","lat":-22.423642,"lng":-44.285614},{"id":"2786884125","name":"Churrascão Gaúcho - Prato Feito","tags":"amenity:restaurant","lat":-22.4984039,"lng":-44.0912182},{"id":"2786884127","name":"Churrascão Gaúcho - Rodízio","tags":"amenity:restaurant,cuisine:barbecue","lat":-22.4983823,"lng":-44.0912554},{"id":"2873897046","tags":"amenity:restaurant","lat":-22.4976647,"lng":-44.037906},{"id":"3115517829","name":"Ginasio Poliesportivo","tags":"leisure:sports_centre","lat":-22.411047,"lng":-44.267856},{"id":"3115523129","name":"Quadra Poliesportiva","tags":"leisure:sports_centre","lat":-22.4096316,"lng":-44.2633661},{"id":"3115524929","tags":"shop:supermarket","lat":-22.410125,"lng":-44.264365},{"id":"3115530030","name":"Banco Itau","tags":"amenity:bank,atm:yes,drive_through:no,opening_hours:11:00-16:00,operator:Banco Itau","lat":-22.409631,"lng":-44.261842},{"id":"3115563432","name":"Pizzaria Ki-Delicia","tags":"amenity:restaurant,cuisine:brazilian,outdoor_seating:yes,smoking:separated,takeaway:yes,wheelchair:limited","lat":-22.411554,"lng":-44.267919},{"id":"3908221469","name":"PRF - Policia Rodoviária Federal","tags":"addr:city:Barra do Piraí,addr:street:Rodovia Lúcio Meira,amenity:police,email:del05.rj@prf.gov.br,opening_hours:24/7,operator:Polícia Rodoviária Federal,operator:wikidata:Q1158853,operator:wikipedia:pt:Polícia Rodoviária Federal,phone:+55 21 3503 2352,police:traffic_police","lat":-22.4758236,"lng":-44.0053133},{"id":"3908618321","name":"Estação Café","tags":"amenity:cafe","lat":-22.4933717,"lng":-44.241054},{"id":"4318367069","name":"Polícia Rodoviária Fedreal","tags":"addr:city:Barra Mansa,addr:street:Rodovia Presidente Dutra,addr:suburb:Floriano,amenity:police,opening_hours:24/7,operator:Polícia Rodoviária Federal,operator:wikidata:Q1158853,operator:wikipedia:pt:Polícia Rodoviária Federal,phone:+55 21 3503 2372,police:traffic_police","lat":-22.469964,"lng":-44.2790482},{"id":"4368811792","name":"Polícia Militar","tags":"addr:city:Volta Redonda,addr:street:Av. Nossa Senhora do Amparo / RJ-153,addr:suburb:Santa Cruz,amenity:police,opening_hours:24/7,operator:Polícia Militar do Estado do Rio de Janeiro","lat":-22.4698305,"lng":-44.0937421},{"id":"5255558647","name":"Praça Bela Vista","tags":"addr:city:Volta Redonda,addr:postcode:27288050,addr:street:Rua Agmar Lopes Corrêa,addr:suburb:Santa Cruz,leisure:park","lat":-22.4632235,"lng":-44.094628},{"id":"5255565371","name":"Praça Ex-Combatentes","tags":"addr:city:Volta Redonda,addr:street:Avenida Ex-Combatentes / RJ-157,addr:suburb:Santa Cruz,leisure:park","lat":-22.4652551,"lng":-44.0932533},{"id":"6190949286","tags":"amenity:grave_yard","lat":-22.367651,"lng":-44.017466},{"id":"6419267702","tags":"amenity:table,leisure:park,opening_hours:24/7","lat":-22.3843486,"lng":-44.1120891},{"id":"6804362234","name":"Restaurante Luiz Leite","tags":"addr:city:Quatis,addr:housenumber:130,addr:postcode:Rj,addr:street:Rua Avelino Batista Soares,addr:suburb:Centro,amenity:restaurant,cuisine:regional,delivery:yes,opening_hours:Mo-Su 11:00-15:00,phone:+55 24 99865-6082","lat":-22.4099596,"lng":-44.2621818},{"id":"8936425186","name":"Praça Jurandir do Nascimento","tags":"addr:city:Volta Redonda,addr:postcode:27288250,addr:suburb:Santa Rita do Zarur,leisure:park","lat":-22.4658183,"lng":-44.1057062},{"id":"9987197531","name":"Supermercados Bramil","tags":"addr:street:Rua Bartolomeu Bueno da Ribeira,shop:supermarket","lat":-22.4874254,"lng":-44.0848436},{"id":"9987239672","name":"Ciep","tags":"addr:street:Rua Bartolomeu Bueno da Ribeira,amenity:school","lat":-22.4870487,"lng":-44.0841194},{"id":"10000389423","name":"Mercado da c","tags":"addr:street:Avenida dos Gaúchos,name:en:Caieiras Market,name:pt:Mercado da Caieiras,opening_hours:Mo-Sa 07:00-20:00; Su 07:00-13:00,shop:supermarket","lat":-22.48101,"lng":-44.0580507},{"id":"10025833289","name":"Mercado da Conquista","tags":"addr:city:Volta Redonda,addr:housenumber:635,addr:postcode:27212-280,addr:street:Rua Argentina,addr:suburb:Vila Americana,opening_hours:Mo-Su 08:00-20:00,payment:cash:yes,payment:credit_cards:yes,payment:debit_cards:yes,payment:visa:yes,phone:(24)3350-3300,shop:supermarket","lat":-22.4993814,"lng":-44.0736701}]