[{"id":"2074860270","name":"Aeródromo Carolina de Assis Repetto","tags":"aeroway:aerodrome","lat":-21.7322725,"lng":-43.8943781},{"id":"2075447922","name":"Frango Frito","tags":"amenity:restaurant","lat":-21.7747148,"lng":-43.6198545},{"id":"2083855831","name":"Pizzaria Serra Nostra","tags":"amenity:restaurant,cuisine:pizza","lat":-21.7199565,"lng":-43.9244032},{"id":"4293783495","name":"Cachoeirinha","tags":"tourism:attraction","lat":-21.6710674,"lng":-43.8743334},{"id":"4363422638","name":"Cachoeira dos Macacos","tags":"tourism:attraction","lat":-21.7161151,"lng":-43.8940687},{"id":"4363423295","name":"Lago das Miragens","tags":"tourism:attraction","lat":-21.7133757,"lng":-43.8940141},{"id":"4363596284","name":"Ponte de Pedra","tags":"tourism:attraction","lat":-21.7148818,"lng":-43.893869},{"id":"5054854284","name":"Cleusa's Bar e Restaurante","tags":"amenity:restaurant","lat":-21.7201878,"lng":-43.9242605},{"id":"5054861509","name":"Serafina","tags":"amenity:restaurant","lat":-21.7189535,"lng":-43.9241689},{"id":"8878059917","name":"Redário","tags":"tourism:attraction","lat":-21.748635,"lng":-43.865239},{"id":"8878148017","name":"Estátuas gigantes","tags":"tourism:attraction","lat":-21.7274419,"lng":-43.8848687},{"id":"8881240117","name":"Pinhão Restaurante","tags":"amenity:restaurant","lat":-21.7203245,"lng":-43.9243237},{"id":"8883481617","name":"Nhoq-Tipoca","tags":"amenity:restaurant","lat":-21.7219504,"lng":-43.9245115},{"id":"8887689017","name":"Gruta dos Gnomos","tags":"tourism:attraction","lat":-21.712016,"lng":-43.8940642}]