[{"id":"410707865","name":"Tiradentes","tags":"public_transport:station,railway:station,usage:tourism","lat":-21.114791,"lng":-44.1674914},{"id":"410712624","name":"Museu do Automóvel da Estrada Real","tags":"museum:transport,opening_hours:We-Sa 09:00-18:00,opening_hours:covid19:open,tourism:museum,wikidata:Q56694258","lat":-21.093894,"lng":-44.1358353},{"id":"1305979384","name":"Restaurante Avenida","tags":"amenity:restaurant","lat":-21.1084258,"lng":-44.0253636},{"id":"1305979390","tags":"shop:supermarket","lat":-21.1073248,"lng":-44.0252294},{"id":"1444649737","name":"Bazar Vander","tags":"addr:city:Dores de Campos,addr:housenumber:247,addr:postcode:36.213-000,addr:street:Rua Prefeito Ildefonso Silva,addr:suburb:Centro,email:bazarvander@doresnet.com.br,shop:convenience","lat":-21.1111623,"lng":-44.0220886},{"id":"1884584701","name":"CECLANS","tags":"leisure:sports_centre","lat":-21.1872527,"lng":-43.970064},{"id":"1911045694","name":"Cachoeira do Mangue","tags":"description:Take a walk to this small but beautiful waterfall,tourism:attraction,waterway:waterfall","lat":-21.1093511,"lng":-44.1998381},{"id":"2243141270","tags":"amenity:hospital","lat":-21.1122703,"lng":-44.0277621},{"id":"2243171094","name":"Agência dos Correios","tags":"amenity:post_office","lat":-21.1075128,"lng":-44.0229842},{"id":"2424668288","name":"Túmulo de Tancredo Neves","tags":"tourism:attraction","lat":-21.1391052,"lng":-44.2596696},{"id":"2424685493","name":"Armazém Choperia","tags":"addr:housenumber:138,addr:street:Rua Getúlio Vargas,amenity:restaurant","lat":-21.137705,"lng":-44.2611203},{"id":"2424685494","name":"Monte Alverne","tags":"amenity:restaurant","lat":-21.1380477,"lng":-44.2607984},{"id":"2424685496","name":"Estátua de Tancredo","tags":"tourism:attraction","lat":-21.1372847,"lng":-44.2621797},{"id":"2424685497","name":"Restaurante Villeiros","tags":"amenity:restaurant,wheelchair:limited","lat":-21.138262,"lng":-44.2614906},{"id":"2424687939","name":"Santander","tags":"amenity:bank,brand:Santander,brand:wikidata:Q5835668,brand:wikipedia:en:Santander Bank","lat":-21.1350156,"lng":-44.2599911},{"id":"2424698581","name":"Busto de Tiradentes","tags":"tourism:attraction","lat":-21.1096199,"lng":-44.1777816},{"id":"2424698591","name":"Sapore d'Italia Bar & Cafe","tags":"amenity:bar","lat":-21.1101339,"lng":-44.1743359},{"id":"2542312133","name":"Chez Thierry","tags":"amenity:restaurant,cuisine:creperie","lat":-21.1373064,"lng":-44.260944},{"id":"2544258795","name":"Tragaluz","tags":"amenity:restaurant,cuisine:regional","lat":-21.1094961,"lng":-44.1768773},{"id":"2545394146","name":"Colher de Pau","tags":"amenity:restaurant,cuisine:regional","lat":-21.1345246,"lng":-44.2575476},{"id":"2545766202","name":"Restaurante Tempero Mineiro","tags":"amenity:restaurant,cuisine:regional","lat":-21.1345428,"lng":-44.2614591},{"id":"2800636626","name":"São João del Rei","tags":"public_transport:station,railway:station","lat":-21.1334234,"lng":-44.2573623},{"id":"3208736975","name":"CENEP","tags":"amenity:school","lat":-21.1376206,"lng":-44.2581868},{"id":"3208843614","name":"Drogaria São João","tags":"amenity:pharmacy,healthcare:pharmacy","lat":-21.1368278,"lng":-44.2600171},{"id":"3209253273","name":"O Rei do Galeto e da Picanha","tags":"amenity:restaurant","lat":-21.1362461,"lng":-44.2618249},{"id":"3209254992","name":"Farmácia Homeopática","tags":"amenity:pharmacy,healthcare:pharmacy","lat":-21.1361748,"lng":-44.2617645},{"id":"3209381511","name":"Terminal Urbano","tags":"amenity:bus_station,bus:yes,public_transport:station,wheelchair:no","lat":-21.132371,"lng":-44.2585726},{"id":"3220530362","name":"Casarão","tags":"amenity:restaurant","lat":-21.1422092,"lng":-44.1720889},{"id":"3225301350","name":"Restaurante Mãe e Filha","tags":"amenity:restaurant","lat":-21.1190771,"lng":-44.199183},{"id":"3474977117","name":"Escola Amélia Passos","tags":"amenity:school","lat":-21.1200692,"lng":-44.224198},{"id":"3474977118","name":"Pelotão Polícia Militar","tags":"amenity:police","lat":-21.1194977,"lng":-44.2240492},{"id":"3826450768","name":"Mãos de Moça","tags":"amenity:restaurant","lat":-21.1107163,"lng":-44.1829103},{"id":"3839358767","name":"Banco do Brasil","tags":"amenity:bank,brand:Banco do Brasil,brand:wikidata:Q610817,brand:wikipedia:en:Banco do Brasil","lat":-21.1362745,"lng":-44.259552},{"id":"3844304359","name":"Tempero da Angela","tags":"amenity:restaurant,opening_hours:PH,Th-Mo 11:30-16:00","lat":-21.1010496,"lng":-44.1181285},{"id":"3844304362","name":"Restaurante da Joana","tags":"amenity:restaurant","lat":-21.1003942,"lng":-44.1174464},{"id":"3844304413","tags":"amenity:restaurant","lat":-21.0940493,"lng":-44.1357973},{"id":"3844713017","name":"Museu da Liturgia","tags":"fee:yes,opening_hours:We-Sa 10:00-17:00; Su 10:00-14:00,tourism:museum","lat":-21.1092771,"lng":-44.1777891},{"id":"3927981731","name":"Igreja Nossa Senhora da Conceição","tags":"amenity:place_of_worship,building:church,denomination:catholic,religion:christian","lat":-21.2071918,"lng":-44.0638591},{"id":"3994067759","name":"Templário","tags":"amenity:restaurant","lat":-21.1100599,"lng":-44.1734798},{"id":"3994067763","name":"Xicrona","tags":"amenity:cafe","lat":-21.1091064,"lng":-44.1762122},{"id":"3994067764","name":"Gourmeco","tags":"amenity:restaurant","lat":-21.1091859,"lng":-44.1772239},{"id":"3994068071","tags":"access:private,amenity:parking,fee:yes,parking:surface","lat":-21.1088757,"lng":-44.176309},{"id":"3994068072","name":"Montanhas","tags":"amenity:restaurant","lat":-21.1085437,"lng":-44.1764497},{"id":"3994068073","name":"Seu Barthô","tags":"amenity:restaurant","lat":-21.1070045,"lng":-44.1760233},{"id":"3994069591","name":"Luth Bistrô","tags":"amenity:restaurant","lat":-21.1104334,"lng":-44.1753529},{"id":"3994069592","name":"Casazul","tags":"amenity:cafe","lat":-21.1086171,"lng":-44.1760556},{"id":"3994069594","name":"Verdurão da Economia","tags":"shop:convenience","lat":-21.109433,"lng":-44.1700414},{"id":"3994069703","name":"Empório das Massas","tags":"amenity:restaurant","lat":-21.1084294,"lng":-44.1768722},{"id":"3994069704","name":"Polícia Civil","tags":"amenity:police","lat":-21.1082009,"lng":-44.1765295},{"id":"3994069705","name":"Creperia Debret","tags":"amenity:restaurant","lat":-21.1094713,"lng":-44.1754601},{"id":"3994069706","name":"Angatu","tags":"amenity:restaurant","lat":-21.1091497,"lng":-44.176247},{"id":"3994069707","name":"Bradesco","tags":"amenity:bank","lat":-21.1100613,"lng":-44.1747042},{"id":"3994070958","name":"Museu de Sant'Ana","tags":"tourism:museum","lat":-21.1092626,"lng":-44.1763435},{"id":"3994070959","name":"Delicias do Barroco","tags":"amenity:cafe","lat":-21.108991,"lng":-44.1760515},{"id":"3994070998","name":"Churrascaria Primus","tags":"amenity:restaurant","lat":-21.1455804,"lng":-44.1741141},{"id":"3994070999","name":"Itaú","tags":"amenity:bank","lat":-21.1101464,"lng":-44.1747404},{"id":"3994071002","name":"Empório Santo Antônio","tags":"amenity:restaurant","lat":-21.1075708,"lng":-44.1677157},{"id":"3994071059","name":"Sapore d'Italia","tags":"amenity:restaurant","lat":-21.1102622,"lng":-44.1733116},{"id":"3994071060","name":"Cantina Italiana","tags":"amenity:restaurant","lat":-21.1091933,"lng":-44.1770008},{"id":"3994071157","name":"Restaurante da Beth","tags":"amenity:restaurant","lat":-21.1055226,"lng":-44.1746058},{"id":"3994234209","name":"Rei da Costela","tags":"amenity:restaurant","lat":-21.1486876,"lng":-44.1749814},{"id":"4145032992","name":"Polícia Militar","tags":"amenity:police","lat":-21.119191,"lng":-44.2460769},{"id":"4145032993","name":"Polícia Civil","tags":"amenity:police","lat":-21.1192895,"lng":-44.2455699},{"id":"4145032994","name":"Santa Casa  da Misericordia São João Del-Rei","tags":"addr:city:São João del-Rei,addr:housenumber:289,addr:postcode:36307-346,addr:street:Avenida Tiradentes,addr:suburb:Centro,amenity:hospital,emergency:yes,healthcare:hospital,phone:+55 32 3379 2000,website:http://santacasadelrei.com.br/","lat":-21.1351247,"lng":-44.2573894},{"id":"4147157632","name":"Unidade Mista de Saúde","tags":"amenity:hospital","lat":-21.10859,"lng":-44.1787873},{"id":"4149851875","name":"Restuarante Popular","tags":"addr:city:São João del-Rei,amenity:restaurant,cuisine:regional","lat":-21.1259191,"lng":-44.243285},{"id":"4158119609","tags":"amenity:atm","lat":-21.104203,"lng":-44.2486363},{"id":"4158119637","tags":"amenity:atm","lat":-21.1235908,"lng":-44.2507132},{"id":"4158119638","tags":"amenity:atm","lat":-21.1235984,"lng":-44.2509137},{"id":"4158119640","tags":"amenity:atm","lat":-21.1401213,"lng":-44.2607783},{"id":"4158119642","name":"Reitoria","tags":"amenity:university","lat":-21.1405065,"lng":-44.2608774},{"id":"4158119643","name":"Assessoria de Assuntos Internacionais","tags":"amenity:university","lat":-21.1403791,"lng":-44.2606475},{"id":"4158119668","name":"Divisão de Controle Acadêmico","tags":"amenity:university","lat":-21.1404859,"lng":-44.2612711},{"id":"4158205416","name":"Departamento de Arquitetura, Urbanismo e Artes Aplicadas","tags":"amenity:university","lat":-21.1047386,"lng":-44.2483611},{"id":"4158205417","name":"Departamento de Geografia","tags":"amenity:university","lat":-21.104612,"lng":-44.2485853},{"id":"4158205418","name":"Departamento de Teatro","tags":"amenity:university","lat":-21.1044824,"lng":-44.2488483},{"id":"4158205419","name":"Departamento de Jornalismo","tags":"amenity:university","lat":-21.1054372,"lng":-44.2518623},{"id":"4158205420","name":"Sala Preta do Teatro","tags":"amenity:university","lat":-21.1044991,"lng":-44.2490114},{"id":"4158205421","name":"Departamento de Ciências Contábeis","tags":"amenity:university","lat":-21.104184,"lng":-44.248479},{"id":"4158205422","name":"Departamento de Administração","tags":"amenity:university","lat":-21.104077,"lng":-44.2488252},{"id":"4158260265","name":"Departamento de Economia","tags":"amenity:university","lat":-21.1057808,"lng":-44.2498777},{"id":"4158472023","name":"Departamento de História","tags":"amenity:university","lat":-21.1230424,"lng":-44.251209},{"id":"4158472024","name":"Departamento de Filosofia","tags":"amenity:university","lat":-21.1231901,"lng":-44.2509515},{"id":"4158472025","name":"Departamento de Letras","tags":"amenity:university","lat":-21.12315,"lng":-44.2515041},{"id":"4158472026","name":"Departamento de Psicologia","tags":"amenity:university","lat":-21.123728,"lng":-44.2506323},{"id":"4178371801","name":"Departamento de Matemática","tags":"amenity:university","lat":-21.1400568,"lng":-44.2611084},{"id":"4187642200","tags":"amenity:post_office","lat":-21.1279503,"lng":-44.2404293},{"id":"4218076806","tags":"amenity:pharmacy,healthcare:pharmacy","lat":-21.1281605,"lng":-44.240168},{"id":"4515532811","name":"Dedo de Moça","tags":"amenity:restaurant","lat":-21.137532,"lng":-44.2609274},{"id":"4790815221","tags":"amenity:bar,name:en:Taberna de Omar","lat":-21.1337593,"lng":-44.2608137},{"id":"4864761422","name":"Puro Cacau","tags":"amenity:cafe,name:pt:Puro Cacau","lat":-21.1090379,"lng":-44.1759771},{"id":"4867088221","name":"Puro Cacau","tags":"amenity:cafe,name:pt:Puro Cacau","lat":-21.1106497,"lng":-44.1739781},{"id":"5022585196","tags":"amenity:restaurant","lat":-21.1760009,"lng":-43.970058},{"id":"5022611696","tags":"amenity:restaurant","lat":-21.173782,"lng":-43.9835652},{"id":"5022634942","name":"restaurante Paladar","tags":"amenity:restaurant","lat":-21.1457258,"lng":-44.2277287},{"id":"5022634968","name":"Restaurante e Pizzaria Real Girl","tags":"amenity:restaurant,cuisine:pizza","lat":-21.1485252,"lng":-44.2376864},{"id":"5022635159","name":"Reserva Natural Cala Boca","tags":"amenity:restaurant","lat":-21.1487424,"lng":-44.239739},{"id":"5299934929","name":"US Jose Arimateia","tags":"addr:city:Barroso,addr:housenumber:250,addr:street:Guanabara,addr:suburb:Bandeirantes,amenity:hospital,healthcare:hospital","lat":-21.1998434,"lng":-43.972502},{"id":"5320329521","name":"Café e Empório Gostinho de Minas","tags":"addr:housenumber:656,addr:street:Rua Moisés Pinto de Souza,amenity:cafe","lat":-21.0955087,"lng":-44.1180904},{"id":"5952570611","name":"Santuario Gourmet","tags":"amenity:restaurant,phone:+55 32 9 8854 8824","lat":-21.1112204,"lng":-44.1726942},{"id":"5952570612","name":"Tropeiro de Minas","tags":"amenity:restaurant","lat":-21.1112263,"lng":-44.1725439},{"id":"5952570693","name":"Entrefarma","tags":"amenity:pharmacy","lat":-21.1112452,"lng":-44.1721061},{"id":"5952570694","name":"Trem Gelado","tags":"amenity:cafe,phone:+55 32 9 9123 6035","lat":-21.1112994,"lng":-44.1716682},{"id":"5952571487","name":"Puis Sapore","tags":"amenity:restaurant,cuisine:pizza,name:pt:Piu Sapore,phone:+55 32 9 9930 6999","lat":-21.1111893,"lng":-44.1730799},{"id":"5952571488","name":"Estação Tiradentes","tags":"amenity:restaurant","lat":-21.1111491,"lng":-44.1704015},{"id":"5952581485","tags":"addr:housenumber:81,shop:supermarket","lat":-21.1118368,"lng":-44.1734363},{"id":"5967529885","name":"Brahma","tags":"opening_hours:Mo-Sa 07:30-21:00; Su 07:30-14:00,shop:supermarket","lat":-21.1453783,"lng":-44.2244345},{"id":"5987789764","tags":"amenity:parking,capacity:10,fee:no","lat":-21.1003285,"lng":-44.1686976},{"id":"6190372687","name":"Ora Pro Nobis","tags":"amenity:restaurant","lat":-21.1075716,"lng":-44.1768196},{"id":"6286670658","name":"Moitara Arte Indígena","tags":"tourism:museum","lat":-21.1060212,"lng":-44.1565606},{"id":"6399001524","name":"Restaurante Pau de Angú","tags":"addr:city:Tiradentes,addr:postcode:36325-000,addr:street:Estrada real,amenity:restaurant,cuisine:Mineira,phone:+55 (32) 999481692","lat":-21.0982794,"lng":-44.148586},{"id":"6594845387","name":"Supermercado","tags":"shop:supermarket","lat":-21.1331117,"lng":-44.2590134},{"id":"6595341189","name":"Praça Dona Quininha","tags":"leisure:park,operator:Prefeitura Municipal de Barroso","lat":-21.1888673,"lng":-43.9705353},{"id":"6597090051","name":"Banco do Brasil","tags":"amenity:bank,brand:Banco do Brasil,brand:wikidata:Q610817,brand:wikipedia:en:Banco do Brasil","lat":-21.1872954,"lng":-43.9770662},{"id":"6597097053","name":"Bradesco","tags":"amenity:bank,brand:Bradesco,brand:wikidata:Q806181,brand:wikipedia:en:Banco Bradesco","lat":-21.1875155,"lng":-43.9772137},{"id":"6597097054","name":"Itaú","tags":"amenity:bank,brand:Itaú Unibanco,brand:wikidata:Q1424293,brand:wikipedia:pt:Itaú Unibanco","lat":-21.187578,"lng":-43.9772861},{"id":"6607412552","name":"Rodoviária Prefeito Octávio de Almeida Neves","tags":"amenity:bus_station,bus:yes,internet_access:yes,public_transport:station","lat":-21.1261256,"lng":-44.2467425},{"id":"6611830745","name":"Mano A Mano Bistrô","tags":"amenity:restaurant,phone:+55 32 9 9826 5370,website:https://www.facebook.com/BistroManoaMano/","lat":-21.1113249,"lng":-44.170584},{"id":"6935806196","name":"Estalagem do sabor","tags":"amenity:restaurant","lat":-21.1086925,"lng":-44.1762807},{"id":"6935806197","name":"Viradas do largo","tags":"amenity:restaurant","lat":-21.1054454,"lng":-44.1747485},{"id":"7562936583","tags":"amenity:school","lat":-21.1105193,"lng":-44.2465322},{"id":"8451381318","name":"PARQUE MUNICIPAL SERRA DO LENHEIRO","tags":"leisure:park","lat":-21.1287891,"lng":-44.2690321},{"id":"8729890190","tags":"amenity:hospital,healthcare:hospital","lat":-21.1355245,"lng":-44.257846},{"id":"8729890191","tags":"amenity:hospital,healthcare:hospital","lat":-21.1356798,"lng":-44.257365},{"id":"8729899590","name":"Pelourinho","tags":"leisure:park","lat":-21.1341317,"lng":-44.2629723},{"id":"9124729609","name":"Távola","tags":"amenity:restaurant,opening_hours:Mo-Th,Su 11:00-23:00; Fr-Sa 11:00-01:00; PH closed,reservation:no,wheelchair:limited","lat":-21.1097988,"lng":-44.1747338},{"id":"9585911532","name":"Restaurante Sabor Rural","tags":"amenity:restaurant","lat":-21.1237745,"lng":-44.1443366},{"id":"9585929007","name":"Templo Fit Academia","tags":"leisure:fitness_centre","lat":-21.1092924,"lng":-44.1666364},{"id":"9595569761","name":"Banco24Horas","tags":"amenity:atm,brand:Banco24Horas,brand:wikidata:Q4854069,brand:wikipedia:pt:Banco24Horas,currency:BRL:yes,level:0","lat":-21.1094573,"lng":-44.174096},{"id":"9635490158","name":"Mercadinho da Zana","tags":"shop:supermarket","lat":-21.1032962,"lng":-44.1142407},{"id":"9635490159","tags":"leisure:fitness_centre","lat":-21.1037591,"lng":-44.1141817},{"id":"9635490160","name":"Supermercado Gabriel","tags":"shop:supermarket","lat":-21.1035589,"lng":-44.1137338},{"id":"9694888771","name":"Galeria Bichinho","tags":"shop:mall","lat":-21.1005526,"lng":-44.1175434}]