[{"id":"1080973764","name":"Biblioteca Central","tags":"amenity:library","lat":-21.774237,"lng":-43.368754},{"id":"1080973829","name":"Farmácia Universitária","tags":"amenity:pharmacy,healthcare:pharmacy","lat":-21.7734424,"lng":-43.3706945},{"id":"1082330590","tags":"amenity:atm,operator:Banco do Brasil","lat":-21.7750632,"lng":-43.3704723},{"id":"1082330593","tags":"amenity:atm,operator:Banco do Brasil","lat":-21.7782252,"lng":-43.3725342},{"id":"1082330599","name":"Banco do Brasil","tags":"amenity:bank,atm:yes","lat":-21.7735692,"lng":-43.3690025},{"id":"1082330607","name":"Santander","tags":"amenity:bank,atm:yes","lat":-21.7735493,"lng":-43.3688415},{"id":"1082330621","tags":"amenity:atm,operator:Santander","lat":-21.7751827,"lng":-43.3662344},{"id":"1082330623","tags":"amenity:atm,operator:Banco do Brasil","lat":-21.775103,"lng":-43.3664061},{"id":"1335024317","name":"Academia de Comércio JF","tags":"amenity:school","lat":-21.7625995,"lng":-43.3530342},{"id":"1338456495","tags":"amenity:atm,fee:Receita Federal","lat":-21.7427492,"lng":-43.3548556},{"id":"1339776406","name":"Colégio João XXIII","tags":"amenity:school","lat":-21.7561635,"lng":-43.3598996},{"id":"1339794025","name":"Faculdade Estácio de Sá","tags":"amenity:school","lat":-21.783444,"lng":-43.3357114},{"id":"1339799831","name":"Faculdade Doctum","tags":"amenity:school","lat":-21.7657396,"lng":-43.3475088},{"id":"1339799838","name":"Colégio Stella Matutina","tags":"amenity:school","lat":-21.7653531,"lng":-43.3471989},{"id":"1339799841","name":"Faculdade Vianna Jr.","tags":"amenity:school","lat":-21.7526833,"lng":-43.3531726},{"id":"1340018840","name":"Faculdade Universo","tags":"amenity:university","lat":-21.7504878,"lng":-43.3550666},{"id":"1341286680","name":"Hospital 9 de Julho","tags":"amenity:hospital","lat":-21.7636259,"lng":-43.3442313},{"id":"1341286693","name":"Hospital Oncológico","tags":"amenity:hospital","lat":-21.7639199,"lng":-43.3441509},{"id":"1347132929","name":"Faculdade Machado Sobrinho","tags":"amenity:school","lat":-21.7868144,"lng":-43.343017},{"id":"1350298489","tags":"amenity:bus_station","lat":-21.7593356,"lng":-43.3432981},{"id":"1968744223","name":"Mercearia Bar","tags":"amenity:bar","lat":-21.7772668,"lng":-43.347935},{"id":"1968752548","name":"By Jack","tags":"amenity:bar,wifi:no","lat":-21.7771869,"lng":-43.3480557},{"id":"1968769056","name":"Armazém","tags":"amenity:bar","lat":-21.777162,"lng":-43.3481201},{"id":"1968770101","name":"Galeto Dourado","tags":"amenity:restaurant","lat":-21.777041,"lng":-43.348242},{"id":"1968772905","name":"Pizzaria Sapore","tags":"amenity:restaurant","lat":-21.7770948,"lng":-43.3486191},{"id":"1968773091","name":"Restaurante Mestre Cook","tags":"amenity:restaurant","lat":-21.7772268,"lng":-43.3483107},{"id":"1968773600","name":"Brasador SteakHouse","tags":"amenity:bar","lat":-21.7774111,"lng":-43.3487559},{"id":"1968774105","name":"Mercearia du Faria","tags":"shop:convenience","lat":-21.7771869,"lng":-43.3483884},{"id":"1968775971","name":"Estação Grill","tags":"amenity:restaurant","lat":-21.7774211,"lng":-43.3477393},{"id":"1968776555","name":"Churrasqueira Alto dos Passos","tags":"amenity:restaurant","lat":-21.7776303,"lng":-43.3478801},{"id":"1968777484","name":"Super Pizza","tags":"amenity:restaurant","lat":-21.7772766,"lng":-43.3476562},{"id":"1968782128","name":"Apriori","tags":"amenity:bar","lat":-21.778111,"lng":-43.3485413},{"id":"2018530155","tags":"amenity:parking","lat":-21.7571582,"lng":-43.3509361},{"id":"2050892692","name":"Bahamas Mix","tags":"shop:supermarket","lat":-21.7232129,"lng":-43.3950893},{"id":"2473681842","name":"Bar do Bené","tags":"addr:housenumber:2305,addr:street:Avenida Pres. Costa e Silva,amenity:bar,phone:+55 32 3231-1056","lat":-21.7711435,"lng":-43.3856633},{"id":"2473686496","name":"Banco do Brasil","tags":"amenity:atm","lat":-21.7709978,"lng":-43.378891},{"id":"2473691819","name":"Banco 24hs","tags":"amenity:atm","lat":-21.7710646,"lng":-43.378867},{"id":"2473694932","name":"Cervejaria Barbante","tags":"addr:housenumber:1531,addr:street:Avenida Senhor dos Passos,amenity:bar,phone:+55 32 3231-2879,website:http://www.cervejariabarbante.com.br/","lat":-21.7712613,"lng":-43.3861863},{"id":"2473876857","name":"Maria & Maria","tags":"amenity:restaurant","lat":-21.7855906,"lng":-43.3780201},{"id":"2473922003","name":"CGCO","tags":"amenity:university","lat":-21.7761225,"lng":-43.3714387},{"id":"2474003140","name":"99º Cia de PM","tags":"addr:street:Avenida Pres. Costa e Silva,amenity:police,phone:+55 32 3690-8327","lat":-21.7729548,"lng":-43.3715015},{"id":"2474014235","name":"Unidade Básica de Saúde","tags":"amenity:hospital,emergency:no","lat":-21.7728644,"lng":-43.3716433},{"id":"2474028825","tags":"amenity:pharmacy","lat":-21.7729143,"lng":-43.3798245},{"id":"2474029883","tags":"amenity:pharmacy","lat":-21.7724699,"lng":-43.3783199},{"id":"2474029884","tags":"amenity:pharmacy","lat":-21.7723781,"lng":-43.372428},{"id":"2474040287","name":"Caixa Econômica Federal","tags":"amenity:bank","lat":-21.7727423,"lng":-43.371293},{"id":"2513882493","name":"UAPS Cidade do Sol","tags":"addr:housename:Rua Gustavo Capanema,amenity:hospital","lat":-21.7175279,"lng":-43.4081914},{"id":"2656083068","name":"Idade da Pedra","tags":"addr:city:Juiz de Fora,addr:housenumber:2499,addr:postcode:36037-500,addr:street:Avenida Presidente Costa e Silva,amenity:bar","lat":-21.7732373,"lng":-43.381142},{"id":"2656087243","name":"Bar Universitario","tags":"addr:city:Juiz de Fora,addr:street:Rua Roberto Stiegert,amenity:bar","lat":-21.7717067,"lng":-43.3816831},{"id":"2656087244","name":"Samurai - Japanese Food","tags":"addr:city:juiz de Fora,addr:street:Rua Roberto Stiegert,amenity:restaurant,cuisine:japanese","lat":-21.7714053,"lng":-43.3818092},{"id":"2699286329","name":"PMMG","tags":"amenity:police","lat":-21.6886852,"lng":-43.4340405},{"id":"2699295023","name":"Banco do Brasil","tags":"addr:housename:Agência Benfica,amenity:bank","lat":-21.6893312,"lng":-43.4334166},{"id":"2783698678","name":"Santander","tags":"amenity:bank,atm:yes","lat":-21.7817121,"lng":-43.3630042},{"id":"2831632877","name":"Recanto do mineiro","tags":"amenity:restaurant,cuisine:regional","lat":-21.7769238,"lng":-43.4329573},{"id":"2844470407","name":"Bertus","tags":"addr:city:Juiz de Fora,addr:housenumber:2510,addr:street:Rua Acácio Alves Alvim,amenity:restaurant,cuisine:regional","lat":-21.790209,"lng":-43.3906449},{"id":"2844530278","tags":"amenity:police","lat":-21.7942402,"lng":-43.3840908},{"id":"2844533877","name":"Mr Tugas","tags":"addr:city:Juiz de Fora,addr:housenumber:310,addr:postcode:36039-000,addr:street:Rua Otília de Souza Leal,amenity:restaurant,cuisine:pizza","lat":-21.7913707,"lng":-43.3885094},{"id":"2852992847","tags":"amenity:police","lat":-21.728693,"lng":-43.3568982},{"id":"2853283282","name":"Privilège","tags":"addr:city:Juiz de Fora,addr:housenumber:1000,addr:postcode:36036-220,addr:street:Alameda Engenheiro Gentil Forn,amenity:nightclub","lat":-21.757126,"lng":-43.3698551},{"id":"2868509749","name":"Bar do Pirata","tags":"addr:city:Juiz de Fora,addr:housenumber:677,addr:postcode:36046-130,addr:street:Rua Luiz Rocha,amenity:bar","lat":-21.7320525,"lng":-43.3647958},{"id":"2868558348","name":"Bar do Bode","tags":"addr:city:Juiz de Fora,addr:housenumber:384,addr:postcode:36081-230,addr:street:Rua Nazira Matar de Freitas,amenity:bar","lat":-21.7433634,"lng":-43.388351},{"id":"2872737623","name":"W 100","tags":"addr:city:Juiz de Fora,addr:housenumber:100,addr:street:Rua W,amenity:nightclub","lat":-21.7857565,"lng":-43.3780694},{"id":"2872754692","tags":"amenity:parking,fee:yes,supervised:yes","lat":-21.7602904,"lng":-43.3430451},{"id":"2874431369","name":"Estrela Sul","tags":"shop:mall","lat":-21.7823554,"lng":-43.3571771},{"id":"2887465367","tags":"amenity:pharmacy","lat":-21.7690027,"lng":-43.3874407},{"id":"2887960495","tags":"amenity:police","lat":-21.7715023,"lng":-43.3509318},{"id":"2895416566","name":"Churrascaria Chimarron","tags":"addr:city:Juiz de Fora,addr:housenumber:700,addr:street:Avenida Barão do Rio Branco,amenity:restaurant,opening_hours:Mo-Th 11:30-15:00,18:00-00:00; Fr-Sa 11:30-00:00; Su 11:30-18:00,phone:+55 32 3217 3353,smoking:no,website:http://www.chimarron.com.br/","lat":-21.7455191,"lng":-43.3541666},{"id":"3017828607","name":"Cementerio dos Animais","tags":"landuse:cemetery","lat":-21.7097568,"lng":-43.2883225},{"id":"3073341178","name":"Club Alphaville","tags":"leisure:sports_centre","lat":-21.7695997,"lng":-43.4263476},{"id":"3126973314","name":"Cidoka","tags":"addr:city:Juiz de Fora,addr:suburb:Barbosa Lage,amenity:restaurant","lat":-21.7212763,"lng":-43.3957423},{"id":"3126973315","name":"Fio Fio","tags":"addr:city:Juiz de Fora,addr:postcode:36085040,addr:street:Rua Nair do Prado Manso,addr:suburb:Barbosa Lage,shop:beauty","lat":-21.7214955,"lng":-43.3952702},{"id":"3126977703","name":"Salão Studio F","tags":"shop:beauty","lat":-21.7234402,"lng":-43.3958396},{"id":"3126981787","name":"Dom Barone","tags":"addr:city:Juiz de Fora,addr:suburb:Barbosa Lage,amenity:restaurant","lat":-21.7184655,"lng":-43.4000177},{"id":"3146102869","tags":"leisure:sports_centre","lat":-21.7178856,"lng":-43.3993727},{"id":"3306256990","name":"Usina Marmelos Zero","tags":"disused:power:generator,generator:source:hydro,tourism:museum","lat":-21.7867899,"lng":-43.3086095},{"id":"3460096484","name":"Gruta Nossa Senhora de Fatima","tags":"amenity:place_of_worship,leisure:park","lat":-21.7626434,"lng":-43.3555086},{"id":"3465748236","tags":"amenity:cafe","lat":-21.7634679,"lng":-43.3577746},{"id":"3476457585","name":"Bondes Antigos","tags":"tourism:museum","lat":-21.7931601,"lng":-43.3668083},{"id":"3774351597","name":"Colégio Nossa Senhora do Carmo","tags":"addr:city:Juiz de Fora,addr:housenumber:112,addr:postcode:36015-360,addr:street:Rua Doná Maria Helena,amenity:school,building:levels:3,phone:+55 32 3311 1600,school:Private","lat":-21.756447,"lng":-43.3545941},{"id":"3775859411","name":"Centro de Estética Susana's","tags":"addr:city:Juiz de Fora,addr:housenumber:777,addr:street:Rua Olegário Maciel,phone:+55 32 3212 2569,shop:beauty,shop_1:manicure,shop_2:hairdresser","lat":-21.7620238,"lng":-43.3544893},{"id":"3906977119","tags":"amenity:atm,brand:Banco 24H","lat":-21.6351128,"lng":-43.4397631},{"id":"4027676513","name":"Buteco do Coleguinha","tags":"addr:city:Juiz de Fora,addr:housenumber:23,addr:postcode:36036-560,addr:street:Maria Teixeira Lopes,addr:suburb:Nossa Senhora de Fátima,amenity:restaurant,cuisine:regional,opening_hours:We-Sa 18:00+","lat":-21.7684139,"lng":-43.3669862},{"id":"4205252304","name":"AGS Soccer e Fitness","tags":"leisure:sports_centre,sport:gymnastics","lat":-21.7166882,"lng":-43.3515502},{"id":"4234670766","name":"Escola Municipal Prefeito Dilermando Cruz Filho","tags":"addr:street:Rua Altivo Halfeld,amenity:school","lat":-21.7789569,"lng":-43.3310312},{"id":"4234671954","name":"Escola Estadual Henrique Burnier","tags":"amenity:school","lat":-21.769251,"lng":-43.3374366},{"id":"4234675035","name":"Rede Unida Supermercados","tags":"shop:supermarket","lat":-21.7786592,"lng":-43.3280285},{"id":"4565297391","name":"Saloon","tags":"addr:housenumber:5300,addr:street:Rua Américo Lôbo,amenity:bar,internet_access:wlan,name:pt:Saloon,opening_hours:Tu-Su 14:00-03:00","lat":-21.7435807,"lng":-43.3617103},{"id":"4582637189","name":"Pluri Bistrô","tags":"addr:housenumber:810,addr:postcode:36015-460,addr:street:Rua Marechal Deodoro,amenity:bar,opening_hours:Tu-Sa 11:00-01:00; Su 11:30-15:30; Mo 11:00-15:00","lat":-21.7608744,"lng":-43.3519307},{"id":"4693676911","name":"Paineira Escola Waldorf","tags":"addr:city:Juiz de Fora,addr:country:BR,addr:housenumber:2102,addr:postcode:36037-490,addr:street:Avenida Senhor dos Passos,addr:suburb:São Pedro,amenity:school","lat":-21.7719694,"lng":-43.3891607},{"id":"4795978438","name":"Empório Bahamas","tags":"addr:floor:2,addr:housenumber:2,addr:street:Avenida Doutor Paulo Japiassu Coelho,amenity:bar","lat":-21.7827597,"lng":-43.3641797},{"id":"4856144822","name":"Queijaria Santa Maria","tags":"amenity:restaurant,name:pt:Queijaria Santa Maria","lat":-21.7371384,"lng":-43.4425672},{"id":"4964915322","name":"Climax Conveniência e Pizzaria","tags":"amenity:restaurant","lat":-21.7307154,"lng":-43.35648},{"id":"4965055418","name":"Ocupa UFJF","tags":"addr:street:José Lourenço Kelmer,amenity:university","lat":-21.7737139,"lng":-43.3688671},{"id":"5016724422","name":"Mercearia Davan","tags":"addr:housenumber:119,addr:postcode:36037812,addr:street:Papa João Paulo ll,name:en:Português,name:pt:Mercearia Davan,opening_hours:Mo-Sa 08:00-11:00, 13:00-18:00; Su 08:00-12:00,shop:supermarket","lat":-21.7618897,"lng":-43.3915468},{"id":"5262934501","tags":"leisure:sports_centre,sport:swimming","lat":-21.7252913,"lng":-43.3525846},{"id":"5262934503","tags":"leisure:sports_centre","lat":-21.7254283,"lng":-43.3519422},{"id":"6142453181","tags":"addr:street:Rodovia Washington Luiz - Rodovia Juscelino Kubitschek,amenity:restaurant","lat":-21.7365818,"lng":-43.4425185},{"id":"6173328687","name":"Escola Maria Helena","tags":"addr:postcode:36052150,addr:street:Rua Augusto Alves,amenity:school,opening_hours:Mo-Fr 07:00-17:00","lat":-21.7437032,"lng":-43.3441536},{"id":"6191762236","name":"Escola Municipal União da Bethânia","tags":"amenity:school","lat":-21.7093128,"lng":-43.3633885},{"id":"6255514455","name":"Bar do Leo","tags":"amenity:bar,brewery:various;yes,outdoor_seating:yes","lat":-21.7532531,"lng":-43.3588612},{"id":"6335312281","tags":"addr:street:Rodovia Presidente Juscelino Kubitschek,amenity:restaurant","lat":-21.6354954,"lng":-43.439639},{"id":"6800361350","name":"mercearia ponto verde","tags":"addr:street:R Luiza de oliveira,payment:cash:yes,payment:credit_cards:yes,shop:supermarket","lat":-21.7065216,"lng":-43.4218619},{"id":"6848492064","name":"MERC. JUNIMAR","tags":"addr:street:Rua Doutor Dias da Cruz,addr:suburb:NOVA ERA 1,shop:supermarket","lat":-21.7022852,"lng":-43.4239316},{"id":"7149255921","tags":"leisure:park","lat":-21.7656295,"lng":-43.381196},{"id":"7149255929","name":"Academia ao Ar Livre São Lucas II","tags":"leisure:park","lat":-21.7656902,"lng":-43.3809523},{"id":"7149255934","name":"Campo para esportes São Lucas I","tags":"leisure:park","lat":-21.7685079,"lng":-43.3763312},{"id":"7149255935","name":"Parquinho Infantil São Lucas I","tags":"leisure:park","lat":-21.7685508,"lng":-43.3764652},{"id":"7555105947","tags":"shop:convenience","lat":-21.7632482,"lng":-43.3868872},{"id":"7555411981","tags":"amenity:restaurant","lat":-21.7732844,"lng":-43.368166},{"id":"9051552663","name":"Delegacia PRF em Juiz de Fora","tags":"addr:city:Juiz de Fora,addr:housenumber:642,addr:street:Avenida Ruy Barbosa,addr:suburb:Santa Terezinha,amenity:police,opening_hours:Mo-Fr 08:00-17:00,operator:Polícia Rodoviária Federal,operator:wikidata:Q1158853,operator:wikipedia:pt:Polícia Rodoviária Federal,phone:+55 32 3223 8061","lat":-21.7411118,"lng":-43.3628426},{"id":"9425747619","name":"Olho no Olho","tags":"amenity:restaurant","lat":-21.6439347,"lng":-43.4066577},{"id":"9486874599","name":"Doceria e Fabrica de Chocolate Tudo em Chocolate","tags":"addr:city:Juiz de Fora,addr:housenumber:54,addr:postcode:36087-610,addr:street:Rua Valdir Martins de Oliveira,addr:suburb:Sao Judas Tadeu,amenity:restaurant,cuisine:chocolate,opening_hours:Mo-Fr 09:00-18:00,opening_hours:covid19:restricted,payment:cash:yes,payment:credit_cards:yes,payment:debit_cards:yes,payment:none:yes,phone:+55 32 3225 6239,takeaway:only","lat":-21.7064788,"lng":-43.4348385},{"id":"9579555604","name":"Polícia Federal do Brasil","tags":"addr:city:Juiz de Fora,addr:housenumber:4150,addr:postcode:36052-600,addr:street:Avenida Brasil,addr:suburb:Manoel Honório,amenity:police,operator:Polícia Federal do Brasil,operator:en:Federal Police of Brazil,operator:wikidata:Q2289697,operator:wikipedia:pt:Polícia Federal do Brasil,phone:+55 32 3228 9000","lat":-21.7454437,"lng":-43.3523746},{"id":"9579555605","name":"Polícia Federal do Brasil","tags":"addr:city:Juiz de Fora,addr:housenumber:6345,addr:postcode:36080-060,addr:street:Avenida Brasil,addr:suburb:Mariano Procópio,amenity:police,operator:Polícia Federal do Brasil,operator:en:Federal Police of Brazil,operator:wikidata:Q2289697,operator:wikipedia:pt:Polícia Federal do Brasil,phone:+55 32 3250 1035","lat":-21.7405658,"lng":-43.3710853}]