[{"id":"29555344","tags":"amenity:parking","lat":-19.8754512,"lng":-43.9753876},{"id":"35332689","name":"Prontocor","tags":"amenity:hospital,healthcare:hospital","lat":-19.91788,"lng":-43.951836},{"id":"98851980","name":"Praça Sebastião Alves Costa","tags":"landuse:recreation_ground,leisure:park","lat":-19.9654887,"lng":-43.9820569},{"id":"315278953","name":"Caixa","tags":"amenity:bank,atm:yes","lat":-19.970369,"lng":-43.9652465},{"id":"315970847","name":"Super Box","tags":"shop:supermarket","lat":-19.9322329,"lng":-44.0831994},{"id":"315970850","name":"Tradição","tags":"shop:supermarket","lat":-19.931542,"lng":-44.0836179},{"id":"315970852","name":"Drogaria Cinthia","tags":"amenity:pharmacy","lat":-19.9318597,"lng":-44.0831458},{"id":"315989085","tags":"amenity:cafe,operator:Mangiare Gourmet","lat":-19.8675272,"lng":-43.9649727},{"id":"315989086","tags":"amenity:bank,atm:yes,brand:Caixa,operator:Caixa Econômica Federal","lat":-19.8680065,"lng":-43.9645139},{"id":"315989087","tags":"amenity:bank,atm:yes,brand:Banco do Brasil,operator:Banco do Brasil","lat":-19.8681377,"lng":-43.9647232},{"id":"315989090","tags":"amenity:restaurant,note:pt:o operador do restaurante muda de tempos em tempos, não colque ele no campo nome,old_operator:Grupo Vitória da União,operator:Mangiare","lat":-19.8676558,"lng":-43.9650719},{"id":"315989091","tags":"amenity:bank,atm:yes,brand:Santander,operator:Banco Real","lat":-19.8680116,"lng":-43.965281},{"id":"315989092","tags":"amenity:pharmacy,healthcare:pharmacy","lat":-19.8678754,"lng":-43.9652623},{"id":"315989093","tags":"shop:books","lat":-19.868226,"lng":-43.965096},{"id":"315991369","tags":"shop:convenience","lat":-19.9186564,"lng":-44.0843099},{"id":"315991374","tags":"amenity:cafe","lat":-19.9217631,"lng":-44.0590381},{"id":"315991756","name":"Caixa","tags":"amenity:bank,atm:yes","lat":-19.9131487,"lng":-44.0844869},{"id":"315995052","tags":"amenity:restaurant","lat":-19.9701396,"lng":-43.9653003},{"id":"315995053","tags":"amenity:cafe","lat":-19.9702657,"lng":-43.9653056},{"id":"318809135","tags":"amenity:restaurant","lat":-19.9292423,"lng":-43.9759325},{"id":"319210844","name":"Bradesco","tags":"amenity:bank,atm:yes,brand:Bradesco,brand:wikidata:Q806181,brand:wikipedia:en:Banco Bradesco,wheelchair:yes","lat":-19.9295146,"lng":-43.9743178},{"id":"319210845","name":"Itaú","tags":"amenity:bank,atm:yes,brand:Itaú Unibanco,brand:wikidata:Q1424293,brand:wikipedia:pt:Itaú Unibanco,wheelchair:yes","lat":-19.9297769,"lng":-43.9748436},{"id":"319216000","tags":"amenity:parking,entrance:yes","lat":-19.9300443,"lng":-43.9801508},{"id":"319991919","name":"Pizzaria Bianca","tags":"amenity:restaurant,cuisine:pizza","lat":-19.919302,"lng":-44.0769231},{"id":"320218260","name":"Banco do Brasil","tags":"amenity:atm","lat":-19.9569622,"lng":-44.0623319},{"id":"320218264","name":"Real","tags":"amenity:atm","lat":-19.9569622,"lng":-44.0624499},{"id":"320218268","name":"Bradesco","tags":"amenity:atm","lat":-19.9569572,"lng":-44.0625625},{"id":"320218272","name":"Itaú","tags":"amenity:atm","lat":-19.9569381,"lng":-44.0626846},{"id":"320218289","tags":"amenity:restaurant","lat":-19.9568966,"lng":-44.0641128},{"id":"320218297","tags":"amenity:pharmacy","lat":-19.9568966,"lng":-44.0638661},{"id":"320228445","name":"Droga Norte","tags":"amenity:pharmacy","lat":-19.9425457,"lng":-44.0395545},{"id":"320228457","name":"Caixa","tags":"amenity:bank,atm:yes","lat":-19.9432012,"lng":-44.0395599},{"id":"320228465","name":"Real","tags":"amenity:bank,atm:yes","lat":-19.9431962,"lng":-44.0398442},{"id":"320404282","name":"Carretão Trevo","tags":"amenity:restaurant,wheelchair:limited","lat":-19.9583639,"lng":-44.0649872},{"id":"321236875","name":"Itaú","tags":"amenity:atm,brand:Itaú Unibanco,brand:wikidata:Q1424293,brand:wikipedia:pt:Itaú Unibanco,operator:Itaú Unibanco,operator:wikidata:Q1424293,operator:wikipedia:pt:Itaú Unibanco,wheelchair:yes","lat":-19.9297416,"lng":-43.9790815},{"id":"321272231","name":"Banco do Brasil","tags":"amenity:bank,brand:Banco do Brasil,brand:wikidata:Q610817,brand:wikipedia:en:Banco do Brasil","lat":-19.9719469,"lng":-43.9662712},{"id":"321274326","name":"Itaú","tags":"amenity:bank,atm:yes,brand:Itaú Unibanco,brand:wikidata:Q1424293","lat":-19.9653322,"lng":-43.9546036},{"id":"321274328","name":"Banco do Brasil","tags":"amenity:bank,atm:yes,brand:Banco do Brasil,brand:wikidata:Q610817,brand:wikipedia:en:Banco do Brasil","lat":-19.9648481,"lng":-43.9545661},{"id":"321274331","name":"Drograria Araújo","tags":"amenity:pharmacy,healthcare:pharmacy","lat":-19.9687556,"lng":-43.9540564},{"id":"321403408","name":"Polícia Civil","tags":"amenity:police","lat":-19.9197508,"lng":-43.9551347},{"id":"321403526","tags":"amenity:cafe","lat":-19.9185857,"lng":-43.9520877},{"id":"321510735","name":"Posto de Saúde Bernardo Monteiro","tags":"amenity:hospital","lat":-19.9321119,"lng":-44.0815901},{"id":"321510746","name":"Super Box","tags":"shop:supermarket","lat":-19.9317715,"lng":-44.0861016},{"id":"321529891","name":"Carrefour","tags":"shop:supermarket,wheelchair:limited","lat":-19.9563016,"lng":-44.063453},{"id":"322058435","tags":"addr:housenumber:6640,addr:street:Avenida Presidente Antônio Carlos,amenity:fuel,brand:Shell,shop:convenience","lat":-19.8632841,"lng":-43.9575219},{"id":"324505301","tags":"amenity:parking","lat":-19.9283144,"lng":-43.9476138},{"id":"324773926","name":"Área Integrada de Segurança Pública","tags":"amenity:police","lat":-19.9238957,"lng":-43.9465984},{"id":"331924979","name":"Raja Grill","tags":"addr:city:Belo Horizonte,addr:housenumber:3385,addr:street:Avenida Raja Gabaglia,addr:suburb:São Bento,amenity:restaurant,cuisine:regional","lat":-19.9634464,"lng":-43.9555182},{"id":"332419241","name":"Alambique","tags":"amenity:nightclub","lat":-19.9623195,"lng":-43.95709},{"id":"335718190","name":"Carrefour","tags":"addr:city:Belo Horizonte,addr:housenumber:50,addr:street:Avenida Barão Homem de Melo,addr:suburb:Nova Suíssa,brand:Carrefour,brand:wikidata:Q217599,brand:wikipedia:fr:Carrefour (enseigne),shop:supermarket,wheelchair:yes","lat":-19.9351075,"lng":-43.9725261},{"id":"338929711","tags":"amenity:pharmacy,dispensing:yes,healthcare:pharmacy","lat":-19.9230933,"lng":-43.9557976},{"id":"343589438","name":"Macau","tags":"addr:housenumber:1767,addr:street:Avenida Olegário Maciel,amenity:restaurant,cuisine:chinese,internet_access:wlan,opening_hours:Mo off; Tu-Th 11:30-14:30,18:00-23:30; Fr 11:30-14:30,18:00-24:00; Sa 11:30-16:00,19:00-23:00; Su 11:30-16:30,19:00-23:00; Ph 11:30-16:00,18:30-23:00,phone:+55 31 3337-3685,website:https://www.restaurantemacau.com.br/","lat":-19.9298122,"lng":-43.9468091},{"id":"353134374","name":"Farroupilha","tags":"amenity:restaurant","lat":-19.9299685,"lng":-43.9468574},{"id":"373573304","name":"Itaú","tags":"amenity:bank,atm:yes,brand:Itaú Unibanco,brand:wikidata:Q1424293,brand:wikipedia:pt:Itaú Unibanco","lat":-19.9328532,"lng":-43.9589702},{"id":"445968839","name":"Bradesco","tags":"amenity:bank,atm:yes","lat":-19.9219119,"lng":-44.0590891},{"id":"451001079","name":"Almirante","tags":"amenity:restaurant","lat":-19.934129,"lng":-43.9563095},{"id":"452817536","name":"A Granel","tags":"addr:city:Belo Horizonte,addr:housenumber:265,addr:street:Rua Coração Eucarístico de Jesus,addr:suburb:Coração Eucarístico,amenity:restaurant","lat":-19.9258482,"lng":-43.9900785},{"id":"453229829","name":"Iria Diniz","tags":"amenity:hospital","lat":-19.9398175,"lng":-44.0470889},{"id":"453234829","name":"Hospital Santa Helena","tags":"addr:city:Contagem - MG,addr:housenumber:64,addr:street:Rua Casuarinas,addr:suburb:Eldorado,amenity:hospital,healthcare:hospital","lat":-19.9398351,"lng":-44.0441197},{"id":"453234877","name":"Supermercado Super Nosso","tags":"shop:supermarket","lat":-19.9381987,"lng":-44.0452569},{"id":"453686209","name":"Pronto Socorro Unimed","tags":"addr:city:Contagem,addr:housenumber:1695,addr:street:Avenida Babita Camargos,addr:suburb:Cidade Industrial,amenity:hospital,healthcare:hospital","lat":-19.9490305,"lng":-44.0259611},{"id":"453690483","name":"Hospital São José","tags":"amenity:hospital","lat":-19.9654834,"lng":-44.0150767},{"id":"453690501","name":"Hospital Santa Rita","tags":"amenity:hospital","lat":-19.9660607,"lng":-44.0148323},{"id":"456322668","name":"Super Nosso","tags":"addr:city:Belo Horizonte,addr:housenumber:223,addr:street:Rua André Cavalcanti,addr:suburb:Gutierrez,shop:supermarket","lat":-19.9337156,"lng":-43.9566287},{"id":"456322669","name":"Droga Raia","tags":"amenity:pharmacy,brand:Droga Raia,brand:wikidata:Q10357101,brand:wikipedia:pt:RaiaDrogasil,healthcare:pharmacy","lat":-19.9331331,"lng":-43.9568003},{"id":"456322675","tags":"amenity:restaurant","lat":-19.936358,"lng":-43.959673},{"id":"456322680","tags":"amenity:restaurant","lat":-19.9356975,"lng":-43.9599412},{"id":"456322716","name":"Carrefour","tags":"brand:Carrefour,brand:wikidata:Q217599,brand:wikipedia:fr:Carrefour (enseigne),shop:supermarket,wheelchair:yes","lat":-19.9374885,"lng":-43.9597671},{"id":"456383513","name":"Coliseu da Carne","tags":"addr:city:Contagem,addr:housename:Avenida Olímpio Garcia,addr:housenumber:89,amenity:restaurant,capacity:400,opening_hours:18:00 - 0:00,website:http://www.coliseudacarne.com.br","lat":-19.9435038,"lng":-44.0390127},{"id":"460206314","tags":"amenity:pharmacy,healthcare:pharmacy","lat":-19.89086,"lng":-43.9680645},{"id":"460206315","name":"Carrefour","tags":"addr:housenumber:3001,addr:street:Avenida Presidente Carlos Luz,brand:Carrefour,brand:wikidata:Q217599,brand:wikipedia:fr:Carrefour (enseigne),opening_hours:Mo-Sa 08:00-23:00; Su,PH 08:00-21:00,shop:supermarket","lat":-19.8911283,"lng":-43.9677282},{"id":"461425115","name":"Sales Supermercados","tags":"addr:city:Contagem,addr:housenumber:675,addr:street:Avenida Prefeito Gil Diniz,addr:suburb:Centro,shop:supermarket","lat":-19.9165877,"lng":-44.082937},{"id":"461425124","name":"Drogaria Araújo","tags":"addr:city:contagem,addr:housenumber:777,addr:postcode:32013350,addr:street:Avenida Prefeito Gil Diniz,addr:suburb:Centro,amenity:pharmacy,drive_through:no,healthcare:pharmacy,opening_hours:07:00-23:00","lat":-19.9155496,"lng":-44.0821802},{"id":"461425133","name":"Droga Norte","tags":"addr:city:contagem,addr:housenumber:385,addr:postcode:32013350,addr:street:Avenida Prefeito Gil Diniz,addr:suburb:Centro,amenity:pharmacy,dispensing:yes,drive_through:no,healthcare:pharmacy,opening_hours:07:00-23:00,phone:+553125232229,website:http://www.droganorte.com.br/","lat":-19.9147443,"lng":-44.081831},{"id":"461425717","tags":"amenity:parking","lat":-19.9154335,"lng":-44.0822419},{"id":"461425729","tags":"amenity:parking","lat":-19.914962,"lng":-44.082022},{"id":"462472997","name":"Real","tags":"amenity:atm","lat":-19.9331911,"lng":-43.9587771},{"id":"462473058","name":"Caixa Econômica Federal","tags":"addr:housenumber:1369,addr:postcode:30441-021,addr:street:Avenida Francisco Sá,amenity:bank,atm:yes,brand:Caixa Econômica Federal,brand:wikidata:Q835283,brand:wikipedia:pt:Caixa Econômica Federal,drive_through:no","lat":-19.9343699,"lng":-43.9591498},{"id":"470733467","name":"Super Mercado EPA","tags":"shop:supermarket","lat":-19.9368775,"lng":-44.0518712},{"id":"471266530","name":"Mercado Central de Contagem","tags":"addr:city:Contagem,addr:housenumber:391,addr:street:Rua Humberto de Môro,addr:suburb:Inconfidentes,shop:mall","lat":-19.9516979,"lng":-44.0386748},{"id":"471729882","name":"Itaú","tags":"amenity:bank,atm:yes,brand:Itaú Unibanco,brand:wikidata:Q1424293,brand:wikipedia:pt:Itaú Unibanco","lat":-19.9552831,"lng":-44.0264385},{"id":"471729903","name":"Restaurante do Trabalhador","tags":"amenity:restaurant","lat":-19.957895,"lng":-44.0294963},{"id":"471729966","name":"Correios","tags":"amenity:post_office,operator:Correios,operator:wikidata:Q3375004,operator:wikipedia:en:Correios","lat":-19.9554696,"lng":-44.0242123},{"id":"471742621","name":"Santander","tags":"amenity:bank,atm:yes,brand:Santander,brand:wikidata:Q5835668,brand:wikipedia:en:Santander Bank","lat":-19.9531955,"lng":-44.0186816},{"id":"489132899","tags":"amenity:parking","lat":-19.9131967,"lng":-44.0843018},{"id":"501854815","name":"Estação Bernardo Monteiro","tags":"public_transport:station,railway:station","lat":-19.9332339,"lng":-44.0801267},{"id":"706553869","name":"EPA","tags":"shop:supermarket","lat":-19.8947067,"lng":-44.0088961},{"id":"711921964","name":"Araujo","tags":"amenity:pharmacy,healthcare:pharmacy,maxspeed:60","lat":-19.9830918,"lng":-43.9468131},{"id":"713213264","name":"Colégio São Paulo da Cruz","tags":"amenity:school","lat":-19.978283,"lng":-44.0246332},{"id":"713217037","name":"Estacionamento Via Shopping","tags":"amenity:parking","lat":-19.97429,"lng":-44.0217364},{"id":"882261650","name":"Alad'ns Bar (Frango Frito)","tags":"addr:city:Belo Horizonte,addr:country:BR,addr:housenumber:2130,addr:street:Rua Guajajaras,amenity:bar,cuisine:yes","lat":-19.9222819,"lng":-43.9528477},{"id":"911548688","name":"Ponto Final 9404","tags":"amenity:bus_station,bus:yes,public_transport:station","lat":-19.897325,"lng":-43.9612689},{"id":"920244923","name":"Padre José Maria de Man","tags":"amenity:school","lat":-19.9467133,"lng":-44.0687909},{"id":"920244929","name":"Escola Municipal Domingos Diniz Moreira","tags":"amenity:school","lat":-19.9463351,"lng":-44.0728308},{"id":"967972267","name":"Mesa de Minas","tags":"amenity:restaurant","lat":-19.9659069,"lng":-43.9544966},{"id":"967972271","name":"Rei Davi","tags":"amenity:restaurant","lat":-19.9625785,"lng":-43.956313},{"id":"975865780","tags":"amenity:restaurant","lat":-19.9686547,"lng":-43.9650107},{"id":"975872624","name":"Porcão","tags":"addr:city:Belo Horizonte,addr:housenumber:2671,addr:street:Avenida Raja Gabaglia,addr:suburb:São Bento,amenity:restaurant","lat":-19.9602802,"lng":-43.9570231},{"id":"985692259","name":"Peixe Frito","tags":"amenity:restaurant,cuisine:Sea food","lat":-19.9288237,"lng":-43.955164},{"id":"990010841","name":"Bradesco","tags":"amenity:bank,atm:yes,brand:Bradesco,brand:wikidata:Q806181,brand:wikipedia:en:Banco Bradesco","lat":-19.9462478,"lng":-43.9592011},{"id":"993654899","tags":"amenity:restaurant","lat":-19.9226072,"lng":-43.9465927},{"id":"993654901","name":"Itaú","tags":"amenity:bank,atm:yes,brand:Itaú Unibanco,brand:wikidata:Q1424293,brand:wikipedia:pt:Itaú Unibanco","lat":-19.9237776,"lng":-43.9456562},{"id":"994655937","name":"Itaú","tags":"addr:city:Belo Horizonte,addr:housenumber:2716,addr:street:Avenida Dom Pedro II,addr:suburb:Centro,amenity:bank,atm:yes,brand:Itaú Unibanco,brand:wikidata:Q1424293,brand:wikipedia:pt:Itaú Unibanco","lat":-19.9101372,"lng":-43.9665839},{"id":"1029633397","tags":"amenity:pharmacy,healthcare:pharmacy","lat":-19.9328203,"lng":-43.9776353},{"id":"1034622832","tags":"amenity:parking","lat":-19.8696763,"lng":-43.9859212},{"id":"1035849440","tags":"amenity:parking","lat":-19.86339,"lng":-43.9752889},{"id":"1041157373","name":"Caixa Econômica Federal","tags":"amenity:bank,atm:yes,brand:Caixa Econômica Federal,brand:wikidata:Q835283,brand:wikipedia:pt:Caixa Econômica Federal,operator:Caixa","lat":-19.9321617,"lng":-43.9502104},{"id":"1041341411","name":"Caixa Econômica Federal","tags":"amenity:bank,atm:yes,brand:Caixa Econômica Federal,brand:wikidata:Q835283,brand:wikipedia:pt:Caixa Econômica Federal,operator:Caixa","lat":-19.9326047,"lng":-43.9502199},{"id":"1041341412","name":"Banco do Brasil","tags":"amenity:bank,atm:yes,brand:Banco do Brasil,brand:wikidata:Q610817,brand:wikipedia:en:Banco do Brasil,operator:Banco do Brasil","lat":-19.9329999,"lng":-43.9481586},{"id":"1041341413","name":"HSBC","tags":"amenity:bank,atm:yes,brand:HSBC,brand:wikidata:Q190464,brand:wikipedia:en:HSBC,operator:HSBC","lat":-19.9331766,"lng":-43.9481908},{"id":"1041341436","name":"Pizzarella","tags":"addr:city:Belo Horizonte,addr:country:BR,addr:housenumber:2280,addr:street:Avenida Olegário Maciel,amenity:restaurant,contact:phone:+55 31 3292-3000,contact:website:http://pizzarella.com.br,cuisine:pizza","lat":-19.9339732,"lng":-43.9484406},{"id":"1055833555","name":"Jequi Tem Ondas","tags":"amenity:restaurant,food:yes","lat":-19.9195689,"lng":-43.9480815},{"id":"1082978128","name":"Santander","tags":"amenity:bank,brand:Santander,brand:wikidata:Q5835668,brand:wikipedia:en:Santander Bank","lat":-19.9212175,"lng":-43.9489045},{"id":"1082978141","name":"Bradesco","tags":"amenity:bank,brand:Bradesco,brand:wikidata:Q806181,brand:wikipedia:en:Banco Bradesco","lat":-19.9210791,"lng":-43.9488959},{"id":"1082978144","name":"Kakitas Lanches","tags":"amenity:restaurant","lat":-19.9204835,"lng":-43.9487223},{"id":"1097242452","name":"Bradesco","tags":"amenity:bank,brand:Bradesco,brand:wikidata:Q806181,brand:wikipedia:en:Banco Bradesco","lat":-19.9315574,"lng":-43.9472125},{"id":"1097242457","name":"Itaú","tags":"amenity:bank,brand:Itaú Unibanco,brand:wikidata:Q1424293,brand:wikipedia:pt:Itaú Unibanco","lat":-19.9325156,"lng":-43.9482736},{"id":"1097287151","name":"Gosto de Casa","tags":"amenity:restaurant","lat":-19.9327188,"lng":-43.9580602},{"id":"1097319879","tags":"shop:supermarket","lat":-19.9310469,"lng":-43.9592992},{"id":"1097319882","name":"Pacheco","tags":"amenity:pharmacy,healthcare:pharmacy","lat":-19.9310568,"lng":-43.9594802},{"id":"1097319885","name":"Cantinho de Minas","tags":"amenity:restaurant,cuisine:brazilian","lat":-19.9312861,"lng":-43.9593752},{"id":"1097323683","name":"Banco do Brasil","tags":"amenity:bank,atm:yes,brand:Banco do Brasil,brand:wikidata:Q610817,brand:wikipedia:en:Banco do Brasil,drive_through:no,operator:Banco do Brasil","lat":-19.9305828,"lng":-43.9594918},{"id":"1097446480","name":"Postinho","tags":"shop:convenience","lat":-19.9664363,"lng":-43.9537991},{"id":"1097446482","name":"Aloha","tags":"amenity:nightclub","lat":-19.9662445,"lng":-43.9543733},{"id":"1097446501","name":"Entre Sabores","tags":"amenity:restaurant","lat":-19.9656396,"lng":-43.9545393},{"id":"1098129975","tags":"amenity:parking","lat":-19.9658513,"lng":-43.9547915},{"id":"1098362464","name":"Chalé Grill","tags":"amenity:restaurant,cuisine:regional","lat":-19.9606531,"lng":-43.9570124},{"id":"1098946906","name":"Centro Universitário UNA","tags":"amenity:university","lat":-19.9660537,"lng":-43.9544753},{"id":"1098946915","name":"Centro Universitário UNA","tags":"amenity:university","lat":-19.9655845,"lng":-43.9540617},{"id":"1099439432","name":"Bar do Doca","tags":"amenity:bar","lat":-19.9371118,"lng":-43.9593152},{"id":"1100276530","name":"Café com Tango","tags":"amenity:cafe","lat":-19.9306809,"lng":-43.9457463},{"id":"1100276539","name":"Bradesco","tags":"amenity:bank,brand:Bradesco,brand:wikidata:Q806181,brand:wikipedia:en:Banco Bradesco","lat":-19.9343101,"lng":-43.9463856},{"id":"1100402475","tags":"amenity:parking","lat":-19.9343214,"lng":-43.9462434},{"id":"1111816160","name":"Bistrô","tags":"amenity:restaurant,cuisine:french","lat":-19.8675387,"lng":-43.9798655},{"id":"1111816237","tags":"amenity:restaurant","lat":-19.8716424,"lng":-43.9800952},{"id":"1120711861","name":"Pizzarella","tags":"amenity:restaurant,cuisine:pizza","lat":-19.9547779,"lng":-43.9504435},{"id":"1120711871","name":"Droga Raia","tags":"amenity:pharmacy,brand:Droga Raia,brand:wikidata:Q10357101,brand:wikipedia:pt:RaiaDrogasil,healthcare:pharmacy","lat":-19.9631034,"lng":-43.949615},{"id":"1123482282","tags":"shop:supermarket","lat":-20.0001556,"lng":-43.9699421},{"id":"1139177998","name":"Tudo na Brasa","tags":"amenity:bar","lat":-19.8885279,"lng":-44.0021977},{"id":"1139194463","name":"Cantina Macarrão do Cabral","tags":"amenity:restaurant,cuisine:pasta","lat":-19.8848185,"lng":-44.0066475},{"id":"1181074476","name":"Droga Raia","tags":"amenity:pharmacy,brand:Droga Raia,brand:wikidata:Q10357101,brand:wikipedia:pt:RaiaDrogasil,healthcare:pharmacy","lat":-19.967939,"lng":-43.964426},{"id":"1181074572","name":"Drogaria Araújo","tags":"amenity:pharmacy,healthcare:pharmacy","lat":-19.9682012,"lng":-43.9646405},{"id":"1181074589","name":"Rancho Fundo;Loteria","tags":"addr:city:Belo Horizonte,addr:housenumber:1160,addr:street:Avenida Professor Mário Werneck,addr:suburb:Buritis,amenity:restaurant,shop:lottery","lat":-19.967364,"lng":-43.9630417},{"id":"1181074606","name":"Smart Fit","tags":"brand:Smart Fit,brand:wikidata:Q30930959,brand:wikipedia:pt:Smart Fit,leisure:fitness_centre","lat":-19.9679561,"lng":-43.9642004},{"id":"1183085995","name":"Swingers","tags":"amenity:bar","lat":-19.9708127,"lng":-43.9515462},{"id":"1183086000","name":"Utópica","tags":"amenity:bar","lat":-19.9721791,"lng":-43.9494648},{"id":"1184915480","tags":"amenity:parking,park_ride:yes","lat":-19.9746797,"lng":-43.947319},{"id":"1233658186","name":"Restaurante Dona Naná","tags":"amenity:restaurant","lat":-19.9389976,"lng":-44.0248792},{"id":"1234188643","name":"Nino Pizzaria","tags":"amenity:restaurant","lat":-19.9187593,"lng":-43.9769605},{"id":"1234188648","tags":"amenity:parking","lat":-19.9142339,"lng":-43.9766875},{"id":"1234188649","tags":"amenity:restaurant","lat":-19.914148,"lng":-43.9766822},{"id":"1234189621","name":"Epa Supermercados","tags":"addr:city:Belo Horizonte,addr:housenumber:2354,addr:street:Rua Padre Eustáquio,addr:suburb:Padre Eustáquio,shop:supermarket","lat":-19.9148021,"lng":-43.9748154},{"id":"1240914399","name":"Bar Tudo Legal","tags":"amenity:bar","lat":-19.936758,"lng":-43.9454952},{"id":"1240916124","name":"Bar Altas Horas","tags":"amenity:bar","lat":-19.9360012,"lng":-43.9454534},{"id":"1268796060","name":"Ponto do Frango","tags":"amenity:bar,food:yes","lat":-19.9658558,"lng":-43.9822972},{"id":"1268796116","name":"Bar do Ricardo","tags":"amenity:bar,phone:+55 31 2511-6672","lat":-19.9656622,"lng":-43.9818828},{"id":"1268796120","name":"Ximbungo's Bar","tags":"amenity:bar,food:yes","lat":-19.9657222,"lng":-43.9826989},{"id":"1268819619","name":"Fitness Hall","tags":"leisure:fitness_centre","lat":-19.9665855,"lng":-43.9843157},{"id":"1268841778","tags":"amenity:bar,food:yes","lat":-19.9662678,"lng":-43.9843085},{"id":"1270005382","tags":"shop:convenience","lat":-19.9613906,"lng":-43.9847362},{"id":"1270005389","name":"Itaú Ag. 4829","tags":"amenity:bank,atm:yes","lat":-19.9584374,"lng":-43.9866983},{"id":"1283125816","name":"Bradesco","tags":"amenity:bank,atm:yes,brand:Bradesco,brand:wikidata:Q806181,brand:wikipedia:en:Banco Bradesco,operator:Bradesco","lat":-19.9100955,"lng":-43.9654853},{"id":"1283125910","tags":"amenity:police","lat":-19.9078882,"lng":-43.9618404},{"id":"1291030042","name":"No Átrio","tags":"amenity:restaurant","lat":-19.9650637,"lng":-43.9543269},{"id":"1307049752","name":"Escola Municipal Randolfo Jose da Rocha","tags":"amenity:school","lat":-19.9322097,"lng":-44.0530649},{"id":"1307079031","tags":"amenity:pharmacy","lat":-19.9436369,"lng":-44.056643},{"id":"1307088096","name":"Escola Municipal Socrates Mariani Bittencourt","tags":"amenity:school","lat":-19.9315238,"lng":-44.0525822},{"id":"1307090744","tags":"amenity:school","lat":-19.9418064,"lng":-44.0432427},{"id":"1310686057","name":"Ponto do Espetinho 2","tags":"amenity:bar","lat":-19.9387988,"lng":-43.9475387},{"id":"1310686065","name":"Santander","tags":"amenity:bank,brand:Santander,brand:wikidata:Q5835668,brand:wikipedia:en:Santander Bank","lat":-19.9390735,"lng":-43.9476254},{"id":"1310703570","tags":"amenity:car_wash","lat":-19.9383407,"lng":-43.9473715},{"id":"1314393411","tags":"amenity:bar","lat":-19.9404946,"lng":-44.0580652},{"id":"1338122558","name":"Final 8103","tags":"amenity:bus_station,bus:yes,public_transport:station","lat":-19.9632862,"lng":-43.9477538},{"id":"1338487693","tags":"amenity:restaurant","lat":-19.8737528,"lng":-43.9679435},{"id":"1357628587","name":"3501A","tags":"amenity:bus_station,bus:yes,public_transport:station","lat":-19.8950174,"lng":-43.9920474},{"id":"1449295106","tags":"amenity:atm,operator:Banco do Brasil","lat":-19.9475251,"lng":-43.9495644},{"id":"1449295108","tags":"amenity:atm,operator:Banco do Brasil","lat":-19.9473637,"lng":-43.9488241},{"id":"1449295116","name":"Itaú","tags":"amenity:bank","lat":-19.947821,"lng":-43.9481316},{"id":"1449295120","name":"Pizzarela","tags":"amenity:restaurant","lat":-19.9463887,"lng":-43.9497544},{"id":"1462031750","name":"Faculdade do Espeto","tags":"amenity:bar","lat":-19.9025363,"lng":-43.9651686},{"id":"1462032109","tags":"amenity:parking","lat":-19.9021931,"lng":-43.9652916},{"id":"1481168083","name":"Itaú","tags":"amenity:bank,brand:Itaú Unibanco,brand:wikidata:Q1424293,brand:wikipedia:pt:Itaú Unibanco","lat":-19.9339769,"lng":-43.9460556},{"id":"1481256147","name":"Espetinho do Luizinho","tags":"amenity:bar","lat":-19.9240476,"lng":-43.9591016},{"id":"1507233673","name":"Prato Chick e Tábua de Frios","tags":"amenity:restaurant","lat":-19.9341145,"lng":-43.9530625},{"id":"1507233679","name":"Rodeio Churrascaria","tags":"amenity:restaurant,cuisine:regional","lat":-19.9337897,"lng":-43.9524194},{"id":"1507233681","name":"CEF","tags":"amenity:bank","lat":-19.9336888,"lng":-43.9528485},{"id":"1511455581","name":"Balaio de Gato","tags":"amenity:bar","lat":-19.9261134,"lng":-43.9462549},{"id":"1511455584","name":"Lancheria","tags":"amenity:cafe","lat":-19.9252964,"lng":-43.946003},{"id":"1514347581","name":"Bar do Mandruva","tags":"amenity:bar","lat":-19.9411872,"lng":-43.9489722},{"id":"1520469592","name":"Churrasco e Cia","tags":"addr:housenumber:995,addr:street:Rua Santa Catarina,amenity:restaurant","lat":-19.9214849,"lng":-43.9521635},{"id":"1529991291","name":"Adega do Sul","tags":"amenity:restaurant","lat":-19.9313377,"lng":-43.956307},{"id":"1542289632","name":"Faculdade Milton Campos","tags":"addr:city:Nova Lima,addr:housenumber:61,addr:street:Alameda Oscar Niemeyer,addr:suburb:Vila da Serra,amenity:university","lat":-19.9828209,"lng":-43.9460584},{"id":"1582698281","name":"Super Nosso","tags":"addr:city:Belo Horizonte,addr:housenumber:125,addr:street:Rua Romualdo Lopes Cançado,addr:suburb:Castelo,shop:supermarket","lat":-19.8916255,"lng":-43.9965225},{"id":"1582698291","tags":"amenity:hospital,healthcare:hospital","lat":-19.8746503,"lng":-44.0064092},{"id":"1582703294","tags":"amenity:school","lat":-19.8751043,"lng":-44.0065486},{"id":"1582707899","tags":"amenity:school","lat":-19.8683344,"lng":-43.9971596},{"id":"1588618780","name":"Mamma's Pizza","tags":"amenity:restaurant,cuisine:pizza","lat":-19.9103995,"lng":-43.978582},{"id":"1610351078","name":"Churrasquinho do Buritis","tags":"amenity:bar","lat":-19.9703723,"lng":-43.96559},{"id":"1611877501","name":"Mirante","tags":"shop:supermarket","lat":-19.9250617,"lng":-44.0009156},{"id":"1617030884","name":"Bar Dududu","tags":"amenity:bar","lat":-19.9374793,"lng":-43.9802233},{"id":"1654490770","name":"Supermercados Arrastão","tags":"shop:supermarket","lat":-20.0160201,"lng":-44.0893357},{"id":"1666513526","name":"Farmácia Drogapam","tags":"amenity:pharmacy,healthcare:pharmacy","lat":-19.9061563,"lng":-43.9772701},{"id":"1668656090","name":"Esquinão do Carrpicho","tags":"amenity:bar","lat":-19.9073401,"lng":-43.9578833},{"id":"1668660021","name":"Drogaria Pacheco","tags":"addr:street:Avenida Pedro II,amenity:pharmacy,healthcare:pharmacy","lat":-19.9086616,"lng":-43.9579182},{"id":"1668682204","name":"Itaú","tags":"amenity:bank,atm:yes,branch:Carlos Prates,brand:Itaú Unibanco,brand:wikidata:Q1424293,brand:wikipedia:pt:Itaú Unibanco","lat":-19.911307,"lng":-43.9551694},{"id":"1668687150","name":"Caixa Econômica Federal","tags":"amenity:bank,atm:yes,branch:Econônica,brand:Caixa Econômica Federal,brand:wikidata:Q835283,brand:wikipedia:pt:Caixa Econômica Federal","lat":-19.9104395,"lng":-43.955671},{"id":"1668690541","name":"Drograria Araújo","tags":"addr:street:Avenida Pedro II,amenity:pharmacy,healthcare:pharmacy","lat":-19.9079075,"lng":-43.9596621},{"id":"1673981118","name":"Restaurante da Regina","tags":"addr:housenumber:894,addr:street:Rua Icaraí,amenity:restaurant,phone:+55 31 3412-5944","lat":-19.9027906,"lng":-43.969674},{"id":"1673983466","tags":"amenity:car_wash","lat":-19.9053076,"lng":-43.9776079},{"id":"1683189523","name":"Ivanilde","tags":"amenity:restaurant,cuisine:regional","lat":-19.9760499,"lng":-43.945758},{"id":"1683189562","tags":"amenity:restaurant","lat":-19.9758993,"lng":-43.945328},{"id":"1683189565","tags":"amenity:restaurant","lat":-19.9760023,"lng":-43.9455725},{"id":"1683189568","tags":"amenity:parking,parking:surface","lat":-19.9764104,"lng":-43.9461837},{"id":"1684863172","name":"Baby Grill","tags":"addr:housenumber:3655,addr:street:Avenida Amazonas,amenity:restaurant,wheelchair:limited","lat":-19.9313429,"lng":-43.9667733},{"id":"1693386926","name":"UNA","tags":"amenity:university","lat":-19.9203908,"lng":-44.0757184},{"id":"1693387090","tags":"amenity:bank,atm:yes,brand:Itaú,operator:Itaú","lat":-19.9179093,"lng":-44.0798222},{"id":"1695289852","tags":"amenity:pharmacy,healthcare:pharmacy","lat":-19.8895784,"lng":-44.0124643},{"id":"1695289857","tags":"amenity:pharmacy,healthcare:pharmacy","lat":-19.889581,"lng":-44.0122953},{"id":"1700966309","name":"Churrasco do Carlinhos","tags":"addr:housenumber:116,addr:street:Rua Tietê,amenity:restaurant,cuisine:regional","lat":-19.9057807,"lng":-43.9689261},{"id":"1707915609","name":"Deck","tags":"amenity:bar","lat":-19.9052067,"lng":-43.9718817},{"id":"1707915611","name":"Esquina do churrasco","tags":"amenity:restaurant,operator:gaucho","lat":-19.8999586,"lng":-43.9681894},{"id":"1710040516","name":"Supermercado BH","tags":"addr:city:Belo Horizonte,addr:housenumber:1271,addr:street:Avenida Américo Vespúcio,addr:suburb:Parque Riachuelo,shop:supermarket","lat":-19.895986,"lng":-43.9605012},{"id":"1710086691","name":"Churrasquinho do Divino","tags":"amenity:bar","lat":-19.8947684,"lng":-43.9599465},{"id":"1719398379","name":"Ouro Beer","tags":"amenity:bar","lat":-19.8744732,"lng":-43.9901066},{"id":"1723315293","name":"Mulão","tags":"addr:housenumber:291,amenity:bar","lat":-19.9090992,"lng":-43.9683517},{"id":"1723329259","name":"Agosto Butequim","tags":"addr:housenumber:298,addr:street:Rua Esmeralda,amenity:bar","lat":-19.9255897,"lng":-43.9616199},{"id":"1723331976","name":"Ali Ba Bar","tags":"addr:housenumber:345,addr:street:Rua Matias Cardoso,amenity:bar","lat":-19.9330097,"lng":-43.9545872},{"id":"1723336270","name":"Autentico's Bar","tags":"addr:housenumber:895,addr:street:Avenida Professor Mário Werneck,amenity:bar","lat":-19.9669788,"lng":-43.9606544},{"id":"1723353536","name":"Pedacinhos do Céu","tags":"addr:housenumber:774,addr:street:Rua Belmiro Braga,amenity:bar","lat":-19.9063179,"lng":-43.9722832},{"id":"1723412807","name":"Bar do Ferreira","tags":"addr:housenumber:473,addr:street:Rua Pinheiro Chagas,amenity:bar","lat":-19.9810359,"lng":-44.0125089},{"id":"1723422483","name":"Drogavita","tags":"addr:housenumber:1955,addr:postcode:30720-476,addr:street:Rua Francisco Bicalho,amenity:pharmacy,healthcare:pharmacy,phone:+55 31 3462-4134","lat":-19.9050886,"lng":-43.9775128},{"id":"1726093849","name":"Bar do Zezé","tags":"addr:housenumber:406,addr:street:Rua Pinheiro Chagas,amenity:bar","lat":-19.9807762,"lng":-44.012732},{"id":"1726099977","name":"Brutus Lava Jato","tags":"amenity:car_wash","lat":-19.9063361,"lng":-43.9753187},{"id":"1726099978","name":"Drogaria São Camilo","tags":"amenity:pharmacy,healthcare:pharmacy","lat":-19.906147,"lng":-43.9754797},{"id":"1743118595","name":"Arigato","tags":"addr:housenumber:763,addr:street:Rua Rosinha Sigaud,amenity:restaurant,cuisine:sushi,website:http://arigatorestaurante.com.br/","lat":-19.9052175,"lng":-43.9720299},{"id":"1743759769","name":"Tôatôa Butequeria","tags":"amenity:bar,old_name:Primo's Bar;Ponto do Tropeiro","lat":-19.9015614,"lng":-43.9708563},{"id":"1743765603","name":"Centro Cultural TFLA","tags":"amenity:school","lat":-19.9024908,"lng":-43.9709019},{"id":"1748284564","name":"Bar da Tiana","tags":"amenity:restaurant,cuisine:regional","lat":-19.9018363,"lng":-43.9750257},{"id":"1757373139","name":"Drogaria Alvorada","tags":"amenity:pharmacy,healthcare:pharmacy","lat":-19.9065431,"lng":-43.9794688},{"id":"1768240615","name":"Patorroco","tags":"addr:housenumber:865,addr:street:Rua Turquesa,amenity:bar","lat":-19.9264996,"lng":-43.9662255},{"id":"1811979077","name":"Escola Municipal Luiz Gatti","tags":"amenity:school","lat":-19.9821323,"lng":-44.0261025},{"id":"1814129112","name":"Quadra de esportes","tags":"leisure:sports_centre,sport:soccer","lat":-19.9830239,"lng":-44.0261117},{"id":"1814129128","name":"Esporte Clube Colina","tags":"leisure:sports_centre","lat":-19.988335,"lng":-44.0308914},{"id":"1814129129","name":"Escola Municipal Padre Flávio Giametta","tags":"amenity:school","lat":-19.9775286,"lng":-44.0273778},{"id":"1815177221","name":"Apoio","tags":"shop:supermarket","lat":-19.9849013,"lng":-44.0349948},{"id":"1815177242","name":"Villefort","tags":"shop:supermarket","lat":-19.9787104,"lng":-44.0289652},{"id":"1815177245","name":"Correio","tags":"amenity:post_office","lat":-19.9763083,"lng":-44.0178822},{"id":"1815177259","name":"Escola Estadual Margarida Brochado","tags":"addr:housenumber:426,addr:postcode:30640-060,addr:street:Rua Barao de Coromandel,amenity:school,operator:Secretaria de Estado de Educação de Minas Gerais","lat":-19.9749894,"lng":-44.0171158},{"id":"1815177290","name":"Polícia Civil","tags":"amenity:police","lat":-19.9770998,"lng":-44.0215086},{"id":"1815177301","tags":"amenity:pharmacy","lat":-19.9746065,"lng":-44.0157366},{"id":"1818449018","name":"Caixa Econômica Federal","tags":"amenity:bank","lat":-19.9738196,"lng":-44.0189935},{"id":"1818449019","name":"Banco do Brasil","tags":"amenity:bank","lat":-19.9753523,"lng":-44.0134253},{"id":"1818449020","name":"Itaú","tags":"amenity:bank","lat":-19.9757253,"lng":-44.0132214},{"id":"1818449021","name":"Colégio Domiciano Vieira","tags":"amenity:school","lat":-19.9773286,"lng":-44.0226681},{"id":"1819439611","name":"1a Companhia - Polícia Militar","tags":"amenity:police","lat":-19.9904861,"lng":-44.0139946},{"id":"1819439615","name":"Supermercados BH","tags":"shop:supermarket","lat":-19.9897608,"lng":-44.0135325},{"id":"1821007530","tags":"amenity:bank,brand:Bradesco","lat":-19.9764967,"lng":-44.0167029},{"id":"1821007564","name":"Escola Estadual Engenheiro Francisco Bicalho","tags":"amenity:school,operator:Secretaria de Estado de Educação de Minas Gerais","lat":-19.9931635,"lng":-44.0074868},{"id":"1823163593","name":"Colégio Santa Cruz","tags":"amenity:school","lat":-19.9906228,"lng":-44.0082379},{"id":"1827055053","name":"Chalé Itália","tags":"amenity:restaurant,cuisine:pizza","lat":-19.9879804,"lng":-44.0088361},{"id":"1827161812","name":"UPA Barreiro","tags":"amenity:hospital","lat":-19.9959757,"lng":-44.0203321},{"id":"1827169158","name":"Escola Municipal Ana Alves Teixeira","tags":"amenity:school","lat":-19.9988995,"lng":-44.0067386},{"id":"1827169176","name":"Escola Municipal Aires da Mata Machado","tags":"amenity:school","lat":-19.9939189,"lng":-44.0349233},{"id":"1827169184","name":"Escola Estadual Prof. Cláudio Brandão","tags":"amenity:school,operator:Secretaria de Estado de Educação de Minas Gerais","lat":-19.9951086,"lng":-44.0351379},{"id":"1827169196","name":"Escola Municipal Sebastiao Guilherme Oliveira","tags":"amenity:school","lat":-19.9895029,"lng":-44.0297091},{"id":"1827171844","name":"Campo de Futebol Society","tags":"leisure:sports_centre,sport:soccer","lat":-19.9925906,"lng":-44.0063497},{"id":"1827171846","name":"Escola Sindical 7 de Outubro","tags":"amenity:school","lat":-19.9921041,"lng":-44.0063175},{"id":"1827555283","name":"Biblioteca Comunitária do Barreiro","tags":"amenity:library","lat":-19.9956704,"lng":-44.0051771},{"id":"1827555317","name":"Supermercado BH","tags":"shop:supermarket","lat":-19.9955139,"lng":-44.0055905},{"id":"1827555326","name":"Escola Estadual Lauriano Pimentel","tags":"amenity:school,operator:Secretaria de Estado de Educação de Minas Gerais","lat":-20.0033677,"lng":-44.0078864},{"id":"1827555331","name":"Centro de Saúde","tags":"amenity:hospital","lat":-19.9958492,"lng":-44.0053598},{"id":"1827624234","name":"Campo de Futebol","tags":"leisure:sports_centre,sport:soccer","lat":-19.9933261,"lng":-44.0006606},{"id":"1827644515","name":"Bradesco","tags":"amenity:bank","lat":-19.9846451,"lng":-44.0092678},{"id":"1827644534","name":"Itaú","tags":"amenity:bank","lat":-19.9841535,"lng":-44.0097102},{"id":"1827644542","name":"Academia Mergulho","tags":"leisure:sports_centre,sport:swimming","lat":-19.9846955,"lng":-44.0077577},{"id":"1827674205","name":"Colégio Santa Rita","tags":"amenity:school","lat":-19.9786255,"lng":-44.0122799},{"id":"1827674208","name":"Salão Verde","tags":"amenity:bar","lat":-19.9797316,"lng":-44.0112198},{"id":"1827736070","tags":"amenity:parking,parking:surface","lat":-19.9744712,"lng":-44.0166412},{"id":"1827736166","name":"Drogamario","tags":"amenity:pharmacy","lat":-19.9760409,"lng":-44.0149103},{"id":"1827736203","name":"Nature Derme","tags":"alt_name:Farmácia de Manipulação,amenity:pharmacy","lat":-19.9730998,"lng":-44.0165017},{"id":"1827983158","tags":"amenity:pharmacy","lat":-19.9776388,"lng":-44.0296459},{"id":"1828193469","name":"Escola Estadual Doutror José do Patrocício","tags":"amenity:school,operator:Secretaria de Estado de Educação de Minas Gerais","lat":-19.9818037,"lng":-43.9993001},{"id":"1828923488","name":"Bradesco","tags":"amenity:bank,brand:Bradesco,brand:wikidata:Q806181,brand:wikipedia:en:Banco Bradesco","lat":-19.9501258,"lng":-44.0127844},{"id":"1828923491","name":"Itaú","tags":"amenity:bank,brand:Itaú Unibanco,brand:wikidata:Q1424293,brand:wikipedia:pt:Itaú Unibanco","lat":-19.9512655,"lng":-44.0149194},{"id":"1828923492","name":"Banco do Brasil","tags":"amenity:bank,brand:Banco do Brasil,brand:wikidata:Q610817,brand:wikipedia:en:Banco do Brasil","lat":-19.9562373,"lng":-44.0273434},{"id":"1828938322","name":"Villefort Atacadista","tags":"shop:supermarket","lat":-19.9604702,"lng":-44.0163839},{"id":"1829275870","name":"Spermercados Vida","tags":"shop:supermarket","lat":-20.0116828,"lng":-44.0326112},{"id":"1829275878","name":"Escola Municipal Jonas Barcellos Corrêa","tags":"amenity:school","lat":-20.0154052,"lng":-44.0298459},{"id":"1829326146","name":"Bar do Lú","tags":"amenity:bar","lat":-19.9781045,"lng":-44.0261548},{"id":"1829326149","name":"Itaú","tags":"amenity:bank","lat":-19.9733149,"lng":-44.0187572},{"id":"1829326153","name":"Banco do Brasil","tags":"amenity:bank","lat":-19.9741719,"lng":-44.0214984},{"id":"1829326158","name":"Bio Fórmula","tags":"amenity:pharmacy","lat":-19.9738997,"lng":-44.0175288},{"id":"1829335389","name":"Escola Municipal Nossa Senhora Aparecida","tags":"amenity:school","lat":-19.970436,"lng":-44.0321044},{"id":"1829805373","name":"Escola Estadual Doutor Aurino Morais","tags":"amenity:school,operator:Secretaria de Estado de Educação de Minas Gerais","lat":-20.0096262,"lng":-44.0372407},{"id":"1829986243","name":"Escola Municipal Vinícius de Morais","tags":"amenity:school","lat":-19.9899868,"lng":-44.0390619},{"id":"1830064656","name":"Escola Estadual Ministro Alfredo de Vilhena Valadão","tags":"amenity:school,operator:Secretaria de Estado de Educação de Minas Gerais","lat":-19.9919781,"lng":-44.0379408},{"id":"1830091373","name":"Escola Municipal Helena Antipoff","tags":"amenity:school","lat":-19.9900624,"lng":-44.0449628},{"id":"1830253616","name":"Colégio Nebran","tags":"amenity:school","lat":-19.972639,"lng":-44.0320426},{"id":"1830321933","name":"Pista de Skate","tags":"leisure:sports_centre,sport:skateboard","lat":-19.9752547,"lng":-44.0239552},{"id":"1831973925","name":"Santander","tags":"amenity:bank","lat":-19.9766795,"lng":-44.0177906},{"id":"1831973929","tags":"amenity:bank,brand:Caixa Econômica Federal","lat":-19.976863,"lng":-44.0186226},{"id":"1831973934","name":"Minas Cervejaria","tags":"amenity:restaurant,cuisine:pizza","lat":-19.9767148,"lng":-44.0180588},{"id":"1831977226","name":"Chxico do Churrasco","tags":"amenity:restaurant,cuisine:steak_house","lat":-19.9772815,"lng":-44.0208029},{"id":"1831983019","name":"SESI","tags":"amenity:school","lat":-19.9779147,"lng":-44.0191209},{"id":"1831995414","name":"Celeiro de Minas","tags":"amenity:restaurant,cuisine:regional","lat":-19.9776525,"lng":-44.0240884},{"id":"1832172662","name":"Bar do Lú - Peixes","tags":"amenity:restaurant,cuisine:fish","lat":-19.9769694,"lng":-44.0207793},{"id":"1832174496","name":"Farmácia Santa Rita","tags":"amenity:pharmacy","lat":-19.9662152,"lng":-44.0151466},{"id":"1832210784","name":"Túnel Clube","tags":"leisure:sports_centre","lat":-19.9986223,"lng":-44.0499837},{"id":"1833740704","name":"Escola Municipal Júlia Kubitscheck","tags":"amenity:school","lat":-19.9793381,"lng":-44.0407753},{"id":"1834237542","name":"Polícia Militar - 39° Batalhão","tags":"amenity:police","lat":-19.9704118,"lng":-44.0382165},{"id":"1834259848","name":"Drogaria Glória","tags":"amenity:pharmacy","lat":-19.971105,"lng":-44.0386858},{"id":"1834266914","name":"Bradesco","tags":"amenity:bank","lat":-19.9685689,"lng":-44.0327018},{"id":"1834266915","name":"Itaú","tags":"amenity:bank","lat":-19.9682866,"lng":-44.032675},{"id":"1834268596","name":"Epa","tags":"shop:supermarket","lat":-19.969053,"lng":-44.034059},{"id":"1834268599","name":"Real","tags":"amenity:bank","lat":-19.9688412,"lng":-44.034279},{"id":"1834269001","name":"Drogaria Araújo","tags":"amenity:pharmacy","lat":-19.9692899,"lng":-44.0347779},{"id":"1834286089","name":"Caixa Econômica Federal","tags":"amenity:bank","lat":-19.9694261,"lng":-44.0352446},{"id":"1834315974","name":"SEST - Serviço Social do Transporte","tags":"leisure:sports_centre","lat":-19.9643488,"lng":-44.0338713},{"id":"1834440934","name":"Drogaria Ibirité","tags":"amenity:pharmacy","lat":-20.0235438,"lng":-44.0602491},{"id":"1834445389","tags":"amenity:post_office","lat":-20.0234682,"lng":-44.0604422},{"id":"1834445390","name":"Banco do Brasil","tags":"amenity:bank","lat":-20.0237454,"lng":-44.0597931},{"id":"1834455935","name":"Santander","tags":"amenity:bank","lat":-20.0236849,"lng":-44.0599702},{"id":"1834490285","name":"Polícia Militar - 214° Companhia","tags":"amenity:police","lat":-20.0258421,"lng":-44.0616921},{"id":"1837185237","name":"Biblioteca Comunitária","tags":"amenity:library","lat":-19.9938736,"lng":-44.0541193},{"id":"1839388811","name":"Polícia Militar","tags":"amenity:police","lat":-19.9481336,"lng":-44.0208307},{"id":"1841413546","name":"Drogaria Salmar","tags":"amenity:pharmacy","lat":-19.924992,"lng":-44.0080843},{"id":"1841419730","name":"Supermercado B2","tags":"shop:supermarket","lat":-19.9228208,"lng":-44.0055282},{"id":"1841419732","name":"Farmácia Popular","tags":"amenity:pharmacy","lat":-19.9229368,"lng":-44.0055335},{"id":"1841665354","name":"Centro de Saúde Pindorama","tags":"amenity:hospital","lat":-19.9097832,"lng":-44.0219704},{"id":"1841665356","name":"Escola Estadual Lucas Monteiro machado","tags":"amenity:school,operator:Secretaria de Estado de Educação de Minas Gerais","lat":-19.9098639,"lng":-44.0206183},{"id":"1841665366","name":"Escola Estadual Prof Maria Auxiliadora Lanna","tags":"amenity:school,operator:Secretaria de Estado de Educação de Minas Gerais","lat":-19.909415,"lng":-44.0220935},{"id":"1841929397","name":"Escola Municipal Padre Edeimar Massote","tags":"amenity:school","lat":-19.898334,"lng":-44.0221497},{"id":"1841937909","name":"Escola Estadual Laurita de Melo Moreira","tags":"addr:city:Contagem - MG,addr:housenumber:45,addr:street:Rua Fauna,addr:suburb:Novo Progresso,amenity:school,operator:Secretaria de Estado de Educação de Minas Gerais","lat":-19.8995698,"lng":-44.0261193},{"id":"1843105852","name":"Escola Municipal Luigi Toniolo","tags":"amenity:school","lat":-19.9021712,"lng":-44.0173085},{"id":"1843235895","name":"Colégio CEM","tags":"amenity:school","lat":-19.8922089,"lng":-44.0100022},{"id":"1843263475","name":"Escola Municipal Maria de Matos Silveira","tags":"amenity:school","lat":-19.8886173,"lng":-44.0169974},{"id":"1843302053","name":"Banco 24H","tags":"amenity:bank","lat":-19.8781648,"lng":-43.992879},{"id":"1843302054","name":"Supermercado BH","tags":"addr:city:Belo Horizonte,addr:housenumber:3295,addr:street:Avenida Presidente Tancredo Neves,addr:suburb:Castelo,shop:supermarket","lat":-19.878407,"lng":-43.992836},{"id":"1843444388","name":"Escola Estadual do Bairro Sarandi","tags":"addr:city:Belo Horizonte - MG,addr:housenumber:370,addr:street:Rua Deputado Augusto Gonçalves,addr:suburb:Serrano,amenity:school,operator:Secretaria de Estado de Educação de Minas Gerais","lat":-19.8749806,"lng":-44.0149037},{"id":"1853215229","name":"Supermercado BH","tags":"shop:supermarket","lat":-19.9862891,"lng":-44.0164058},{"id":"1853215616","tags":"amenity:pharmacy,healthcare:pharmacy","lat":-19.9870063,"lng":-44.0158597},{"id":"1865229789","tags":"amenity:car_wash","lat":-19.8855845,"lng":-44.0059038},{"id":"1866011068","tags":"amenity:car_wash","lat":-19.878823,"lng":-44.011679},{"id":"1869410889","tags":"amenity:car_wash","lat":-19.907361,"lng":-43.9626236},{"id":"1907538535","name":"Centro de Saúde Ouro Preto","tags":"amenity:hospital,healthcare:hospital","lat":-19.8852141,"lng":-43.9875309},{"id":"1934230105","name":"Panelão","tags":"shop:supermarket","lat":-19.9664086,"lng":-43.981482},{"id":"1936752498","tags":"amenity:atm","lat":-19.9686933,"lng":-43.981141},{"id":"1936752525","name":"Santander","tags":"amenity:bank,brand:Santander,brand:wikidata:Q5835668,brand:wikipedia:en:Santander Bank","lat":-19.9467494,"lng":-43.9487131},{"id":"1936752526","tags":"amenity:post_office","lat":-19.9448785,"lng":-43.9492308},{"id":"1936752546","tags":"amenity:police","lat":-19.9685893,"lng":-43.981238},{"id":"1967353773","name":"CIA do Boi","tags":"addr:street:Rua Valdiano Martins Inácio,amenity:restaurant,cuisine:steak_house","lat":-19.8764212,"lng":-43.990646},{"id":"1967361235","name":"Restaurante Bom Prato","tags":"addr:street:Rua Chapada do Norte,amenity:restaurant,cuisine:regional","lat":-19.8682685,"lng":-44.0003744},{"id":"1967368716","name":"Escola Municipal Santa Terezinha","tags":"addr:city:Belo Horizonte,addr:housenumber:180,addr:street:Rua Conceição da Aparecida,addr:suburb:Santa Terezinha,amenity:school","lat":-19.8711896,"lng":-44.0010476},{"id":"1967374681","name":"Espeto do Manoel III","tags":"addr:street:Rua Tancredo Neves,amenity:bar","lat":-19.8788654,"lng":-43.9928427},{"id":"1980234785","name":"Faculdade Novos Horizontes","tags":"amenity:university","lat":-19.9784177,"lng":-44.0248052},{"id":"1997268269","name":"Pizzaria Mangabeiras","tags":"addr:housenumber:1445,addr:street:Avenida Sinfrônio Brochado,amenity:restaurant,cuisine:pizza,website:http://www.mangabeiras.com.br","lat":-19.9784278,"lng":-44.0260953},{"id":"2011657460","name":"Restaurante Tradição da Roça","tags":"amenity:restaurant,cuisine:regional","lat":-19.956271,"lng":-44.0576569},{"id":"2011657475","name":"Makro","tags":"shop:supermarket","lat":-19.9574786,"lng":-44.0657411},{"id":"2018564791","name":"BiBlioteca Comunitária Messias de Freitas","tags":"amenity:library","lat":-19.9692095,"lng":-44.0372048},{"id":"2018564792","name":"Unidade de Referência para a saúde da Família","tags":"amenity:hospital","lat":-19.9694636,"lng":-44.0370629},{"id":"2019931177","name":"Peixe Vivo","tags":"amenity:nightclub","lat":-19.9426763,"lng":-44.0569649},{"id":"2022354487","name":"Drogaria Araújo","tags":"addr:city:contagem,addr:housenumber:2600,addr:street:Avenida João César de Oliveira,addr:suburb:Eldorado,amenity:pharmacy,drive_through:no","lat":-19.939043,"lng":-44.0469603},{"id":"2022354488","name":"Caixa Econômica Federal","tags":"amenity:bank","lat":-19.9385841,"lng":-44.0509675},{"id":"2022354489","name":"Bradesco","tags":"amenity:bank","lat":-19.9386245,"lng":-44.0512893},{"id":"2022354490","name":"Banco Merdantil","tags":"amenity:bank","lat":-19.9385992,"lng":-44.0511338},{"id":"2022354491","name":"Banco do Brasil","tags":"amenity:bank","lat":-19.938569,"lng":-44.0505812},{"id":"2022354839","name":"Itaú","tags":"amenity:bank","lat":-19.9386951,"lng":-44.051917},{"id":"2022359832","tags":"amenity:pharmacy","lat":-19.9388716,"lng":-44.0473787},{"id":"2038415189","tags":"amenity:bus_station,bus:yes,public_transport:station","lat":-19.8731778,"lng":-43.9661941},{"id":"2086372232","tags":"shop:convenience","lat":-19.9281682,"lng":-43.9800122},{"id":"2086372233","tags":"amenity:hospital,healthcare:hospital","lat":-19.9274142,"lng":-43.9775714},{"id":"2086372236","tags":"amenity:pharmacy,healthcare:pharmacy","lat":-19.9275075,"lng":-43.9772737},{"id":"2086372238","tags":"shop:supermarket","lat":-19.9299081,"lng":-43.9796421},{"id":"2086372243","tags":"amenity:school","lat":-19.9295298,"lng":-43.978014},{"id":"2168311428","name":"BarBambu","tags":"amenity:bar,wifi:no","lat":-19.9454753,"lng":-43.9818786},{"id":"2248923239","name":"Centro de Saúde Alcina Campos Taitson","tags":"amenity:hospital","lat":-20.020215,"lng":-44.0566733},{"id":"2285677928","name":"Lava-jato Posto Engenheiros","tags":"amenity:car_wash","lat":-19.8920323,"lng":-43.9986128},{"id":"2296585937","name":"Chalé Mineiro","tags":"amenity:restaurant","lat":-19.9368845,"lng":-43.9697944},{"id":"2296585938","name":"Lobo's Grill","tags":"amenity:restaurant,wheelchair:yes","lat":-19.9363736,"lng":-43.9701656},{"id":"2296585940","name":"Tropeiro da Lili","tags":"amenity:restaurant","lat":-19.9354746,"lng":-43.9711446},{"id":"2296585942","name":"Itaú","tags":"amenity:bank,atm:yes,brand:Itaú Unibanco,brand:wikidata:Q1424293,brand:wikipedia:pt:Itaú Unibanco,operator:Itaú,toilets:wheelchair:yes,wheelchair:yes","lat":-19.9347789,"lng":-43.9712512},{"id":"2320133264","name":"Farmácia Caiçara","tags":"amenity:pharmacy,dispensing:no,healthcare:pharmacy","lat":-19.9037715,"lng":-43.9721038},{"id":"2363395135","name":"Bistecão","tags":"amenity:restaurant,cuisine:regional","lat":-19.9131358,"lng":-43.9718409},{"id":"2365901952","name":"Banco do Brasil","tags":"amenity:atm,brand:Banco do Brasil,brand:wikidata:Q610817,operator:Banco do Brasil,operator:wikidata:Q610817","lat":-19.9110178,"lng":-43.968444},{"id":"2390229338","name":"Pizzaria Parola","tags":"addr:housenumber:730,addr:postcode:30642-140,addr:street:Rua Arthur Luchesi,amenity:restaurant,cuisine:pizza","lat":-19.9884935,"lng":-44.0105117},{"id":"2392313821","name":"Braseiro Grill","tags":"addr:housenumber:3185,addr:postcode:30660-560,addr:street:Avenida Waldir Soeiro Enrich,amenity:restaurant","lat":-19.9894556,"lng":-44.0114984},{"id":"2398291945","name":"Escola Municipal Carmelita Carvalho Garcia","tags":"addr:city:Belo Horizonte,addr:housenumber:53,addr:street:Rua Aluízio Davis,addr:suburb:Ouro Preto,amenity:school","lat":-19.8855855,"lng":-43.9870451},{"id":"2410962506","name":"Restaurante Rancho do Boi","tags":"amenity:restaurant","lat":-20.0077279,"lng":-43.9667102},{"id":"2435332912","name":"Araújo","tags":"amenity:pharmacy,healthcare:pharmacy","lat":-19.9629524,"lng":-43.9499827},{"id":"2435336646","name":"Boi Bento","tags":"amenity:bar","lat":-19.9621626,"lng":-43.9501065},{"id":"2441749771","name":"Praça Lagoa dos Patos","tags":"leisure:park","lat":-20.0079683,"lng":-43.9514481},{"id":"2443451607","name":"Hudson","tags":"amenity:restaurant,cuisine:regional","lat":-19.9721487,"lng":-44.1970323},{"id":"2482160825","name":"Namastê","tags":"addr:housenumber:355,addr:street:Avenida Francisco Sá,amenity:restaurant,cuisine:indian,opening_hours:Tu-Su,PH 11:00-15:00,19:00-24:00,phone:+55 31 3567-5200,website:http://www.restaurantenamaste.com.br/","lat":-19.9257772,"lng":-43.9592389},{"id":"2497121179","name":"Supermercados BH","tags":"shop:supermarket","lat":-20.0005599,"lng":-44.0082212},{"id":"2505464571","name":"Museu Paulo Araújo Moreira Gontijo","tags":"operator:FUNARBE,tourism:museum,wheelchair:yes","lat":-19.9672905,"lng":-44.2006243},{"id":"2506432946","name":"Cantina Vovó Olímpia","tags":"amenity:restaurant,cuisine:regional","lat":-19.9034385,"lng":-43.9658499},{"id":"2521471006","name":"Sushi Sam","tags":"addr:housenumber:1940,addr:street:Rua Francisco Bicalho,amenity:restaurant,cuisine:japanese,old_name:Golden Cabelereiros","lat":-19.9053396,"lng":-43.9772891},{"id":"2540225614","name":"Clínica Espaço Viver","tags":"leisure:fitness_centre","lat":-19.9051237,"lng":-43.9768762},{"id":"2563595997","name":"Policia Rodoviaria Federal","tags":"amenity:police,opening_hours:Mo-Su 09:00-21:00,operator:Polícia Rodoviária Federal,operator:wikidata:Q1158853,operator:wikipedia:pt:Polícia Rodoviária Federal,phone:+55 31 3530 6675,police:traffic_police","lat":-19.9966753,"lng":-44.2091287},{"id":"2590623208","name":"Ochi Sushi","tags":"amenity:restaurant,cuisine:japanese,phone:+55 31 3498-7145,website:www.ochisushi.com","lat":-19.8668193,"lng":-43.9845323},{"id":"2598979740","name":"Hospital Unimed Betim","tags":"amenity:hospital,emergency:no","lat":-19.9690672,"lng":-44.1964921},{"id":"2598980621","name":"Usina","tags":"amenity:restaurant","lat":-19.9708117,"lng":-44.1932192},{"id":"2598981397","name":"Detran-MG","tags":"addr:city:Betim,addr:housenumber:820,addr:street:Avenida das Américas,addr:suburb:Centro,amenity:police","lat":-19.9724755,"lng":-44.1912778},{"id":"2635394834","name":"Citibank","tags":"amenity:bank,brand:Citibank,brand:wikidata:Q857063,brand:wikipedia:en:Citibank,short_name:Citi","lat":-19.9277921,"lng":-43.9462809},{"id":"2635529008","name":"BB Estilo","tags":"amenity:bank","lat":-19.9274476,"lng":-43.9470167},{"id":"2675649483","name":"Capela de N. S. do Rosário","tags":"amenity:place_of_worship,building:church,denomination:roman_catholic,religion:christian","lat":-19.9650083,"lng":-44.2047669},{"id":"2683505327","name":"Supermercado BH","tags":"shop:supermarket","lat":-19.9350051,"lng":-44.0206146},{"id":"2684472492","tags":"amenity:restaurant,cuisine:pizza","lat":-19.964117,"lng":-43.9557672},{"id":"2693872566","tags":"description:Mercearia,shop:supermarket","lat":-19.9642803,"lng":-44.0524116},{"id":"2710039448","tags":"amenity:bar","lat":-19.9214916,"lng":-43.9957582},{"id":"2710039460","tags":"amenity:restaurant","lat":-19.9214614,"lng":-43.9960852},{"id":"2710039464","tags":"amenity:bar","lat":-19.9203518,"lng":-43.9968552},{"id":"2723795119","name":"Cia do Peixe","tags":"amenity:restaurant,cuisine:fish","lat":-19.9336118,"lng":-44.0169407},{"id":"2723795122","name":"Amarelim","tags":"amenity:bar","lat":-19.9330851,"lng":-44.0166721},{"id":"2868708241","name":"Alho Poró","tags":"amenity:restaurant,capacity:30,cuisine:regional","lat":-19.9396714,"lng":-43.9770104},{"id":"2868712430","name":"Supermercados BH","tags":"addr:city:Belo Horizonte,addr:housenumber:438,addr:street:Rua Gávea,addr:suburb:Jardim América,shop:supermarket,wheelchair:yes","lat":-19.9399841,"lng":-43.9777588},{"id":"2868718296","name":"Drogaria Araújo","tags":"amenity:pharmacy,toilets:wheelchair:no,wheelchair:yes","lat":-19.9402091,"lng":-43.9779815},{"id":"2958454833","tags":"addr:street:Rua Miosótis,amenity:restaurant,cuisine:sandwich","lat":-19.9048759,"lng":-43.9595289},{"id":"2988477304","name":"Carrefour","tags":"addr:city:Belo Horizonte,addr:housenumber:374,addr:street:Avenida Prudente de Morais,addr:suburb:CIDADE JARDIM,brand:Carrefour,brand:wikidata:Q217599,brand:wikipedia:fr:Carrefour (enseigne),shop:supermarket","lat":-19.9394014,"lng":-43.9480429},{"id":"3014256734","tags":"amenity:parking,entrance:yes","lat":-19.9295311,"lng":-43.9797738},{"id":"3043549872","tags":"shop:convenience","lat":-19.9380932,"lng":-43.947233},{"id":"3043549875","name":"Cantina da Naná","tags":"amenity:restaurant,cuisine:regional","lat":-19.9375034,"lng":-43.9470611},{"id":"3043565634","name":"Peixinho","tags":"amenity:restaurant,cuisine:fish","lat":-19.936192,"lng":-43.9469058},{"id":"3043565635","tags":"amenity:cafe","lat":-19.9382293,"lng":-43.9476297},{"id":"3043565638","tags":"amenity:atm,fee:24h","lat":-19.9382415,"lng":-43.9472502},{"id":"3043565639","name":"Vatel","tags":"amenity:restaurant,cuisine:regional","lat":-19.9359752,"lng":-43.9468199},{"id":"3084962102","name":"DuCarmo Self Service","tags":"amenity:restaurant,opening_hours:Mo-Fr 11:00-15:00; Sa 11:00-15:00","lat":-19.923854,"lng":-43.9507798},{"id":"3107967038","name":"Caixa Economica Federal","tags":"amenity:bank,atm:yes","lat":-19.8697236,"lng":-43.9617626},{"id":"3117729750","name":"Padaria e Confeitaria São João","tags":"shop:supermarket","lat":-19.9283899,"lng":-44.0466556},{"id":"3120938522","name":"Kero Kero","tags":"addr:city:Belo Horizonte,addr:housenumber:615,addr:street:Rua Coronel José Benjamim,addr:suburb:Padre Eustáquio,amenity:restaurant,capacity:150,cuisine:burger,opening_hours:Tu-Su 18:00-24:00; Mo off,phone:+55 31 2514-0041,wheelchair:yes","lat":-19.9191385,"lng":-43.9748357},{"id":"3190435861","name":"Biblioteca Professor Rubens Costa Romanelli","tags":"amenity:library","lat":-19.8660602,"lng":-43.9604343},{"id":"3202482810","name":"Spoleto","tags":"amenity:restaurant,cuisine:italian","lat":-19.8640664,"lng":-43.9706431},{"id":"3202482814","name":"Braga Pão de Queijo","tags":"amenity:restaurant,cuisine:mineiro","lat":-19.8674942,"lng":-43.9713003},{"id":"3202482816","name":"Koni","tags":"amenity:restaurant,cuisine:japanese","lat":-19.8641673,"lng":-43.9706619},{"id":"3202482817","name":"Museu Brasileiro do Futebol","tags":"addr:city:Belo Horizonte,addr:street:Avenida Coronel Oscar Paschoal,addr:suburb:Pampulha,contact:facebook:https://www.facebook.com/mineiraooficial,contact:instagram:https://www.instagram.com/mineirao,contact:phone:+55 31 3499-4304;+55 31 3499-4312,contact:twitter:https://twitter.com/mineirao,contact:website:http://estadiomineirao.com.br/museu-e-visita/,contact:youtube:https://www.youtube.com/channel/UCIJey5lcfMIjoI4I7wUtbSw,museum:history,opening_hours:Tu-Fr 09:00-17:00; Sa-Su 09:00-13:00,tourism:museum","lat":-19.8663227,"lng":-43.9721413},{"id":"3202596720","name":"Mercearia Du Lar","tags":"shop:convenience","lat":-19.9093273,"lng":-43.9466232},{"id":"3227078159","name":"Drogaria Araujo","tags":"addr:city:Belo Horizonte,addr:housenumber:2208,addr:street:Rua Padre Eustáquio,addr:suburb:Padre Eustáquio,amenity:pharmacy,brand:Drogaria Araujo,brand:wikidata:Q10268807,healthcare:pharmacy,wheelchair:yes","lat":-19.9148934,"lng":-43.9734535},{"id":"3227078893","name":"Caixa Econômica Federal","tags":"addr:city:Belo Horizonte,addr:housenumber:2571,addr:street:Rua Padre Eustáquio,addr:suburb:Padre Eustáquio,amenity:bank,brand:Caixa Econômica Federal,brand:wikidata:Q835283,wheelchair:yes","lat":-19.9151078,"lng":-43.9770275},{"id":"3227089568","name":"Banco do Brasil","tags":"addr:city:Belo Horizonte,addr:housenumber:2783,addr:street:Rua Padre Eustáquio,addr:suburb:Padre Eustáquio,amenity:bank,brand:Banco do Brasil,brand:wikidata:Q610817","lat":-19.9150018,"lng":-43.9788458},{"id":"3227092859","name":"Supermecado BH","tags":"addr:city:Belo Horizonte,addr:housenumber:2763,addr:street:Rua Padre Eustáquio,addr:suburb:Padre Eustáquio,shop:supermarket","lat":-19.9151621,"lng":-43.9792614},{"id":"3227138111","name":"Number One Padre Eustáquio","tags":"addr:city:Belo Horizonte,addr:housenumber:742,addr:street:Rua Cesário Alvim,addr:suburb:Padre Eustáquio,amenity:school","lat":-19.9161177,"lng":-43.9743162},{"id":"3260399086","tags":"amenity:police","lat":-19.9429766,"lng":-43.9632942},{"id":"3260399087","tags":"amenity:school","lat":-19.9427258,"lng":-43.9631185},{"id":"3265807352","name":"Caixa Econômica Federal","tags":"addr:city:Belo Horizonte,addr:housenumber:1328,addr:street:Rua Platina,addr:suburb:Calafate,amenity:bank,brand:Caixa Econômica Federal,brand:wikidata:Q835283,brand:wikipedia:pt:Caixa Econômica Federal","lat":-19.9231157,"lng":-43.9696824},{"id":"3298637906","name":"Banco Itaú","tags":"addr:city:Betim,addr:housenumber:97,addr:postcode:32560-210,addr:street:Praça Tiradentes,addr:suburb:Centro,amenity:bank,atm:yes,opening_hours:11:00-16:00","lat":-19.9670448,"lng":-44.1991638},{"id":"3299132687","name":"Nature Derme","tags":"amenity:pharmacy","lat":-19.9669031,"lng":-44.2000347},{"id":"3305697654","name":"Colégio Bernoulli","tags":"amenity:school","lat":-19.9270917,"lng":-43.953965},{"id":"3322143368","tags":"amenity:post_office","lat":-19.8711748,"lng":-43.982831},{"id":"3323729848","name":"Drogaria Araujo","tags":"amenity:pharmacy,dispensing:yes,healthcare:pharmacy","lat":-19.8678897,"lng":-43.9757392},{"id":"3325576218","name":"Sushi Japa São Bento","tags":"amenity:restaurant","lat":-19.9551601,"lng":-43.95002},{"id":"3325970881","name":"Projeto Sabor","tags":"amenity:restaurant","lat":-19.9549706,"lng":-43.9500239},{"id":"3327610318","name":"EPA Plus","tags":"shop:supermarket","lat":-19.9639156,"lng":-43.9493965},{"id":"3329975152","name":"Drogaria Araújo","tags":"amenity:pharmacy,dispensing:yes,drive_through:no,healthcare:pharmacy,wheelchair:yes","lat":-19.9539766,"lng":-43.9499135},{"id":"3329986337","name":"Greenwich Schools","tags":"amenity:school","lat":-19.9539966,"lng":-43.9495685},{"id":"3329986880","name":"Academia Alta Energia","tags":"leisure:sports_centre","lat":-19.9539849,"lng":-43.9492853},{"id":"3371059049","name":"Posto Batistão","tags":"addr:housenumber:880,addr:postcode:30610-270,addr:street:Rua Desembargador Reis Alves,amenity:fuel,brand:Shell,shop:convenience","lat":-19.9657589,"lng":-43.9978992},{"id":"3432112045","name":"Centro de Distribuição Norte","tags":"addr:housenumber:1065,addr:street:Avenida Dom Pedro II,amenity:post_office,opening_hours:Mo-Fr 12:00-17:00; PH off,operator:Correios,operator:wikidata:Q3375004,operator:wikipedia:en:Correios","lat":-19.9138734,"lng":-43.9540487},{"id":"3525795914","name":"Creche Criança Feliz","tags":"amenity:childcare","lat":-19.9775575,"lng":-44.0326114},{"id":"3525819275","name":"Escola Municipal Maria do Amparo","tags":"amenity:school","lat":-19.9779674,"lng":-44.0357785},{"id":"3529416150","name":"Restaurante Dona Ana","tags":"addr:city:Belo Horizonte,addr:housenumber:50,addr:street:Rua Maria,addr:suburb:Santa Maria,amenity:restaurant","lat":-19.9344665,"lng":-44.0134607},{"id":"3529416158","name":"Sacolão Vem Que Tem","tags":"addr:city:Belo Horizonte,addr:housenumber:77,addr:street:Rua Maria,addr:suburb:Santa Maria,shop:supermarket","lat":-19.9346219,"lng":-44.0134068},{"id":"3676272886","name":"Partage Shopping Betim","tags":"access:yes,amenity:parking,fee:yes,parking:surface,surface:asphalt","lat":-19.9618532,"lng":-44.1592696},{"id":"3685989658","name":"Rima dos Sabores","tags":"addr:housenumber:522,addr:postcode:30411-191,addr:street:Rua Esmeralda,amenity:restaurant,opening_hours:Tu-Sa 18:00+,phone:+55 31 3243-7120,unnecessary:addr:city:Belo Horizonte,unnecessary:addr:suburb:Prado,website:https://www.rimadossabores.com.br/","lat":-19.9277779,"lng":-43.9622356},{"id":"3798859771","tags":"amenity:police","lat":-19.8721934,"lng":-43.988522},{"id":"3798859774","name":"Espetos","tags":"amenity:bar","lat":-19.8699187,"lng":-43.9859888},{"id":"3810302901","name":"Posto Pica Pau","tags":"addr:housenumber:10325,addr:street:Avenida do Contorno,alt_name:Posto Oceano,amenity:fuel,brand:Shell,phone:+55 31 3399-7000,shop:convenience","lat":-19.9177202,"lng":-43.9555071},{"id":"3831391958","name":"Hortfrut","tags":"addr:city:Belo Horizonte,addr:street:Rua José Ribeiro Filho,shop:supermarket","lat":-19.871553,"lng":-43.99023},{"id":"3831440608","name":"Bradesco","tags":"addr:city:Belo Horizonte - MG,addr:street:Av. Antônio Carlos,amenity:bank,atm:yes,brand:Bradesco,brand:wikidata:Q806181,brand:wikipedia:en:Banco Bradesco","lat":-19.8682538,"lng":-43.9557678},{"id":"3831493729","name":"Chico da Cafua","tags":"amenity:restaurant,cuisine:regional","lat":-19.9226147,"lng":-44.0028148},{"id":"3833632894","name":"Wood's","tags":"addr:city:Belo Horizonte,addr:housenumber:154,addr:postcode:34000-000,addr:street:Alameda da Serra,addr:suburb:Vale do Sereno,amenity:nightclub,opening_hours:We 22:00-05:00; Fr-Sa 22:00-05:00","lat":-19.9833186,"lng":-43.9455879},{"id":"3882182968","name":"Aasbemge","tags":"leisure:sports_centre","lat":-19.8704562,"lng":-43.9893414},{"id":"4031192206","name":"Maria Fumaça","tags":"amenity:restaurant,cuisine:buffet,source:name:survey","lat":-19.9006872,"lng":-43.9676137},{"id":"4088670388","name":"Beneplácito","tags":"amenity:restaurant","lat":-19.9684862,"lng":-44.2061081},{"id":"4088766239","name":"ABC","tags":"shop:supermarket","lat":-19.9674939,"lng":-44.209775},{"id":"4124563097","name":"Vila Oeste","tags":"addr:city:Belo Horizonte,addr:housenumber:300,addr:street:Rua Quilombo,addr:suburb:Vila Oeste,internet_access:no,operator:Companhia Brasileira de Trens Urbanos,public_transport:station,railway:station,subway:yes,wheelchair:yes,wikidata:Q10276220,wikipedia:pt:Estação Vila Oeste","lat":-19.9391367,"lng":-44.0032536},{"id":"4178175793","tags":"addr:street:Rua Professor Antônio Aleixo,amenity:school","lat":-19.9329514,"lng":-43.9460539},{"id":"4178175794","tags":"amenity:school,name:en:Loyola College,wikidata:Q18473735,wikipedia:en:Loyola College, Belo Horizonte","lat":-19.9348815,"lng":-43.9501661},{"id":"4209053733","name":"EPA","tags":"addr:housenumber:1600,addr:postcode:30480240,addr:street:Rua Platina,opening_hours:Mo-Fr 08:00-21:00; Sa 08:00-22:00; Su 08:00-14:00,phone:+55 31 3334-1387,shop:supermarket,website:https://www.epa.com.br/","lat":-19.9250211,"lng":-43.9715331},{"id":"4215324359","name":"Boi Werneck","tags":"addr:city:Belo Horizonte,addr:housenumber:678,addr:street:Avenida Professor Mário Werneck,addr:suburb:Buritis,amenity:restaurant","lat":-19.9669946,"lng":-43.9583534},{"id":"4227475838","name":"Bangalô Lanches","tags":"amenity:restaurant","lat":-19.9509259,"lng":-44.0008561},{"id":"4271086390","name":"Pio XII","tags":"shop:supermarket","lat":-19.9502304,"lng":-44.0015837},{"id":"4285546389","name":"Retrô - bar e restaurante","tags":"addr:housenumber:21,addr:street:Praça dos Moraes,amenity:bar,opening_hours:Mo-Su 10:00-23:00","lat":-19.9673145,"lng":-44.1909246},{"id":"4327069172","name":"Restaurante Popular do Ressaca","tags":"addr:city:Contagem,addr:street:Rua Rodrigues da Cunha,amenity:restaurant,capacity:400,cuisine:regional,delivery:no,opening_hours:Mo-Fr 11:00-14:00,smoking:outside,takeaway:no","lat":-19.8859917,"lng":-44.034521},{"id":"4327069173","name":"Epa","tags":"addr:street:Rua Extrema,shop:supermarket","lat":-19.8860283,"lng":-44.030652},{"id":"4327069174","name":"Meninas Charmosas Inst. de Beleza","tags":"addr:city:Contagem,addr:housenumber:405,addr:postcode:321145-540,addr:street:Rua Lucia Canedo,addr:suburb:Guanabara,opening_hours:Mo-Sa 08:00-20:00,operator:Cissa Silva,shop:beauty","lat":-19.8860825,"lng":-44.0315049},{"id":"4327069175","name":"Escola Municipal Cel. Joaquim Antônio da Rocha","tags":"addr:street:Rua Diamante,amenity:school","lat":-19.8835426,"lng":-44.0297105},{"id":"4327069176","name":"131 Comp. Polícia militar","tags":"addr:street:Rua Diamante,amenity:police","lat":-19.884124,"lng":-44.0301987},{"id":"4327249405","name":"UPA Ressaca","tags":"addr:city:Contagem,addr:housenumber:200,addr:street:Rua Extrema,addr:suburb:Guanabara,amenity:hospital,emergency:yes,healthcare:hospital","lat":-19.886973,"lng":-44.0307217},{"id":"4359317727","name":"Biblioteca Manoel Lopes de Siqueira","tags":"amenity:library,level:3,operator:Departamento de Física","lat":-19.8690451,"lng":-43.9652952},{"id":"4359317728","tags":"amenity:restaurant,note:pt:o operador do restaurante muda de tempos em tempos, não colque ele no campo nome,operator:Casa da Lua","lat":-19.8699986,"lng":-43.9630904},{"id":"4397623193","name":"E.E. Aristides José da Silva","tags":"amenity:school,name:pt:E.E. Aristides José da Silva","lat":-19.9487519,"lng":-44.111768},{"id":"4397679791","name":"Ponto Certo","tags":"name:pt:Ponto Certo,shop:supermarket","lat":-19.9520468,"lng":-44.1084699},{"id":"4397713793","name":"Agência Correios Pedro II","tags":"addr:housenumber:2662,addr:street:Avenida Dom Pedro II,amenity:post_office","lat":-19.9099096,"lng":-43.9661069},{"id":"4408899591","name":"Farmácia da Praça","tags":"amenity:pharmacy,healthcare:pharmacy,name:pt:Farmácia da Praça","lat":-19.893443,"lng":-43.9582694},{"id":"4408923493","name":"lava jato EcoDucha","tags":"amenity:car_wash,name:pt:lava jato EcoDucha","lat":-19.8900846,"lng":-43.9693141},{"id":"4415311697","tags":"amenity:bar","lat":-20.0383704,"lng":-44.2205606},{"id":"4422675828","tags":"amenity:cafe","lat":-19.8663457,"lng":-44.01974},{"id":"4428326583","name":"Biblioteca Professor Antônio Luiz Paixão","tags":"amenity:library,opening_hours:09:00-17:00","lat":-19.8669728,"lng":-43.9614521},{"id":"4429786533","name":"Escola Educar","tags":"addr:city:Belo Horizonte,addr:housenumber:511,addr:street:Avenida Serrana,addr:suburb:Serrano,amenity:school","lat":-19.8810514,"lng":-44.0117924},{"id":"4430040445","tags":"amenity:library","lat":-19.8914696,"lng":-44.0004227},{"id":"4523187000","tags":"amenity:restaurant","lat":-19.9233425,"lng":-43.9937703},{"id":"4529108991","name":"Dia","tags":"addr:housenumber:782,addr:street:Rua Araguari,brand:Dia,brand:wikidata:Q925132,brand:wikipedia:es:Supermercados DIA,name:pt:Supermercado Dia,opening_hours:Mo-Sa 09:00-21:00; Su 09:00-14:00,shop:supermarket,website:https://www.dia.com.br/","lat":-19.9251743,"lng":-43.9499809},{"id":"4529261289","name":"Banco do Brasil","tags":"addr:city:Belo Horizonte,addr:housenumber:342,addr:postcode:30190-081,addr:street:Rua Mato Grosso,addr:suburb:Barro Preto,amenity:bank,atm:yes,brand:Banco do Brasil,brand:wikidata:Q610817,brand:wikipedia:en:Banco do Brasil,contact:email:age3014@bb.com.br,contact:phone:+55 31 3275-2306,opening_hours:Mo-Fr 10:00-16:00","lat":-19.9210059,"lng":-43.9474661},{"id":"4532714102","name":"Momento Super Nosso","tags":"addr:city:Belo Horizonte,addr:housenumber:747,addr:postcode:30180-090,addr:street:Rua Paracatu,addr:suburb:Barro Preto,name:pt:Momento Super Nosso,opening_hours:Mo-Sa 07:00-21:00; PH,Su 08:00-14:00; PH,phone:+55 31 3359-3265,shop:supermarket,website:http://momentosupernosso.com.br","lat":-19.9246276,"lng":-43.9524513},{"id":"4537751689","name":"Supermercados BH","tags":"addr:city:Belo Horizonte,addr:housenumber:231,addr:postcode:30720-100,addr:street:Rua dos Pampas,name:pt:Supermercados BH,opening_hours:Mo-Sa 08:00-21:00; Su 08:00-13:00,shop:supermarket,website:https://www.supermercadosbh.com.br/","lat":-19.9207049,"lng":-43.9598386},{"id":"4539327450","name":"Drogaria Araújo","tags":"addr:city:Belo Horizonte,addr:housenumber:303,addr:street:Rua Diabase,amenity:pharmacy,dispensing:yes,healthcare:pharmacy,website:https://www.araujo.com.br/","lat":-19.9216454,"lng":-43.9603017},{"id":"4540958292","name":"Drogamaxi","tags":"addr:housenumber:1188,addr:postcode:30550000,addr:street:Rua Lagoa da Prata,amenity:pharmacy,dispensing:no,email:atendimento@drogamaxi.com.br,healthcare:pharmacy,name:pt:Drogamaxi,opening_hours:Mo-Sa 07:00-22:00,phone:+55 31 3317-6070,website:https://www.drogamaxi.com.br/","lat":-19.9472879,"lng":-43.984746},{"id":"4558692589","name":"Campanário Restaurante e Cafeteria","tags":"addr:housenumber:271,addr:street:Rua Paracatu,amenity:restaurant,name:pt:Campanário Restaurante e Cafeteria","lat":-19.9203544,"lng":-43.9512469},{"id":"4561429791","name":"R&A CLEAN CAR Estética Automotiva","tags":"addr:housenumber:185,addr:postcode:30626380,addr:street:Rua Augusto Muniz,amenity:car_wash,email:r.a.cleancar@hotmail.com,internet_access:wlan,name:pt:R&A CLEAN CAR Estética Automotiva,opening_hours:Mo-Sa 08:00-18:00,phone:+55 31 99298-7700","lat":-20.0046826,"lng":-44.0039929},{"id":"4561692175","name":"Posto de saúde","tags":"addr:city:Contagem,addr:housenumber:1643,addr:postcode:32115-160,addr:street:Rua Alvimar Rezende,addr:suburb:Novo Progresso,amenity:hospital","lat":-19.8958266,"lng":-44.0260436},{"id":"4562644061","name":"Unidade de Pronto Atendimento Contagem","tags":"addr:city:Contagem,addr:housenumber:47,addr:street:Rua Joaquim Camargos,addr:suburb:Centro,amenity:hospital,emergency:yes,healthcare:hospital,internet_access:no,phone:+553131987155,short_name:UPA Contagem,website:https://www.contagem.mg.gov.br/","lat":-19.9107839,"lng":-44.082188},{"id":"4562661158","tags":"brand:Am Pm,shop:convenience","lat":-19.9224963,"lng":-43.9741678},{"id":"4562661167","tags":"amenity:pharmacy,brand:Araújo,healthcare:pharmacy","lat":-19.922411,"lng":-43.9739749},{"id":"4571968601","name":"Restaurante Varanda Gourmet","tags":"amenity:restaurant,name:pt:Restaurante Varanda Gourmet","lat":-19.9223113,"lng":-43.9526973},{"id":"4572993590","name":"Restaurante Chalé Mineiro","tags":"amenity:restaurant,name:pt:Restaurante Chalé Mineiro","lat":-19.9210501,"lng":-43.9550885},{"id":"4573017690","name":"Bitenca Bar e Restaurante","tags":"amenity:restaurant,name:pt:Bitenca Bar e Restaurante","lat":-19.9219171,"lng":-43.9542245},{"id":"4576196395","name":"Ponto final da linha 2910 / 2890","tags":"addr:street:Rua 13,amenity:bus_station,name:pt:Ponto final da linha 2910 / 2890","lat":-19.9166687,"lng":-44.0351733},{"id":"4591596991","name":"Escola Municipal Prefeito Luiz da Cunha","tags":"amenity:school,short_name:EM Prefeito Luiz da Cunha","lat":-19.9039106,"lng":-44.0713431},{"id":"4591596992","name":"Escola Municipal Otacir Nunes dos Santos","tags":"amenity:school,short_name:EM Otacir Nunes dos Santos","lat":-19.9172249,"lng":-44.0751022},{"id":"4593692028","name":"Escola Municipal Coronel Druval de Barros","tags":"amenity:school,short_name:EM Coronel Druval de Barros","lat":-19.9805496,"lng":-44.0614734},{"id":"4594132546","name":"Escola Municipal José Diniz Costa Belém","tags":"amenity:school,source:name:IBGE","lat":-19.9184349,"lng":-44.0968002},{"id":"4594164503","name":"Escola Municipal José Lucas Filho","tags":"amenity:school,short_name:EM José Lucas Filho,source:name:IBGE","lat":-19.9255827,"lng":-44.087179},{"id":"4597892989","name":"Banco Bradesco","tags":"addr:street:Rua Úrsula Paulino,amenity:bank,name:pt:Banco Bradesco","lat":-19.9602392,"lng":-43.989613},{"id":"4597893089","name":"Banco do Brasil","tags":"addr:street:Rua Úrsula Paulino,amenity:bank,name:pt:Banco do Brasil","lat":-19.9597776,"lng":-43.9893759},{"id":"4597893189","name":"Caixa Econômica Federal","tags":"addr:street:Rua Úrsula Paulino,amenity:bank,name:pt:Caixa Econômica Federal","lat":-19.9590164,"lng":-43.9885662},{"id":"4601742489","name":"Petites Buffet","tags":"addr:housenumber:1287,addr:street:Rua Santa Catarina,name:pt:Petites Buffet,opening_hours:Mo-Fr 08:00-18:00,tourism:attraction","lat":-19.9320112,"lng":-43.9463228},{"id":"4605855490","name":"Igreja presbiteriana do Bonsucesso","tags":"addr:housenumber:1910,addr:street:Rua Doutor Cristiano Rezende,amenity:place_of_worship,building:church,denomination:presbyterian,religion:christian,service_times:Su 19:00-21:00; We, Fr 20:00-21:00","lat":-19.9871731,"lng":-43.9895279},{"id":"4613175134","name":"Escola Municipal Joaquim de Souza Silva","tags":"amenity:school","lat":-19.9157399,"lng":-44.0355448},{"id":"4613175135","name":"Igreja São Francisco de Assis","tags":"amenity:place_of_worship,building:church,denomination:catholic,religion:christian","lat":-19.9162947,"lng":-44.0353355},{"id":"4617095403","name":"Escola Estadual José Mauro de Vasconcellos","tags":"amenity:school,operator:Secretaria de Estado de Educação de Minas Gerais,short_name:EE José Mauro de Vasconcellos","lat":-19.9697791,"lng":-44.0466956},{"id":"4617095431","name":"Escola Estadual General Carlos Luiz Guedes","tags":"amenity:school,operator:Secretaria de Estado de Educação de Minas Gerais,short_name:EE General Carlos Luiz Guedes","lat":-19.9747604,"lng":-44.0455402},{"id":"4617131910","name":"10° Igreja Presbiteriana","tags":"addr:housenumber:845,addr:street:Rua Santa Alexandrina,amenity:place_of_worship,building:church,denomination:presbyterian,religion:christian","lat":-19.98919,"lng":-44.0024356},{"id":"4617149936","name":"Escola Estadual Gastão da Cunha","tags":"amenity:school,operator:Secretaria de Estado de Educação de Minas Gerais,short_name:EE Gastão da Cunha","lat":-19.9446863,"lng":-44.030407},{"id":"4617315260","name":"Escola Municipal Vasco Pinto da Fonseca","tags":"amenity:school,short_name:EM Vasco Pinto da Fonseca","lat":-19.9399474,"lng":-44.0382497},{"id":"4622417881","name":"Escola Municipal Dora de Mattos","tags":"addr:city:Contagem,addr:housenumber:206,addr:street:Rua Rio Sanhoá,addr:suburb:Eldorado,amenity:school,short_name:EM Dora de Mattos","lat":-19.9216364,"lng":-44.030877},{"id":"4623163690","name":"Amarelim - Grelhados e Comida de Buteco","tags":"addr:housenumber:658,addr:street:Avenida Francisco Sá,amenity:bar,cuisine:fish;grill;fish_and_chips;brazilian;kebab;friture,name:pt:Amarelim - Grelhados e Comida de Buteco","lat":-19.9280595,"lng":-43.959751},{"id":"4630849335","name":"Escola Municipal Izabel Nascimento de Matos","tags":"amenity:school","lat":-19.9302878,"lng":-44.114596},{"id":"4630849492","name":"Escola Estadual Manoel de Mattos Pinho","tags":"addr:city:Contagem - MG,addr:housenumber:760,addr:street:Rua Presbítero João Rosa da Silva,addr:suburb:Santa Helena,amenity:school,operator:Secretaria de Estado de Educação de Minas Gerais","lat":-19.9240556,"lng":-44.0991224},{"id":"4630864807","name":"Escola Municipal Osório de Aleixo","tags":"amenity:school","lat":-19.930098,"lng":-44.1043165},{"id":"4630864816","name":"Igreja Sagrado Coração","tags":"amenity:place_of_worship,building:church,denomination:roman_catholic,religion:christian","lat":-19.9297926,"lng":-44.1010425},{"id":"4630864846","name":"Escola Municipal Arthur Trindade","tags":"addr:city:Betim,addr:housenumber:69,addr:street:Rua Paraná,addr:suburb:Vila Universal,amenity:school","lat":-19.9341893,"lng":-44.1099806},{"id":"4630864847","name":"Escola Municipal Geferson Ventura de Souza","tags":"amenity:school","lat":-19.9323738,"lng":-44.109235},{"id":"4630878595","name":"Escola Estadual do Bairro Amazonas","tags":"amenity:school,operator:Secretaria de Estado de Educação de Minas Gerais","lat":-19.9439931,"lng":-44.1009218},{"id":"4630878599","name":"Escola Municipal Israel José Carlos","tags":"addr:city:betim,addr:housenumber:341,addr:postcode:32678-325,addr:street:Rua Nova York,addr:suburb:imbiruçu,amenity:school,religion:christian","lat":-19.9415461,"lng":-44.1062018},{"id":"4634461656","tags":"amenity:parking","lat":-19.8698925,"lng":-43.9719353},{"id":"4636452331","name":"Supermercados BH","tags":"shop:supermarket","lat":-19.973981,"lng":-44.0422426},{"id":"4669561791","name":"Drogarias Pacheco","tags":"amenity:pharmacy,healthcare:pharmacy,name:pt:Drogarias Pacheco","lat":-19.928198,"lng":-43.9491756},{"id":"4670210365","tags":"amenity:school","lat":-20.037801,"lng":-44.1416781},{"id":"4670219046","name":"Escola Municipal Eva Fernandes Caldeira","tags":"amenity:school","lat":-20.0295004,"lng":-44.1419356},{"id":"4695978888","tags":"amenity:pharmacy","lat":-19.9431247,"lng":-44.2718411},{"id":"4699625410","name":"Drogaria Araújo","tags":"addr:city:Belo Horizonte,addr:housenumber:3399,addr:postcode:30575-180,addr:street:Avenida Professor Mário Werneck,addr:suburb:Buritis,amenity:pharmacy,dispensing:yes,drive_through:no,healthcare:pharmacy,opening_hours:Mo-Su 08:00-20:00,opening_hours:covid19:same,payment:cash:yes,payment:credit_cards:yes,payment:debit_cards:yes,phone:+55 31 3270-5378,website:http://araujo.com.br,wheelchair:yes","lat":-19.9767227,"lng":-43.9766054},{"id":"4710815459","tags":"shop:beauty","lat":-19.976402,"lng":-43.9767565},{"id":"4710815461","name":"Supermercados BH","tags":"shop:supermarket","lat":-19.9733487,"lng":-43.9754532},{"id":"4733096785","name":"EM Itamar Franco","tags":"amenity:school","lat":-20.0123551,"lng":-44.0265485},{"id":"4763053357","name":"Lagoa dos patos","tags":"leisure:park","lat":-19.9385005,"lng":-43.9989599},{"id":"4764414062","name":"Coleguium","tags":"amenity:school","lat":-19.962062,"lng":-43.9650844},{"id":"4786218180","name":"santo Henrique","tags":"addr:street:rua cassimiro de abreu pires 477 woshinton pires,amenity:childcare","lat":-19.9888588,"lng":-44.0587349},{"id":"4786238754","name":"rua estrada do barreirinho águia dourada","tags":"addr:housenumber:10,addr:street:rua estrada do barreirinho águia dourada,amenity:childcare","lat":-20.0242628,"lng":-44.0316805},{"id":"4786270821","tags":"addr:housenumber:48,addr:street:rua 31 Palmeiras,amenity:childcare","lat":-19.9795718,"lng":-44.0777804},{"id":"4786280212","tags":"addr:housenumber:112,addr:street:estrada do Barreirinho águias dourada,amenity:childcare","lat":-20.0247953,"lng":-44.0328966},{"id":"4786282385","name":"alvorada","tags":"addr:housenumber:162,addr:street:Rua Ulisses de Caetano de Lima,amenity:childcare,name:pt:alvorada","lat":-20.025968,"lng":-44.062599},{"id":"4786289463","tags":"addr:housenumber:219,addr:street:rua Antônio simão da costa, Regina,amenity:childcare","lat":-19.9816133,"lng":-44.0572535},{"id":"4786327826","tags":"addr:housenumber:45,addr:street:rua oito Bela Vista,amenity:childcare","lat":-19.9699997,"lng":-44.0503754},{"id":"4786344648","name":"Alvorada","tags":"addr:housenumber:634,addr:street:Rua Helena Maria de Freitas,amenity:childcare,name:pt:Alvorada","lat":-20.0210414,"lng":-44.0655072},{"id":"4786357853","name":"alvorada","tags":"addr:housenumber:203,addr:street:Rua Freitas de Oliveira,amenity:childcare,name:pt:alvorada","lat":-20.0258084,"lng":-44.0585015},{"id":"4786374740","tags":"addr:housenumber:297,addr:street:Rua Artur Ferreira Campos,amenity:childcare","lat":-20.021365,"lng":-44.0625344},{"id":"4792181834","tags":"addr:housenumber:258,addr:street:rua solon cardoso naves Regina,amenity:childcare","lat":-19.9809187,"lng":-44.0563106},{"id":"4795520520","tags":"shop:beauty","lat":-19.9347925,"lng":-44.0176013},{"id":"4795521821","tags":"amenity:restaurant,cuisine:chicken,delivery:yes,outdoor_seating:no,takeaway:yes","lat":-19.9348278,"lng":-44.0175799},{"id":"4795521822","name":"i9 Academia","tags":"addr:city:Belo Horizonte,addr:housenumber:815,addr:street:Rua João Batista Viera,addr:suburb:Camargos,leisure:fitness_centre,opening_hours:06:00 - 22:00,sport:gym","lat":-19.9354027,"lng":-44.0176094},{"id":"4797217776","name":"Varanda","tags":"addr:city:Belo Horizonte,addr:housenumber:260,addr:street:Avenida Altamiro Avelino Soares,addr:suburb:Castelo,amenity:restaurant,cuisine:pizza,delivery:yes,phone:+553134766112,takeaway:yes","lat":-19.8837612,"lng":-43.9969325},{"id":"4837051213","name":"Caixa Econômica Federal","tags":"amenity:bank,brand:Caixa Econômica Federal,brand:wikidata:Q835283,brand:wikipedia:pt:Caixa Econômica Federal,opening_hours:Mo-Fr 10:00-16:00","lat":-19.9678024,"lng":-43.9634712},{"id":"4837051215","name":"Epa","tags":"shop:supermarket","lat":-19.9678728,"lng":-43.9637169},{"id":"4840282349","name":"Verdim","tags":"addr:city:Belo Horizonte - MG,addr:street:Avenida Santa Terezinha,amenity:restaurant,capacity:200,cuisine:regional,delivery:yes,outdoor_seating:no,takeaway:yes","lat":-19.8724793,"lng":-44.0040837},{"id":"4840285235","name":"Verdim Cabral","tags":"addr:city:Belo Horizonte - MG,addr:street:Alameda dos Sabiás,amenity:restaurant,capacity:200,cuisine:regional","lat":-19.8780934,"lng":-44.0444421},{"id":"4858228043","name":"Una-Barro preto","tags":"addr:street:Rua dos Goitacazes,amenity:university,internet_access:yes","lat":-19.9209576,"lng":-43.9476802},{"id":"4879558341","name":"Varanda do Corel","tags":"addr:city:Belo Horizonte,addr:street:Avenida Dom José Gaspar,amenity:restaurant,capacity:198,cuisine:regional,takeaway:yes","lat":-19.9253925,"lng":-43.9921089},{"id":"4880040963","name":"Lava Jato Primu's Trato","tags":"addr:housenumber:1840,addr:street:Rua Henrique Gorceix,amenity:car_wash,phone:+55 31 99261 8043;+55 31 98709 7908","lat":-19.9080319,"lng":-43.9793792},{"id":"4966532239","name":"Supernosso","tags":"addr:city:Belo Horizonte,addr:housenumber:2461,addr:street:Avenida Professor Mário Werneck,addr:suburb:Buritis,contact:phone:+55 31 3359 - 3241,contact:website:https://www.supernossoemcasa.com.br,opening_hours:Mo-Sa 07:00-21:00; Su 08:00-20:00,shop:supermarket","lat":-19.9763842,"lng":-43.9705093},{"id":"4967015912","name":"Drogaria Araújo","tags":"addr:city:Belo Horizonte,addr:housenumber:1226,addr:street:Rua José Rodrigues Pereira,amenity:pharmacy,drive_through:no","lat":-19.9693088,"lng":-43.9637276},{"id":"4967015913","name":"Itaú","tags":"addr:city:Belo Horizonte,addr:housenumber:1686,addr:postcode:30455-610,addr:street:Avenida Professor Mário Werneck,amenity:bank,atm:yes,brand:Itaú Unibanco,brand:wikidata:Q1424293,brand:wikipedia:pt:Itaú Unibanco,description:Agência Bairro Buritis,drive_through:no,opening_hours:Mo-Fr 10:00-16:00","lat":-19.971081,"lng":-43.9657598},{"id":"4967071058","name":"Adega Minas Gerais Gourmet","tags":"addr:city:Belo Horizonte,addr:housenumber:60,addr:postcode:30575-834,addr:street:Avenida Aggeo Pio Sobrinho,addr:suburb:Buritis,amenity:restaurant,cuisine:steak_house;regional,opening_hours:Mo 09:00-18:00, Tu-Sa 09:00-22:00, Su 09:00-18:00,opening_hours:covid19:same,outdoor_seating:yes,phone:+55 31 3658 9440,website:https://adegaminasgerais.com.br/","lat":-19.9738411,"lng":-43.9771929},{"id":"4967073987","name":"Drogaria Araújo","tags":"addr:city:Belo Horizonte,addr:housenumber:1440,addr:street:Avenida Dom João VI,shop:chemist","lat":-19.9685234,"lng":-43.9811691},{"id":"4972133039","name":"Banco24Horas","tags":"amenity:atm,brand:Banco24Horas,brand:wikidata:Q4854069","lat":-19.9106938,"lng":-43.9679772},{"id":"4977715127","name":"Drogaria PagueMenos","tags":"amenity:pharmacy,healthcare:pharmacy","lat":-19.976037,"lng":-43.9718228},{"id":"4977715128","name":"Drogaria Araújo","tags":"amenity:pharmacy,healthcare:pharmacy","lat":-19.9759069,"lng":-43.9711348},{"id":"4986135629","name":"Banco Santander","tags":"addr:city:Belo Horizonte,addr:housenumber:1204,addr:street:Rua José Rodrigues Pereira,amenity:bank,operator:Santander","lat":-19.9694539,"lng":-43.9638269},{"id":"4986159916","name":"Dia","tags":"brand:Dia,brand:wikidata:Q925132,brand:wikipedia:es:Supermercados DIA,shop:supermarket","lat":-19.9501002,"lng":-43.9992634},{"id":"5051229223","name":"Banco Mercantil do Brasil","tags":"addr:housenumber:1514,addr:street:Avenida Augusto de Lima,amenity:bank,atm:yes,wheelchair:yes","lat":-19.9212318,"lng":-43.9506718},{"id":"5051229224","name":"Bradesco","tags":"addr:housenumber:286,addr:street:Rua Juiz de Fora,amenity:bank,atm:yes,brand:Bradesco,brand:wikidata:Q806181,brand:wikipedia:en:Banco Bradesco,wheelchair:yes","lat":-19.9204886,"lng":-43.9528362},{"id":"5051229225","name":"Caixa Econômica Federal","tags":"addr:housenumber:1578,addr:street:Avenida Augusto de Lima,amenity:bank,atm:yes,brand:Caixa Econômica Federal,brand:wikidata:Q835283,brand:wikipedia:pt:Caixa Econômica Federal,wheelchair:yes","lat":-19.9211396,"lng":-43.9510457},{"id":"5067550179","name":"Bradesco","tags":"addr:city:Belo Horizonte,addr:housenumber:999,addr:postcode:30190-131,addr:street:Avenida Barbacena,addr:suburb:Santo Agostinho,amenity:bank,atm:yes,brand:Bradesco,brand:wikidata:Q806181,brand:wikipedia:en:Banco Bradesco,contact:phone:+55 31 3335-9666,contact:website:www.bradesco.com.br","lat":-19.926648,"lng":-43.9512671},{"id":"5078923295","name":"Restaurante e Churrascaria Uai Thcê","tags":"amenity:restaurant,cuisine:grill","lat":-19.9114797,"lng":-43.96782},{"id":"5078923302","name":"Auto Espeto","tags":"amenity:bar","lat":-19.9125115,"lng":-43.9747759},{"id":"5078923304","name":"Drograria Progresso","tags":"amenity:pharmacy,healthcare:pharmacy","lat":-19.9123787,"lng":-43.9771048},{"id":"5078963388","name":"Bradesco","tags":"amenity:bank,atm:yes,brand:Bradesco,brand:wikidata:Q806181","lat":-19.910226,"lng":-43.981928},{"id":"5078963390","name":"Banco do Brasil","tags":"amenity:bank,atm:yes,brand:Banco do Brasil,brand:wikidata:Q610817","lat":-19.909606,"lng":-43.9822832},{"id":"5158398207","tags":"access:private,amenity:parking","lat":-20.010629,"lng":-44.0143108},{"id":"5161422221","name":"Papo de anjo","tags":"amenity:restaurant","lat":-19.9200722,"lng":-43.9502817},{"id":"5184027204","name":"Biblioteca Professora Etelvina Lima","tags":"addr:city:Belo Horizonte,addr:street:Avenida Reitor Mendes Pimentel,amenity:library,email:bib@eci.ufmg.br,internet_access:wlan,opening_hours:Mo-Fr 07:00-22:00,operator:Escola de Ciência da Informação","lat":-19.8659036,"lng":-43.961539},{"id":"5193814125","name":"Dia","tags":"addr:city:Belo Horizonte,addr:housenumber:1770,addr:postcode:30350-540,addr:street:Avenida Raja Gabaglia,addr:suburb:Gutierrez,brand:Dia,brand:wikidata:Q925132,brand:wikipedia:es:Supermercados DIA,opening_hours:Mo-Su 08:00-20:00,shop:supermarket","lat":-19.948956,"lng":-43.9615525},{"id":"5209878821","name":"Ukai Sushi House","tags":"addr:housenumber:38,addr:street:Rua Almirante Alexandrino,amenity:restaurant","lat":-19.9319205,"lng":-43.9560543},{"id":"5210983323","name":"Smart Fit","tags":"addr:city:Belo Horizonte,addr:housenumber:600,addr:street:Rua Guaicuí,addr:suburb:Coracao de Jesus,brand:Smart Fit,brand:wikidata:Q30930959,brand:wikipedia:pt:Smart Fit,leisure:fitness_centre,sport:musculação","lat":-19.9471073,"lng":-43.9546043},{"id":"5210983352","name":"Drogaria Pacheco","tags":"addr:street:Rua Guaicuí,amenity:pharmacy,healthcare:pharmacy","lat":-19.9468282,"lng":-43.953333},{"id":"5210983365","name":"Drogaria Araujo","tags":"amenity:pharmacy,healthcare:pharmacy","lat":-19.9472691,"lng":-43.9550694},{"id":"5210983373","name":"Especial","tags":"leisure:fitness_centre","lat":-19.9472845,"lng":-43.955334},{"id":"5212726723","name":"Minas Farma","tags":"addr:city:Belo Horizonte,addr:housenumber:2000,addr:postcode:30180-001,addr:street:Avenida Amazonas,addr:suburb:Barro Preto,amenity:pharmacy,dispensing:yes,drive_through:no,healthcare:pharmacy,opening_hours:24/7","lat":-19.9259838,"lng":-43.9512866},{"id":"5215947679","name":"Dona Amélia Supermercado","tags":"addr:city:Belo Horizonte,addr:housenumber:1740,addr:postcode:30451-540,addr:street:Avenida Raja Gabaglia,addr:suburb:Cidade Jardim,opening_hours:Mo-Su 08:00-20:00,shop:supermarket","lat":-19.95065,"lng":-43.9613989},{"id":"5216366000","name":"Restaurante PORTO DEL MUNDO","tags":"addr:city:Belo Horizonte,addr:housenumber:35,addr:postcode:30451-525,addr:street:Rua PRINCIPAL,addr:suburb:VILA ANTENA,amenity:restaurant,cuisine:regional","lat":-19.9497749,"lng":-43.9618704},{"id":"5216400645","tags":"leisure:park","lat":-19.9491197,"lng":-43.9627357},{"id":"5216455044","name":"Bar DO DENTINHO","tags":"addr:city:Belo Horizonte,addr:housenumber:275,addr:postcode:30451-225,addr:street:Rua MARCELO ARAUJO DE BRAGA,addr:suburb:VILA ANTENA,amenity:bar","lat":-19.9463343,"lng":-43.9614533},{"id":"5216681296","name":"MAJA MAJA","tags":"amenity:restaurant","lat":-19.9510025,"lng":-43.9612352},{"id":"5216690372","name":"Bradesco","tags":"amenity:bank,brand:Bradesco,brand:wikidata:Q806181,brand:wikipedia:en:Banco Bradesco","lat":-19.9475656,"lng":-43.9608197},{"id":"5216695982","name":"Charlote","tags":"amenity:restaurant","lat":-19.9485716,"lng":-43.9612125},{"id":"5216705832","name":"Empório Raja","tags":"amenity:restaurant","lat":-19.9488667,"lng":-43.9612868},{"id":"5216725922","name":"Cristália Produtos Químicos e Farmacêuticos","tags":"amenity:pharmacy,healthcare:pharmacy","lat":-19.9490872,"lng":-43.9615708},{"id":"5217109726","name":"Vaga para PNE","tags":"amenity:parking,shop:supermarket","lat":-19.9441436,"lng":-43.9568561},{"id":"5217109727","name":"Vagas para Motos","tags":"amenity:parking","lat":-19.9441766,"lng":-43.9568997},{"id":"5217109728","name":"Comercios","tags":"amenity:cafe","lat":-19.944121,"lng":-43.9565908},{"id":"5217109742","name":"Estacionamento Particular","tags":"amenity:restaurant","lat":-19.9514126,"lng":-43.9608868},{"id":"5217109743","name":"Caixa d'agua Copasa","tags":"leisure:park","lat":-19.9494991,"lng":-43.961494},{"id":"5218655851","name":"O Rei Raja Sport Bar / MR2 Society","tags":"addr:city:Belo Horizonte - MG,addr:housenumber:1211,addr:postcode:30160-041,addr:street:Avenida Raja Gabaglia,addr:suburb:Cidade Jardim,amenity:restaurant","lat":-19.9460726,"lng":-43.9580037},{"id":"5218660246","tags":"amenity:parking","lat":-19.9562753,"lng":-43.9572582},{"id":"5221322103","name":"Bem Natural","tags":"addr:city:Belo Horizonte,addr:housenumber:1640,addr:street:Avenida Augusto de Lima,addr:suburb:Barro Preto,amenity:restaurant,takeaway:yes","lat":-19.9209361,"lng":-43.951927},{"id":"5221936526","name":"Bar dos Amigos","tags":"amenity:bar","lat":-19.9468144,"lng":-43.961706},{"id":"5226552880","name":"Dia","tags":"addr:city:Belo Horizonte,addr:housenumber:1770,addr:postcode:30350-540,addr:street:Avenida Raja Gabaglia,addr:suburb:Gutierrez,brand:Dia,brand:wikidata:Q925132,brand:wikipedia:es:Supermercados DIA,description:supermercado da rede dia,shop:supermarket","lat":-19.9492679,"lng":-43.9613507},{"id":"5228155903","name":"arvore","tags":"leisure:park","lat":-19.9481509,"lng":-43.9561905},{"id":"5228155904","name":"arvore","tags":"leisure:park","lat":-19.9481992,"lng":-43.9564918},{"id":"5228473337","tags":"shop:supermarket","lat":-19.947647,"lng":-43.9580699},{"id":"5228721725","tags":"amenity:car_wash","lat":-19.9471075,"lng":-43.9613878},{"id":"5229260100","tags":"leisure:park","lat":-19.9419813,"lng":-43.9530083},{"id":"5229260101","tags":"leisure:park","lat":-19.9406046,"lng":-43.9515733},{"id":"5229260102","tags":"leisure:park","lat":-19.9416333,"lng":-43.950723},{"id":"5229260103","tags":"leisure:park","lat":-19.9401155,"lng":-43.9504441},{"id":"5229260104","tags":"leisure:park","lat":-19.9398179,"lng":-43.9495777},{"id":"5229280158","tags":"leisure:park","lat":-19.934731,"lng":-43.9510724},{"id":"5229280159","tags":"leisure:park","lat":-19.9383159,"lng":-43.9560903},{"id":"5229280168","tags":"leisure:park","lat":-19.9352367,"lng":-43.9525768},{"id":"5229280174","tags":"leisure:park","lat":-19.9369598,"lng":-43.9496965},{"id":"5229388313","name":"Pracinha do sereno","tags":"leisure:park","lat":-19.9443444,"lng":-43.9613383},{"id":"5239586025","name":"Araújo","tags":"amenity:pharmacy,healthcare:pharmacy,wheelchair:yes","lat":-19.9344384,"lng":-43.9716582},{"id":"5240927521","name":"Quem é Esse Restaurante e Lanchonete","tags":"addr:housenumber:1545,addr:street:Rua dos Goitacazes,amenity:restaurant","lat":-19.9200131,"lng":-43.9514724},{"id":"5240927522","name":"Villa França Salgados, Lanches e Almoço Executivo","tags":"addr:housenumber:1543,addr:street:Rua dos Goitacazes,amenity:restaurant,phone:+55 31 2512-3383","lat":-19.9200351,"lng":-43.9513783},{"id":"5258106267","name":"Praça Arco Verde","tags":"leisure:park","lat":-19.9493482,"lng":-43.9903224},{"id":"5260535316","name":"Drogaria Araújo","tags":"amenity:pharmacy,healthcare:pharmacy","lat":-19.9280631,"lng":-43.9508974},{"id":"5282115472","name":"Epa","tags":"shop:supermarket","lat":-19.960029,"lng":-43.98678},{"id":"5282135116","name":"BH","tags":"shop:supermarket","lat":-19.9601533,"lng":-43.9893018},{"id":"5282986694","name":"Escola Estadual Carlos Drummond de Andrade","tags":"addr:city:Betim,addr:housenumber:630,addr:postcode:32666412,addr:street:Rua Patrocínio,addr:suburb:Vila Cristina,amenity:school","lat":-19.9348981,"lng":-44.1399925},{"id":"5300172159","tags":"leisure:park","lat":-19.8977643,"lng":-44.0872283},{"id":"5300677482","name":"Academia ao ar livre","tags":"addr:city:Belo Horizonte,addr:street:Praça Chui,addr:suburb:João Pinheiro,leisure:fitness_centre","lat":-19.9269493,"lng":-44.0015799},{"id":"5300678085","name":"Instituto de Beleza Santana","tags":"addr:city:Belo Horizonte,addr:housenumber:360,addr:postcode:30530-180,addr:street:Rua Padre Leopoldo Bretano,addr:suburb:João Pinheiro,operator:Lourdes Conceição Sanana,shop:beauty","lat":-19.92948,"lng":-43.997584},{"id":"5303347166","name":"Droga Raia","tags":"amenity:pharmacy,brand:Droga Raia,brand:wikidata:Q10357101,brand:wikipedia:pt:RaiaDrogasil,healthcare:pharmacy","lat":-19.9756222,"lng":-43.9679097},{"id":"5313985316","name":"Escola Municipal Dom Orione","tags":"addr:city:Belo Horizonte,addr:housenumber:500,addr:postcode:31310-040,addr:street:Avenida Expedicionário Benvindo Belém de Lima,addr:suburb:Ouro Preto,amenity:school","lat":-19.8677197,"lng":-43.97873},{"id":"5314069335","tags":"amenity:atm,description:Caixa 24h","lat":-19.8710231,"lng":-43.9814058},{"id":"5314075277","tags":"addr:city:Belo Horizonte - MG,addr:housenumber:488,addr:postcode:31310-530,addr:street:Rua Monteiro Lobato,addr:suburb:Ouro Preto,amenity:atm,description:2 Unidades de Caixa 24h dentro do EPA","lat":-19.8730932,"lng":-43.9855498},{"id":"5322723462","name":"Araújo","tags":"addr:city:Belo Horizonte,addr:housenumber:560,addr:street:Avenida dos Engenheiros,addr:suburb:Castelo,amenity:pharmacy,drive_through:yes,healthcare:pharmacy","lat":-19.8912514,"lng":-43.9985785},{"id":"5362545412","name":"Eldorado","tags":"addr:city:Contagem,addr:housenumber:530,addr:street:Rua Jequitibás,addr:suburb:Eldorado,public_transport:station,railway:station,station:subway,subway:yes","lat":-19.9386989,"lng":-44.0294166},{"id":"5363031124","name":"Cidade Industrial","tags":"addr:city:Belo Horizonte,addr:housenumber:85,addr:street:Rua Cláudio Oliveira Neves,addr:suburb:Camargos,public_transport:station,railway:station,station:subway,subway:yes,wikidata:Q10275648","lat":-19.9455273,"lng":-44.0164592},{"id":"5365396588","name":"Carlos Prates","tags":"addr:city:Belo Horizonte,addr:housenumber:2875,addr:street:Avenida Nossa Senhora de Fátima,addr:suburb:Carlos Prates,public_transport:station,railway:station,station:subway,subway:yes,wikidata:Q10275631","lat":-19.9174707,"lng":-43.9564401},{"id":"5365398604","name":"Calafate","tags":"addr:city:Belo Horizonte,addr:housenumber:1052,addr:street:Avenida Guaratan,addr:suburb:Calafate,public_transport:station,railway:station,station:subway,subway:yes,wikidata:Q10275617","lat":-19.9223787,"lng":-43.9703206},{"id":"5375078559","name":"Armazém do Campo Produtos da Terra","tags":"addr:city:belo horizonte,addr:housenumber:2136,addr:street:Avenida Augusto de Lima,addr:suburb:barro preto,contact:email:armazemdocampobh@gmail.com,contact:facebook:facebook.com/ArmazemDoCampoProdutosDaTerra,contact:phone:+55 31 2528-1660,payment:coins:yes,payment:credit_cards:yes,payment:notes:yes,shop:convenience","lat":-19.9197984,"lng":-43.9565544},{"id":"5387890622","name":"Boi & Birra","tags":"addr:housenumber:36,addr:postcode:30441-106,addr:street:Rua Marquês de Valença,amenity:restaurant,website:http://facebook.com/boibirra","lat":-19.9367801,"lng":-43.959548},{"id":"5388514755","name":"Academy Art Gym","tags":"leisure:fitness_centre,opening_hours:Mo-Fr 06:00-22:00, Sa 08:00-13:00,sport:jiu-jitsu;crossfit;musculação","lat":-19.971962,"lng":-43.966299},{"id":"5404500721","name":"Colégio Santo Agostinho","tags":"addr:housenumber:1424,addr:postcode:30430-050,addr:street:Rua Daniel de Carvalho,amenity:school","lat":-19.939957,"lng":-43.9589894},{"id":"5414335424","name":"CNI - Centro de formação profissional","tags":"addr:housenumber:169,addr:postcode:32677-800,addr:street:Avenida São Caetano,amenity:school,opening_hours:Mo-Sa 08:00-21:00,phone:+55 31 3531 7797","lat":-19.9372117,"lng":-44.1122631},{"id":"5435830520","name":"Academia ao ar livre da praça","tags":"leisure:fitness_centre","lat":-19.9465008,"lng":-43.9842007},{"id":"5573669853","name":"E. E. Odilon Behrens","tags":"amenity:school","lat":-19.9255825,"lng":-43.9859796},{"id":"5573803950","name":"Educativa","tags":"addr:city:Belo Horizonte,addr:housenumber:771,addr:street:Rua Geraldo Lúcio Vasconcelos,addr:suburb:Buritis,amenity:school","lat":-19.9785395,"lng":-43.9758163},{"id":"5627101851","tags":"access:private,amenity:parking,parking:surface","lat":-19.9386407,"lng":-43.9998797},{"id":"5627457311","name":"Cantina Mariana","tags":"addr:city:Belo Horizonte,addr:street:Rua Margarida Assis Fonseca,addr:suburb:Califórnia,amenity:restaurant","lat":-19.9289157,"lng":-44.0095916},