[{"id":"4128766889","name":"Escola Estadual Pedro Vicente de Freitas","tags":"amenity:school","lat":-20.9286853,"lng":-42.4514022},{"id":"4128766890","name":"Escola Municipal","tags":"amenity:school,source:name:IBGE","lat":-20.9608587,"lng":-42.4744934},{"id":"5478031389","name":"Alto da Serra","tags":"amenity:restaurant,description:https://www.facebook.com/Restaurante-Alto-da-Serra-797826136908909/","lat":-21.0757949,"lng":-42.4958998},{"id":"6286281443","name":"Venda","tags":"shop:convenience","lat":-21.0361033,"lng":-42.4647455},{"id":"6314772286","tags":"addr:street:Rodovia Santos Dumont,amenity:restaurant","lat":-20.9751388,"lng":-42.3559803},{"id":"7564024668","name":"Bar Dona Nair","tags":"shop:convenience","lat":-20.9921202,"lng":-42.3712288},{"id":"7564024672","name":"Escola Municipal Oduvaldo Aleixo","tags":"amenity:school","lat":-20.9909555,"lng":-42.3733066}]