[{"id":"369114286","tags":"amenity:bus_station","lat":-20.3885974,"lng":-43.4266719},{"id":"369876451","tags":"amenity:pharmacy,dispensing:no,healthcare:pharmacy","lat":-20.3769515,"lng":-43.4155267},{"id":"650838229","name":"Colégio Providência","tags":"amenity:school","lat":-20.3798917,"lng":-43.4186716},{"id":"650838496","name":"Instituto de Ciências Humanas e Sociais","tags":"amenity:university,operator:UFOP,short_name:ICHS","lat":-20.381751,"lng":-43.4143187},{"id":"650839068","tags":"amenity:bar","lat":-20.3786124,"lng":-43.4170113},{"id":"650839627","tags":"amenity:restaurant","lat":-20.3785868,"lng":-43.4172588},{"id":"650839805","tags":"amenity:restaurant","lat":-20.3775713,"lng":-43.4162175},{"id":"650840004","tags":"amenity:restaurant","lat":-20.3779061,"lng":-43.4160376},{"id":"650842561","tags":"amenity:police","lat":-20.3755952,"lng":-43.4164534},{"id":"650843439","tags":"tourism:museum","lat":-20.378798,"lng":-43.4165348},{"id":"650848928","tags":"amenity:school","lat":-20.3832588,"lng":-43.4170327},{"id":"650849116","tags":"amenity:school","lat":-20.3708882,"lng":-43.416904},{"id":"1885780755","tags":"addr:city:Mariana,addr:housenumber:111,addr:postcode:35420-970,addr:street:Praça Presidente Tancredo Neves,addr:suburb:Centro,amenity:post_office","lat":-20.3764992,"lng":-43.4178076},{"id":"2025471146","name":"Restaurante Terra de Minas","tags":"amenity:restaurant","lat":-20.3905146,"lng":-43.5063202},{"id":"2029290363","name":"Santander","tags":"amenity:bank,brand:Santander,brand:wikidata:Q5835668,brand:wikipedia:en:Santander Bank","lat":-20.3844234,"lng":-43.5066036},{"id":"2029290385","tags":"amenity:bank,brand:Caixa Econômica Federal","lat":-20.384424,"lng":-43.507044},{"id":"2029290424","name":"Restaurante Quinto do Ouro","tags":"amenity:restaurant","lat":-20.3853044,"lng":-43.5044819},{"id":"2029290431","tags":"amenity:restaurant","lat":-20.3857364,"lng":-43.5038951},{"id":"2029290440","name":"Itaú","tags":"amenity:bank,brand:Itaú Unibanco,brand:wikidata:Q1424293,brand:wikipedia:pt:Itaú Unibanco","lat":-20.3844829,"lng":-43.5067765},{"id":"2029290443","name":"HSBC","tags":"amenity:bank,brand:HSBC,brand:wikidata:Q190464,brand:wikipedia:en:HSBC,description:Banco HSBC","lat":-20.3852703,"lng":-43.5074699},{"id":"2029290451","name":"Dragaria Tiradentes","tags":"amenity:pharmacy","lat":-20.3852084,"lng":-43.5075214},{"id":"2029290453","name":"Tropea Cantina Armazem","tags":"addr:city:Ouro Preto,addr:housenumber:15,addr:street:Rua Coronel Alves,amenity:restaurant,website:https://www.opassopizzajazz.com.br/tropea","lat":-20.3859174,"lng":-43.5052523},{"id":"2029290470","name":"Farmácia Itacolomy","tags":"amenity:pharmacy,healthcare:pharmacy","lat":-20.3852522,"lng":-43.5048075},{"id":"2029290475","name":"Chafariz dos Contos","tags":"amenity:fountain,tourism:attraction,wikidata:Q18462652","lat":-20.384477,"lng":-43.5054853},{"id":"2041182483","name":"Restaurante Bené da Flauta","tags":"amenity:restaurant","lat":-20.386535,"lng":-43.5024517},{"id":"2041225135","name":"Chafariz do Largo de Marília","tags":"amenity:fountain,tourism:attraction","lat":-20.3875365,"lng":-43.4995032},{"id":"2044485106","name":"Satélite Pizzaria & Lanchonete","tags":"amenity:restaurant,cuisine:brazilian;pizza;burger,internet_access:wlan,name:en:Satélite Pizzaria & Lanchonete","lat":-20.3853769,"lng":-43.5047446},{"id":"2044485132","name":"Armazém Vila Rica","tags":"shop:convenience","lat":-20.385311,"lng":-43.505368},{"id":"2044485176","name":"Cafe Cultural Ouro Preto","tags":"amenity:cafe,cuisine:cake,description:cafeteria e livraria,name:en:Cafe Cultural Ouro Preto","lat":-20.385594,"lng":-43.5033553},{"id":"2044485279","name":"Restaurante Spaghetti","tags":"amenity:restaurant","lat":-20.3852069,"lng":-43.5053015},{"id":"2044485349","name":"O Sotão - Casa de Panquecas","tags":"amenity:restaurant","lat":-20.385222,"lng":-43.5051619},{"id":"2045210946","name":"Chafariz da Glória","tags":"amenity:fountain,tourism:attraction","lat":-20.3856748,"lng":-43.5081876},{"id":"2046180877","name":"Sabor das Gerais","tags":"amenity:restaurant","lat":-20.386562,"lng":-43.5085496},{"id":"2046180882","name":"Guarda Municipal","tags":"amenity:police","lat":-20.3860693,"lng":-43.5084182},{"id":"2046234602","name":"Açougue e Mercearia Mapa","tags":"shop:convenience","lat":-20.3864785,"lng":-43.5115193},{"id":"2049196326","tags":"amenity:bank,brand:Bradesco","lat":-20.3848323,"lng":-43.5038692},{"id":"2049199288","name":"Janela do Rosário","tags":"amenity:restaurant","lat":-20.3835651,"lng":-43.5098451},{"id":"2049863466","name":"Restaurante São Judas Tadeu","tags":"amenity:restaurant","lat":-20.3845912,"lng":-43.5031055},{"id":"2049863474","name":"Terminal de Integração Barão de Camargos","tags":"amenity:bus_station,bus:yes,description:Linhas Disponíveis:\nOuro Preto/Mariana\nHospital/Taquaral\nCooperouro/Piedade\nCooperouro/Alto da Cruz\nCooperouro/São Sebastião\nSão Cristóvão/São Sebastião\nSão Cristóvão/Morro Santana\nVila Aparecida/Piedade\n,internet_access:no,public_transport:station","lat":-20.3841943,"lng":-43.5030749},{"id":"2051427664","name":"Posto de Saúde do Antônio Dias","tags":"amenity:hospital,healthcare:hospital","lat":-20.3870956,"lng":-43.4995166},{"id":"2057832041","name":"Clínica de Atenção Integral à Saúde","tags":"amenity:hospital","lat":-20.3827681,"lng":-43.5111111},{"id":"2057841013","name":"SJ Supermercados","tags":"shop:supermarket","lat":-20.3833333,"lng":-43.5128745},{"id":"2062422646","name":"Pedrosa","tags":"amenity:restaurant","lat":-20.3779305,"lng":-43.5147053},{"id":"2366005665","name":"Fábrica de Chocolates Ouro Preto","tags":"amenity:cafe","lat":-20.3855551,"lng":-43.5038736},{"id":"2687180785","name":"Mina do Chico Rei","tags":"addr:city:Ouro Preto,addr:housenumber:108,addr:street:Rua Dom Silvério,tourism:attraction","lat":-20.3862658,"lng":-43.4992531},{"id":"3775858046","name":"Mariana","tags":"public_transport:station","lat":-20.3733312,"lng":-43.4168006},{"id":"3868052435","name":"Escola Estadual Cônego Braga","tags":"amenity:school,operator:Secretaria de Estado de Educação de Minas Gerais,source:name:IBGE","lat":-20.3460835,"lng":-43.2914419},{"id":"3868052450","tags":"amenity:school","lat":-20.3449668,"lng":-43.2967577},{"id":"3878732463","name":"Escola Estadual Cônego Mauro de Faria","tags":"amenity:school,operator:Secretaria de Estado de Educação de Minas Gerais,source:name:IBGE","lat":-20.3503378,"lng":-43.3603199},{"id":"3878732464","name":"Igreja Matriz de São Sebastião","tags":"amenity:place_of_worship,building:church,denomination:catholic,religion:christian","lat":-20.3497879,"lng":-43.3604113},{"id":"3967003064","name":"Tudo Akilo","tags":"amenity:restaurant","lat":-20.3879782,"lng":-43.5069232},{"id":"3967029696","name":"Café Chocolates Ouro Preto","tags":"amenity:cafe","lat":-20.3849866,"lng":-43.5084338},{"id":"3967029697","name":"Hannah Sushi Bar","tags":"amenity:restaurant,cuisine:sushi","lat":-20.3837242,"lng":-43.5090527},{"id":"3967029700","tags":"amenity:bank,atm:yes,brand:Itaú","lat":-20.3856327,"lng":-43.5078571},{"id":"3967047948","name":"Casa do Ouvidor","tags":"amenity:restaurant,cuisine:regional","lat":-20.3853285,"lng":-43.504323},{"id":"3967274577","name":"Chafariz da Coluna","tags":"amenity:fountain,tourism:attraction","lat":-20.3806907,"lng":-43.5178278},{"id":"3967274578","name":"Chafariz do Pilar","tags":"amenity:fountain,tourism:attraction","lat":-20.3865718,"lng":-43.5075016},{"id":"3967274579","name":"Chafariz da Rua Alvarenga","tags":"amenity:fountain,tourism:attraction","lat":-20.3828303,"lng":-43.5140657},{"id":"3967274580","name":"Chafariz do Largo do Rosário","tags":"amenity:fountain,tourism:attraction","lat":-20.3837241,"lng":-43.5096856},{"id":"4175008789","tags":"addr:housenumber:81,addr:street:Praça Reinaldo Alves de Brito,opening_hours:Mo-Su 09:00-19:00,shop:supermarket","lat":-20.3846067,"lng":-43.5060686},{"id":"4181842990","name":"Casa de Alejandinho","tags":"addr:housenumber:18,addr:street:Praça Antônio Dias,tourism:attraction","lat":-20.3867053,"lng":-43.5008271},{"id":"4181931989","name":"Mina du Veloso","tags":"addr:housenumber:34,addr:street:Rua Platina,opening_hours:Mo-Su 09:00-18:00,tourism:attraction,website:www.minaduveloso.blogspot.com","lat":-20.376179,"lng":-43.5159369},{"id":"4221189571","name":"Banco Itaú","tags":"amenity:bank","lat":-20.3777402,"lng":-43.4160542},{"id":"4221189583","tags":"shop:supermarket","lat":-20.3763231,"lng":-43.4173023},{"id":"4221189584","name":"Banco do Brasil","tags":"amenity:bank,brand:Banco do Brasil,brand:wikidata:Q610817,brand:wikipedia:en:Banco do Brasil","lat":-20.3769548,"lng":-43.4163145},{"id":"4221189585","name":"Bradesco","tags":"amenity:bank","lat":-20.3769841,"lng":-43.4160154},{"id":"4221189586","name":"Caixa Econômica Federal","tags":"amenity:bank","lat":-20.3771267,"lng":-43.4154598},{"id":"4221189588","tags":"amenity:pharmacy","lat":-20.3809294,"lng":-43.4217273},{"id":"4221189689","tags":"amenity:pharmacy","lat":-20.3769642,"lng":-43.4173674},{"id":"4221189690","tags":"amenity:pharmacy","lat":-20.3774187,"lng":-43.416479},{"id":"4221189692","name":"Hospital Monsenhor Horta","tags":"amenity:hospital,name:pt:Hospital Monsenhor Horta","lat":-20.3856572,"lng":-43.4195755},{"id":"4221212792","name":"Escola Estadual Dom Benevides","tags":"amenity:school","lat":-20.3827072,"lng":-43.4174364},{"id":"4221212799","name":"Escola Estadual Prof. Soares Ferreira","tags":"amenity:school","lat":-20.3735285,"lng":-43.4161531},{"id":"4231185173","tags":"amenity:restaurant","lat":-20.3803199,"lng":-43.4171441},{"id":"4284075056","name":"Museu Casa de Alphonsus de Guimaraens","tags":"addr:city:Mariana,addr:housenumber:35,addr:postcode:35420-000,addr:street:Rua Direita,addr:suburb:Centro,building:yes,building:levels:2,phone:+5531 35573259,tourism:museum","lat":-20.3776131,"lng":-43.4174145},{"id":"4284079969","name":"Museu Arquidiocesano de Arte Sacra","tags":"addr:city:Mariana,addr:housenumber:49,addr:postcode:35420-000,addr:street:Rua Frei Durão,addr:suburb:Centro,building:yes,description:Instalado em um casarão de 1770, o museu reúne uma grande variedade de obras de Aleijadinho e pinturas de Mestre Athayde. O acervo apresenta ainda objetos sacros de prata e ouro, esculturas e indumentárias religiosas dos séculos 18 e 19.,historic:building,name:en:Archidiocesan Museum of Religious Art,opening_hours:Tu-Fr 08:30-12:00, 13:30-17:00; Sa-Su 08:30-14:00,phone:+553135572581,tourism:museum,wikidata:Q56693840","lat":-20.3785778,"lng":-43.41648},{"id":"4284105494","name":"Pizzaria Dom Silvério","tags":"amenity:restaurant,cuisine:pizza,opening_hours:18:00-00:00,phone:+5531 3557-2475","lat":-20.3796795,"lng":-43.4159317},{"id":"4421834194","name":"Maria Bonita - Lanchonete e Padaria","tags":"amenity:restaurant,name:en:Maria Bonita - Lanchonete e Padaria","lat":-20.3850249,"lng":-43.503766},{"id":"4421888089","name":"Opera Cafe","tags":"amenity:cafe,name:en:Opera Cafe","lat":-20.3854034,"lng":-43.504612},{"id":"4422263292","name":"Buteco do Chopp","tags":"amenity:restaurant,cuisine:brazilian;regional,name:pt:Buteco do Chopp","lat":-20.3837944,"lng":-43.5031056},{"id":"4422272390","name":"Cafe e Cia","tags":"amenity:cafe,name:en:Cafe e Cia","lat":-20.3849877,"lng":-43.5071195},{"id":"4422279490","name":"Garapinha - Queijos & Doces Casseiros","tags":"name:pt:Garapinha - Queijos & Doces Casseiros,shop:convenience","lat":-20.3846683,"lng":-43.5059906},{"id":"4422281789","name":"Coffee O'Clock","tags":"addr:housenumber:34b,amenity:cafe,cuisine:coffee_shop,name:en:Coffee O'Clock","lat":-20.3859239,"lng":-43.5076724},{"id":"4422692889","name":"Mama Roma","tags":"addr:housenumber:285,amenity:restaurant,cuisine:italian,name:en:Mama Roma","lat":-20.3861505,"lng":-43.5049824},{"id":"4422917689","name":"Braúnas Restaurante & Pub","tags":"amenity:restaurant,cuisine:brazilian;regional","lat":-20.3851646,"lng":-43.5037696},{"id":"4423711892","tags":"shop:supermarket","lat":-20.3881666,"lng":-43.4251296},{"id":"4423847589","name":"Satélite Pizzaria Anexo","tags":"amenity:restaurant,cuisine:pizza","lat":-20.3854613,"lng":-43.5048805},{"id":"4498879789","name":"Rodovaria","tags":"amenity:bus_station,name:en:Minas Gerais bus station,name:pt:Rodovaria","lat":-20.3807574,"lng":-43.5076424},{"id":"4535016682","name":"Pão de Queijo","tags":"addr:housenumber:22,amenity:restaurant","lat":-20.384781,"lng":-43.5031739},{"id":"4535019961","name":"Pilar","tags":"amenity:pharmacy,healthcare:pharmacy,wheelchair:no","lat":-20.3877477,"lng":-43.5070171},{"id":"4535020496","name":"Vivere","tags":"amenity:pharmacy,healthcare:pharmacy","lat":-20.3877866,"lng":-43.5075416},{"id":"4535020516","name":"Caixa Econômica Federal","tags":"amenity:bank,brand:Caixa Econômica Federal,brand:wikidata:Q835283,brand:wikipedia:pt:Caixa Econômica Federal","lat":-20.3844867,"lng":-43.5062126},{"id":"4536662921","name":"Escola de Música Padre Simões","tags":"amenity:school","lat":-20.3863588,"lng":-43.507949},{"id":"4537761557","name":"Museu Casa Guignard","tags":"addr:housenumber:110,tourism:museum,wikidata:Q10333424","lat":-20.3852705,"lng":-43.5047324},{"id":"4537764384","name":"Parada do Conde","tags":"addr:housenumber:135,amenity:restaurant","lat":-20.3853195,"lng":-43.5052278},{"id":"4576235390","name":"Minas do palacio velho","tags":"name:pt:Minas do palacio velho,tourism:attraction","lat":-20.3860557,"lng":-43.4989867},{"id":"4777584334","name":"VALE TIMBOPEBA","tags":"name:en:VALE TIMBOPEBA,shop:books","lat":-20.2519456,"lng":-43.5112},{"id":"4794002619","name":"Monsieur Café","tags":"amenity:cafe","lat":-20.3862014,"lng":-43.5049516},{"id":"4870782721","name":"Set Palavras","tags":"amenity:cafe,name:pt:Set Palavras","lat":-20.3837843,"lng":-43.5089298},{"id":"4920185723","name":"Conto de Réis","tags":"amenity:restaurant,name:pt:Conto de Réis","lat":-20.3835715,"lng":-43.502947},{"id":"4938044505","tags":"amenity:parking","lat":-20.3761051,"lng":-43.4174967},{"id":"5324632323","name":"Chafariz","tags":"amenity:restaurant","lat":-20.3848201,"lng":-43.5070349},{"id":"5324639422","name":"O Sótão - Casa de Panquecas","tags":"amenity:restaurant","lat":-20.3851967,"lng":-43.5074121},{"id":"5324639423","name":"Chocolates Brasil Cacau","tags":"amenity:cafe","lat":-20.3848559,"lng":-43.5072339},{"id":"5893258796","name":"Restaurante do Airson","tags":"amenity:restaurant","lat":-20.3894329,"lng":-43.5007753},{"id":"5972810087","name":"Varejão Popular","tags":"shop:supermarket","lat":-20.3765459,"lng":-43.4152457},{"id":"6319445381","name":"Mina Jeje","tags":"tourism:attraction","lat":-20.385976,"lng":-43.4952749},{"id":"6319445615","name":"Oratório do Vira-Saia","tags":"tourism:attraction","lat":-20.38771,"lng":-43.4980272},{"id":"6319599782","tags":"amenity:parking,surface:ground","lat":-20.364221,"lng":-43.4897591},{"id":"6319602529","name":"Museu de Ciência e Técnica da Escola de Minas","tags":"tourism:museum","lat":-20.3842621,"lng":-43.5035885},{"id":"6320862676","name":"Jacubas  Livros e Artes","tags":"shop:books","lat":-20.3856011,"lng":-43.5032963},{"id":"6482794502","name":"Quase Tudo No Espeto","tags":"amenity:restaurant,cuisine:steak_house","lat":-20.383883,"lng":-43.5031316},{"id":"6576725266","name":"República Sodoma","tags":"addr:city:Mariana,addr:housenumber:67,addr:postcode:35420000,addr:street:Rua Taxista Joãozinho Vieira,addr:suburb:Vila do Carmo,amenity:cafe,cuisine:coffee_shop,internet_access:wlan","lat":-20.3824622,"lng":-43.4209559},{"id":"6594845189","name":"Forno de barro (a vontade 20rs)","tags":"amenity:restaurant","lat":-20.3849453,"lng":-43.5037629},{"id":"6594845385","name":"Tiradentes (bufet 15rs)","tags":"amenity:restaurant","lat":-20.3860885,"lng":-43.5030055},{"id":"7868864359","name":"Empório Frangão Mais","tags":"addr:city:Ouro Preto,addr:housenumber:172A,addr:postcode:35400000,addr:street:Rua Benedito Valadares,addr:suburb:Pilar,shop:convenience","lat":-20.3854705,"lng":-43.5096377},{"id":"8804752617","name":"O Seu José","tags":"amenity:restaurant,cuisine:fine_dining","lat":-20.384189,"lng":-43.5064836},{"id":"9501775691","name":"Lava Jato São Lucas","tags":"amenity:car_wash","lat":-20.3831425,"lng":-43.501003},{"id":"9770171785","name":"Mina do Bijoca","tags":"tourism:attraction","lat":-20.3855109,"lng":-43.499598},{"id":"9806570017","tags":"shop:supermarket","lat":-20.3777819,"lng":-43.5144476},{"id":"9806575713","name":"Drogaria Patmos","tags":"amenity:pharmacy,dispensing:yes,healthcare:pharmacy","lat":-20.3784933,"lng":-43.5154209}]