[{"id":"1157112148","name":"Campo de Aviação","tags":"aeroway:aerodrome","lat":-20.1080571,"lng":-43.0762872},{"id":"1157112290","tags":"amenity:hospital","lat":-20.1116243,"lng":-43.0609739},{"id":"2988250957","name":"Escola Estadual Prof. Cândido Gomes","tags":"amenity:school","lat":-20.1072865,"lng":-43.0569492},{"id":"4559052620","name":"Igreja do Sagrado Coração de Jesus","tags":"amenity:place_of_worship,building:church,denomination:catholic,religion:christian","lat":-20.0612033,"lng":-43.2331384},{"id":"5300153449","name":"Escola Municipal","tags":"amenity:school","lat":-20.1095954,"lng":-43.0596318}]