[{"id":"1209069292","name":"Banco do Brasil","tags":"amenity:bank,atm:no,opening_hours:Mo-Fr 10:00-16:00","lat":-21.6342481,"lng":-41.0479369},{"id":"1209069298","name":"Itaú","tags":"amenity:bank,atm:no,opening_hours:Mo-Fr 10:00-16:00","lat":-21.6341521,"lng":-41.0467126},{"id":"1212212804","name":"Boi Grill","tags":"amenity:restaurant,cuisine:regional","lat":-21.6318844,"lng":-41.040868},{"id":"1212212808","name":"Seu Maurício","tags":"amenity:restaurant,cuisine:regional,internet_access:no,internet_access:fee:no,smoking:yes","lat":-21.6337447,"lng":-41.0484617},{"id":"1246406307","tags":"amenity:bus_station","lat":-21.6331176,"lng":-41.0480633},{"id":"1246406323","name":"CIEP 265","tags":"amenity:school","lat":-21.6327013,"lng":-41.046715},{"id":"1255626837","name":"Colégio Estadual Alberto Torres","tags":"amenity:school","lat":-21.6375124,"lng":-41.0484736},{"id":"1255654669","name":"Rede Lider","tags":"shop:supermarket","lat":-21.639003,"lng":-41.0480911},{"id":"1264351679","name":"Santa Casa","tags":"amenity:hospital","lat":-21.6357636,"lng":-41.0487355},{"id":"1267176712","name":"Supermecado Paiva","tags":"shop:supermarket","lat":-21.6345591,"lng":-41.0439309},{"id":"1267176723","name":"Hebinho","tags":"shop:supermarket","lat":-21.6344236,"lng":-41.0453322},{"id":"1277399325","name":"Restaurante do Anselmo","tags":"amenity:restaurant,cuisine:regional","lat":-21.6878175,"lng":-41.0343535},{"id":"2475330553","tags":"amenity:police","lat":-21.6447287,"lng":-41.0503301},{"id":"2698612580","name":"Caixa Econômica Federal","tags":"amenity:bank,atm:yes","lat":-21.634858,"lng":-41.0439482},{"id":"2878267838","name":"igreja batista","tags":"addr:city:São João da Barra,addr:street:Rua Raul Chatel Filho,building:church,building:levels:1","lat":-21.6383085,"lng":-41.0211074},{"id":"3007252358","tags":"amenity:hospital","lat":-21.6453408,"lng":-41.0507387},{"id":"3024531710","name":"E. M.Amalia Soares de Almeida","tags":"amenity:school","lat":-21.6375903,"lng":-41.0210615},{"id":"4580189194","name":"Peixe na Rede","tags":"addr:street:Rua G,amenity:restaurant,name:pt:Peixe na Rede","lat":-21.6545327,"lng":-41.0192405},{"id":"4580203094","name":"Quiosque do Nelson","tags":"amenity:restaurant,name:pt:Quiosque do Nelson","lat":-21.6439542,"lng":-41.0173102},{"id":"4616206990","name":"Supermercado do Júlio","tags":"name:pt:Supermercado do Júlio,shop:supermarket","lat":-21.7080267,"lng":-41.0366804},{"id":"4616238992","name":"Boller Lanchonete","tags":"amenity:cafe,name:pt:Boller Lanchonete","lat":-21.6341587,"lng":-41.0484512},{"id":"4616239089","name":"Única Farma","tags":"addr:housenumber:158,addr:street:Rua Joaquim Tomaz de Aquino Filho,amenity:pharmacy,name:pt:Única Farma","lat":-21.6342131,"lng":-41.0480888},{"id":"4616239090","name":"Drogaria Isalvo Lima","tags":"amenity:pharmacy,name:pt:Drogaria Isalvo Lima","lat":-21.6340928,"lng":-41.0492975},{"id":"8191686572","name":"Bradesco","tags":"addr:city:São João da Barra,addr:housenumber:250,addr:postcode:28200-000,addr:street:Rua Joaquim Thomaz de Aquino Filho,addr:suburb:Centro,amenity:bank,brand:Bradesco,brand:wikidata:Q806181,brand:wikipedia:en:Banco Bradesco","lat":-21.6341656,"lng":-41.0469925}]