[{"id":"2481834105","name":"Hospital São José","tags":"IJSN:tipoUnidad:Hospital Geral,addr:city:São José do Calçado,addr:place:Centro,addr:postcode:29470-000,addr:street:Rua Doutor José Fernandes Medina,amenity:hospital,contact:phone:+55 28 3556-1606,healthcare:hospital,short_name:IESP","lat":-21.023199,"lng":-41.6527034},{"id":"3618580970","name":"CE Céu Azul","tags":"addr:city:São José do Calçado,addr:country:BR,addr:housenumber:126,addr:place:Centro,addr:postcode:29470-000,addr:state:ES,addr:street:Rua Manoel Ferreira Marques,alt_name:Centro Educacional,amenity:school,contact:phone:(28) 3556-1201","lat":-21.0252706,"lng":-41.6528294},{"id":"3618580976","name":"EEEFM Mercês Garcia Vieira","tags":"addr:city:São José do Calçado,addr:country:BR,addr:housenumber:146,addr:place:Centro,addr:postcode:29470-000,addr:state:ES,addr:street:Avenida Rui Barbosa,alt_name:Escola Estadual de Ensino Fundamental e Médio,amenity:school,contact:phone:(28) 3556-0000 / 3556-1662","lat":-21.024805,"lng":-41.6565436},{"id":"3618580978","name":"EM Anito Gomes Teixeira","tags":"addr:city:São José do Calçado,addr:country:BR,addr:place:Distrito Jacá,addr:postcode:29470-000,addr:state:ES,addr:street:Praça Maria Rosa,alt_name:Escola Municipal,amenity:school,contact:phone:(28) 9902-6494","lat":-21.004356,"lng":-41.6077796},{"id":"3618580979","name":"EM Areal","tags":"addr:city:São José do Calçado,addr:country:BR,addr:place:Comunidade Pontões,addr:postcode:29470-000,addr:state:ES,alt_name:Escola Municipal,amenity:school","lat":-20.9711429,"lng":-41.5929478},{"id":"3618580982","name":"EM Ercílio Cordeiro","tags":"addr:city:São José do Calçado,addr:country:BR,addr:place:Comunidade Alto Calçado,addr:postcode:29475-000,addr:state:ES,addr:street:Rua Ascendino Nunes de Carvalho,alt_name:Escola Municipal,amenity:school,contact:phone:(28) 3556-5110 / 3556-5132","lat":-20.9465912,"lng":-41.6218831},{"id":"3618580984","name":"EM José Nunes de Rezende","tags":"addr:city:São José do Calçado,addr:country:BR,addr:place:Fazenda Estrela,addr:postcode:29470-000,addr:state:ES,alt_name:Escola Municipal,amenity:school","lat":-20.9356618,"lng":-41.6083967},{"id":"3618580985","name":"EM José do Deco","tags":"addr:city:São José do Calçado,addr:country:BR,addr:place:Pedro Ideraldo de Almeida Lima,addr:postcode:29470-000,addr:state:ES,addr:street:Rua Joaquim de Aquino Chavier,alt_name:Escola Municipal,amenity:school,contact:phone:(28) 3556-2105","lat":-21.0266457,"lng":-41.6580058},{"id":"3618580986","name":"EM Manoel Franco","tags":"addr:city:São José do Calçado,addr:country:BR,addr:place:Centro,addr:postcode:29470-000,addr:state:ES,addr:street:Praça Governador Bley,alt_name:Escola Municipal,amenity:school,contact:phone:(28) 3556-2199","lat":-21.0269482,"lng":-41.653018},{"id":"3618580987","name":"EM Moacyr Teixeira Garcia","tags":"addr:city:São José do Calçado,addr:country:BR,addr:place:Maria José Pimentel,addr:postcode:29470-000,addr:state:ES,addr:street:Rua Joaquim Moraes,alt_name:Escola Municipal,amenity:school","lat":-21.0402661,"lng":-41.6532308},{"id":"3618580988","name":"EM Quatro Irmãos","tags":"addr:city:São José do Calçado,addr:country:BR,addr:place:Comunidade Fazenda Velha,addr:postcode:29470-000,addr:state:ES,alt_name:Escola Municipal,amenity:school,contact:phone:(28) 3556-0201","lat":-21.0680859,"lng":-41.6649663},{"id":"3618580989","name":"EM Umbelina Machado da Silva","tags":"addr:city:São José do Calçado,addr:country:BR,addr:place:Comunidade Airituba,addr:postcode:29477-000,addr:state:ES,addr:street:Rua Virgílio Moreira da Cunha,alt_name:Escola Municipal,amenity:school,contact:phone:(28) 3556-4024","lat":-20.9456099,"lng":-41.6875217},{"id":"3743499974","name":"Delegacia da Polícia Civil de São José do Calçado","tags":"addr:city:São José do Calçado,addr:housenumber:399,addr:place:Centro,addr:postcode:29470-000,addr:street:Rua Doutor José Fernando Medina,amenity:police,contact:phone:(28) 3556-1577,short_name:DPC","lat":-21.0226999,"lng":-41.6530204},{"id":"4024904857","name":"EEEM Antônio Sabatini Simoni","tags":"IJSN:administra:Estadual,IJSN:classeCnae:Médio,addr:city:Mimoso do Sul,addr:postcode:29400-000,addr:street:Rua Principal,addr:suburb:Comunidade Conceição do Muqui,alt_name:Escola Estadual de Ensino Médio,amenity:school,contact:phone:(28) 3555-9202 / 3555-9188","lat":-20.9738357,"lng":-41.5089516},{"id":"4024904864","name":"EEEM Godofredo Possi","tags":"IJSN:administra:Estadual,IJSN:classeCnae:Médio,addr:city:Apiacá,addr:postcode:29450-000,addr:street:Rua José Puppim,addr:suburb:Bonsucesso,alt_name:Escola Estadual de Ensino Médio,amenity:school,contact:phone:(27) 3557-3056","lat":-20.9820817,"lng":-41.5599294},{"id":"4024904992","name":"EEPEF Córrego da Reserva","tags":"IJSN:administra:Estadual,IJSN:classeCnae:Fundamental,addr:city:Mimoso do Sul,addr:postcode:29400-000,addr:street:Fazenda Córrego da Reserva,addr:suburb:Comunidade Areia Branca,alt_name:Escola Estadual Pluridocente de Ensino Fundamental,amenity:school","lat":-20.9937955,"lng":-41.484448},{"id":"4024905257","name":"EMEF Antônia Junger Poubel da Silva","tags":"IJSN:administra:Municipal,IJSN:classeCnae:Infantil e Fundamental,addr:city:Mimoso do Sul,addr:postcode:29400-000,addr:suburb:Conceição do Muqui,alt_name:Escola Municipal de Ensino Fundamental,amenity:school,contact:phone:(28) 3555-9116","lat":-20.9722995,"lng":-41.5087169},{"id":"4024905285","name":"EMEF Bonsucesso","tags":"IJSN:administra:Municipal,IJSN:classeCnae:Fundamental,addr:city:Apiacá,addr:postcode:29450-000,addr:street:Rua José Pupim,addr:suburb:Bonsucesso,alt_name:Escola Municipal de Ensino Fundamental,amenity:school,contact:phone:(28) 3557-3056","lat":-20.9820475,"lng":-41.5599178},{"id":"4024905641","name":"EMEF Palmeiras","tags":"IJSN:administra:Municipal,IJSN:classeCnae:Fundamental,addr:city:Bom Jesus do Norte,addr:postcode:29460-000,addr:suburb:Comunidade Palmeira,alt_name:Escola Municipal de Ensino Fundamental,amenity:school","lat":-21.0544396,"lng":-41.6085994},{"id":"4024905742","name":"EMEF Waldir Monteiro de Barros","tags":"IJSN:administra:Municipal,IJSN:classeCnae:Infantil e Fundamental,addr:city:Apiacá,addr:postcode:29450-000,addr:suburb:Comunidade Batatal,alt_name:Escola Municipal de Ensino Fundamental,amenity:school,contact:phone:(28) 3557-1239","lat":-21.0238438,"lng":-41.5635927},{"id":"4024905984","name":"EMPEF Alto Pontões","tags":"IJSN:administra:Municipal,IJSN:classeCnae:Fundamental,addr:city:Mimoso do Sul,addr:postcode:29400-000,addr:suburb:Comunidade Pontões,alt_name:Escola Municipal Pluridocente de Ensino Fundamental,amenity:school","lat":-20.9504342,"lng":-41.5434523},{"id":"4024906096","name":"EMPEF Barro Branco","tags":"IJSN:administra:Municipal,IJSN:classeCnae:Fundamental,addr:city:Apiacá,addr:postcode:29450-000,addr:suburb:Comunidade Boa União,alt_name:Escola Municipal Pluridocente de Ensino Fundamental,amenity:school,contact:phone:(28) 3557-1239","lat":-21.0526374,"lng":-41.5302203},{"id":"4024906162","name":"EMPEF Santo Agostinho","tags":"IJSN:administra:Municipal,IJSN:classeCnae:Fundamental,addr:city:Mimoso do Sul,addr:postcode:29400-000,addr:suburb:Comunidade Jacutinga,alt_name:Escola Municipal Pluridocente de Ensino Fundamental,amenity:school","lat":-20.9338132,"lng":-41.5040037},{"id":"4024906286","name":"EMUEF Córrego do Jardim","tags":"IJSN:administra:Municipal,IJSN:classeCnae:Fundamental,addr:city:Mimoso do Sul,addr:postcode:29400-000,addr:suburb:Comunidade Palmeirinha,alt_name:Escola Municipal Unidocente de Ensino Fundamental,amenity:school","lat":-20.9273399,"lng":-41.52318},{"id":"4024906338","name":"EMUEF Mundo Novo","tags":"IJSN:administra:Municipal,IJSN:classeCnae:Fundamental,addr:city:Mimoso do Sul,addr:postcode:29400-000,addr:suburb:Comunidade Santa Cruz,alt_name:Escola Municipal Unidocente de Ensino Fundamental,amenity:school","lat":-21.0052752,"lng":-41.4997262},{"id":"4024906345","name":"EMUEF Oriente","tags":"IJSN:administra:Municipal,IJSN:classeCnae:Fundamental,addr:city:Mimoso do Sul,addr:postcode:29400-000,addr:street:Fazenda Oriente,addr:suburb:Comunidade Muribeca,alt_name:Escola Municipal Unidocente de Ensino Fundamental,amenity:school","lat":-20.9226714,"lng":-41.5597467},{"id":"4024906348","name":"EMUEF Pascoal Astolfo","tags":"IJSN:administra:Municipal,IJSN:classeCnae:Fundamental,addr:city:Apiacá,addr:postcode:29450-000,addr:suburb:Comunidade Limão,alt_name:Escola Municipal Unidocente de Ensino Fundamental,amenity:school","lat":-21.0067216,"lng":-41.5344558},{"id":"4024906362","name":"EMUEF Pontões","tags":"IJSN:administra:Municipal,IJSN:classeCnae:Fundamental,addr:city:Mimoso do Sul,addr:postcode:29400-000,addr:suburb:Córrego da Bengala,alt_name:Escola Municipal Unidocente de Ensino Fundamental,amenity:school","lat":-20.9723315,"lng":-41.5291347},{"id":"4024906379","name":"EMUEF Santa Fé","tags":"IJSN:administra:Municipal,IJSN:classeCnae:Infantil e Fundamental,addr:city:Apiacá,addr:postcode:29450-000,addr:suburb:Comunidade Santa Fé,alt_name:Escola Municipal Unidocente de Ensino Fundamental,amenity:school","lat":-21.0532846,"lng":-41.5516874},{"id":"4024906594","name":"EMUEF São Francisco","tags":"IJSN:administra:Municipal,IJSN:classeCnae:Fundamental,addr:city:Mimoso do Sul,addr:postcode:29400-000,addr:suburb:Comunidade Palmeirinha,alt_name:Escola Municipal Unidocente de Ensino Fundamental,amenity:school","lat":-20.9356718,"lng":-41.5169652},{"id":"7139572093","tags":"addr:city:Mimoso do Sul,addr:postcode:29410000,addr:suburb:Conceição do Muqui,amenity:grave_yard","lat":-20.9690481,"lng":-41.5041092},{"id":"10002975478","name":"Escola Municipal Professora Iracema Seródio Boechat","tags":"addr:city:Bom Jesus do Itabapoana,addr:postcode:28360-000,addr:street:Rua Frederico Lengruber,addr:suburb:Pirapetinga de Bom Jesus,amenity:school,operator:Secretaria Municipal de Educação,operator:type:public","lat":-21.0783388,"lng":-41.8040701},{"id":"10002975479","name":"Escola Municipal João Catarina","tags":"addr:city:Bom Jesus do Itabapoana,addr:postcode:28360-000,addr:suburb:Pirapetinga de Bom Jesus,amenity:school","lat":-21.0787416,"lng":-41.8054926},{"id":"10003031471","name":"Escola Municipal Coronel Luiz Vieira","tags":"addr:city:Bom Jesus do Itabapoana,addr:housenumber:80,addr:postcode:28360-000,addr:street:Rua Paulino José da Silva,addr:suburb:Calheiros,amenity:school,operator:Secretaria Municipal de Educação,operator:type:public","lat":-21.0150362,"lng":-41.7177343},{"id":"10008687787","name":"Biblioteca Pública Municipal Doutor Homero Mafra","tags":"addr:city:São José do Calçado,addr:postcode:29470-000,addr:street:Praça Coronel José Dutra Nicacio,addr:suburb:Centro,amenity:library,operator:Município de São José do Calçado,operator:type:public","lat":-21.0248279,"lng":-41.6551937},{"id":"10008810629","name":"Banco do Brasil","tags":"addr:city:São José do Calçado,addr:housenumber:148,addr:postcode:29470-000,addr:street:Avenida Getúlio Vargas,addr:suburb:Centro,amenity:bank,atm:yes,brand:Banco do Brasil,brand:wikidata:Q610817","lat":-21.0269748,"lng":-41.6549333},{"id":"10008810631","tags":"amenity:bus_station,bus:yes,public_transport:station","lat":-21.0286199,"lng":-41.6522854},{"id":"10008810637","name":"Sicoob","tags":"addr:city:São José do Calçado,addr:postcode:29470-000,addr:suburb:Centro,amenity:bank,atm:yes,brand:Sicoob,brand:wikidata:Q28679754","lat":-21.0271504,"lng":-41.6551667},{"id":"10008810638","name":"Banestes","tags":"addr:city:São José do Calçado,addr:housenumber:72,addr:postcode:29470-000,addr:street:Praça Theofilo Lobo,addr:suburb:Centro,amenity:bank,atm:yes,brand:Banestes,brand:wikidata:Q4854848,official_name:Banco do Estado do Espírito Santo","lat":-21.0273686,"lng":-41.6552256},{"id":"10008810639","name":"Caixa Econômica Federal","tags":"addr:city:São José do Calçado,addr:housenumber:37,addr:postcode:29470-000,addr:street:Rua Francisco Nunes de Moraes,addr:suburb:Centro,amenity:bank,atm:yes,brand:Caixa Econômica Federal,brand:wikidata:Q835283","lat":-21.0275651,"lng":-41.6546279},{"id":"10010044669","name":"Bradesco","tags":"addr:city:São José do Calçado,addr:housenumber:124,addr:postcode:29470-000,addr:street:Rua Francisco Nunes de Moraes,addr:suburb:Centro,amenity:bank,brand:Bradesco,brand:wikidata:Q806181","lat":-21.027701,"lng":-41.6543524},{"id":"10010044670","name":"Agência dos Correios de São José do Calçado","tags":"addr:city:São José do Calçado,addr:housenumber:72,addr:postcode:29470-000,addr:street:Rua Francisco Teixeira Vieira de Rezende,addr:suburb:Centro,amenity:post_office,operator:Correios,operator:wikidata:Q3375004","lat":-21.0270491,"lng":-41.6533954},{"id":"10014293450","name":"Drogaria Familiar","tags":"addr:city:Mimoso do Sul,addr:district:Conceição de Muqui,addr:postcode:29400-000,addr:street:Rua Sebastião Rufino Batista de Araújo,addr:suburb:Conceição do Muqui,amenity:pharmacy,healthcare:pharmacy","lat":-20.9718024,"lng":-41.509048},{"id":"10014293451","name":"Igreja de Nossa Senhora da Imaculada Conceição","tags":"addr:city:Mimoso do Sul,addr:district:Conceição de Muqui,addr:postcode:29400-000,addr:street:Rua Sebastião Rufino Batista de Araújo,addr:suburb:Conceição do Muqui,amenity:place_of_worship,building:church,denomination:roman_catholic,mobile:+55 28 99922 8898,phone:+55 28 3555 9192,religion:christian","lat":-20.970093,"lng":-41.5077224},{"id":"10017095051","name":"EEEM Antônio Sabatini Simoni","tags":"IJSN:administra:Estadual,IJSN:classeCnae:Médio,addr:city:Mimoso do Sul,addr:postcode:29400-000,addr:state:Espírito Santo,addr:street:Rua Principal,addr:suburb:Conceição do Muqui,alt_name:Escola Estadual de Ensino Médio,amenity:school,contact:phone:(28) 3555-9202 / 3555-9188,operator:Secretaria de Educação do Estado do Espirito Santo","lat":-20.9738351,"lng":-41.508993},{"id":"10019183952","name":"Mercado do Edoires","tags":"addr:city:Mimoso do Sul,addr:postcode:29400-000,addr:suburb:Barra da Fortuna,operator:Edoires Benevenute,shop:supermarket","lat":-20.9507805,"lng":-41.488569},{"id":"10025008954","name":"Drogaria Medina","tags":"addr:city:São José do Calçado,addr:housenumber:01,addr:postcode:29470-000,addr:street:Praça Governador Bley,addr:suburb:Centro,amenity:pharmacy,dispensing:yes,healthcare:pharmacy,operator:Drogaria Medina Limitada","lat":-21.0263974,"lng":-41.6539524},{"id":"10026822726","name":"Drogamix","tags":"addr:city:São José do Calçado,addr:postcode:29470-000,addr:street:Rua Dona Francisa Teixeira,addr:suburb:Centro,amenity:pharmacy,dispensing:yes,healthcare:pharmacy,operator:Locatel & Rezende Drogaria Limitada","lat":-21.0277264,"lng":-41.656147},{"id":"10026822727","name":"Drogaria Boa Saúde","tags":"addr:city:São José do Calçado,addr:housenumber:80,addr:postcode:29470-000,addr:street:Praça Theofilo Lobo,addr:suburb:Centro,amenity:pharmacy,dispensing:yes,healthcare:pharmacy,operator:Drogaria Boa Saúde de São José do Calçado Eireli","lat":-21.0274949,"lng":-41.655101},{"id":"10026822728","name":"Drogaria Calçadense","tags":"addr:city:São José do Calçado,addr:housenumber:121,addr:postcode:29470-000,addr:street:Rua Doutor José Fernandes Medina,addr:suburb:Centro,amenity:pharmacy,dispensing:yes,healthcare:pharmacy,operator:Drogaria Calçadense Limitada","lat":-21.0238751,"lng":-41.6546136},{"id":"10026822743","name":"Drogaria Farmari","tags":"addr:city:São José do Calçado,addr:housenumber:05,addr:postcode:29470-000,addr:street:Rua Francisco Nunes de Moraes,addr:suburb:Centro,amenity:pharmacy,dispensing:yes,healthcare:pharmacy,operator:Drogaria Farmari Limitada","lat":-21.0274323,"lng":-41.654872},{"id":"10026822744","name":"Polícia Militar do Estado do Espírito Santo","tags":"addr:city:São José do Calçado,addr:postcode:29470-000,addr:street:Rua Maestro Elpídio de Sa Viana,addr:suburb:Centro,amenity:police,operator:Polícia Militar do Estado do Espírito Santo,operator:short:PMES,operator:wikidata:Q10351029","lat":-21.0304843,"lng":-41.6573437},{"id":"10026822745","name":"Drogaria Popular","tags":"addr:city:São José do Calçado,addr:housenumber:45,addr:postcode:29470-000,addr:street:Rua Doutor Nildo Tavares Jorge,addr:suburb:Arthur Virgilio Lôbo,amenity:pharmacy,dispensing:yes,healthcare:pharmacy,operator:Drogaria Popular Limitada","lat":-21.027903,"lng":-41.6549603},{"id":"10027844522","name":"Super Mercado do Povo","tags":"addr:city:São José do Calçado,addr:housenumber:13,addr:postcode:29470-000,addr:street:Rua Domingos Martins,addr:suburb:Centro,operator:Supermercado do Povo de Calçado Limitada,shop:supermarket","lat":-21.0276855,"lng":-41.654908},{"id":"10027844523","name":"Supermercado Passalini","tags":"addr:city:São José do Calçado,addr:housenumber:28,addr:postcode:29470-000,addr:street:Praça Theofilo Lobo,addr:suburb:Centro,operator:Supermercado Passalini Limitada,shop:supermarket","lat":-21.0271695,"lng":-41.6549016}]