[{"id":"3462818505","tags":"amenity:school","lat":-20.4390096,"lng":-42.1032111},{"id":"3463661978","tags":"amenity:school","lat":-20.4381089,"lng":-42.09799},{"id":"3556401230","name":"EE Coronel Américo Vespúcio de Carvalho","tags":"amenity:school","lat":-20.4359173,"lng":-41.8689741},{"id":"3556401231","name":"EM José Emerich","tags":"amenity:school","lat":-20.4497691,"lng":-41.8745594},{"id":"3675616926","name":"Pizzaria Estorino","tags":"amenity:restaurant,cuisine:pizza","lat":-20.4349305,"lng":-41.8680953},{"id":"6266924485","name":"Mineiro","tags":"addr:housenumber:18,addr:street:Avenida Pico da Bandeira,amenity:restaurant","lat":-20.4353313,"lng":-41.8684294},{"id":"6568363654","name":"Supermercado do Donadio","tags":"shop:supermarket","lat":-20.5243641,"lng":-41.9060284},{"id":"6568484741","name":"Biblioteca Municipal de Caparaó","tags":"amenity:library","lat":-20.523616,"lng":-41.9052023},{"id":"6568484745","name":"Praça Santo Antonio - Caparaó","tags":"leisure:park","lat":-20.5240443,"lng":-41.9054716},{"id":"6568484750","name":"pRAÇA p","tags":"leisure:park","lat":-20.524903,"lng":-41.9047217},{"id":"6568484761","name":"Praça das Arvores - Caparaó","tags":"leisure:park","lat":-20.5238504,"lng":-41.9063239},{"id":"6568484770","name":"Praça do Centro da Cidade","tags":"leisure:park","lat":-20.5245262,"lng":-41.9056348},{"id":"6568484778","name":"Praça Municipal","tags":"leisure:park","lat":-20.5249317,"lng":-41.9051531},{"id":"6568484779","tags":"leisure:park","lat":-20.5251819,"lng":-41.9048511},{"id":"6568484783","tags":"leisure:park","lat":-20.5254122,"lng":-41.90454},{"id":"6568505629","tags":"amenity:police","lat":-20.5242958,"lng":-41.9058694},{"id":"6568505640","tags":"amenity:police","lat":-20.5259972,"lng":-41.9039798},{"id":"6568509175","tags":"amenity:restaurant","lat":-20.524393,"lng":-41.9055725},{"id":"6568900444","tags":"amenity:grave_yard","lat":-20.5193429,"lng":-41.9066829},{"id":"6568900447","name":"Escola Estadual Professor Francisco Lentz","tags":"amenity:school","lat":-20.5235326,"lng":-41.9045523},{"id":"6568900448","name":"Escola Municipal Manuel Ferreira Lima","tags":"amenity:school","lat":-20.522936,"lng":-41.9043045},{"id":"6568900449","name":"SuperMercado Cristo Rei","tags":"shop:supermarket","lat":-20.5236917,"lng":-41.9067254},{"id":"6568900450","name":"Suipermercado Marambaia","tags":"shop:supermarket","lat":-20.524554,"lng":-41.9053467},{"id":"7176178662","name":"Correios","tags":"amenity:post_office,brand:Correios,brand:wikidata:Q3375004,brand:wikipedia:en:Correios","lat":-20.5234369,"lng":-41.9066092},{"id":"7176178665","tags":"leisure:park","lat":-20.5263738,"lng":-41.9044408},{"id":"7350822466","name":"Vale Encantado","tags":"addr:city:Iúna,addr:postcode:29390-000,addr:suburb:São João do Príncipe,tourism:attraction","lat":-20.4074907,"lng":-41.8368583},{"id":"7350822826","name":"Vale Verde","tags":"addr:city:Alto Caparaó,tourism:attraction","lat":-20.4198862,"lng":-41.8430385},{"id":"9969844754","name":"Escola Estadual Pedro Inácio Nogueira","tags":"addr:city:Espera Feliz,addr:postcode:36830-000,addr:suburb:São Gonçalo,amenity:school,email:escola.97713@educacao.mg.gov.br,operator:Secretaria de Educação do Estado de Minas Gerais,operator:type:public","lat":-20.5608575,"lng":-42.0073766},{"id":"10221360610","name":"Creche Municipal Esperança da Paz","tags":"addr:city:Caparaó,addr:postcode:36834-000,addr:street:Rua Arthur Amaral,addr:suburb:Centro,amenity:childcare,operator:Município de Caparaó,operator:type:public","lat":-20.5269246,"lng":-41.9101198},{"id":"10221379816","name":"Sicoob","tags":"addr:city:Caparaó,addr:housenumber:85,addr:postcode:36834-000,addr:street:Rua Júlio de Assis,addr:suburb:Centro,amenity:bank,brand:Sicoob,brand:wikidata:Q28679754","lat":-20.5236878,"lng":-41.9066441}]