[{"id":"453708797","name":"Fábrica de Laticínios Carnielli","tags":"tourism:attraction","lat":-20.3655493,"lng":-41.1253836},{"id":"453709370","name":"Fazenda Saúde","tags":"tourism:attraction","lat":-20.369323,"lng":-41.1117455},{"id":"453709917","name":"Sítio Lourenção","tags":"leisure:horse_riding,tourism:attraction","lat":-20.339436,"lng":-41.1148693},{"id":"453724670","name":"Orquidário Sávio Caliman","tags":"tourism:attraction","lat":-20.3148474,"lng":-41.1278652},{"id":"529772309","name":"Restaurante Peterle's","tags":"addr:city:Domingos Martins,addr:housenumber:km 88,addr:postcode:29260-000,addr:street:Rodovia Federal Deputado Aloízio Santos,addr:suburb:Pedra Azul,amenity:restaurant,cuisine:regional;italian","lat":-20.3891075,"lng":-41.0157151},{"id":"1335070572","name":"Do Café","tags":"addr:city:Domingos Martins,addr:postcode:29260-000,addr:street:Rodovia Federal Deputado Aloízio Santos,addr:suburb:Chácara Pietra Azzurra,amenity:cafe","lat":-20.382052,"lng":-41.0236443},{"id":"1702356723","name":"Don Calmon Cozinha e Gastronomia","tags":"addr:city:Domingos Martins,addr:postcode:29260-000,addr:suburb:Chácara Pietra Azzurra,amenity:restaurant,phone:+55 27 99223 6718","lat":-20.3859781,"lng":-41.0198494},{"id":"2335669354","name":"Restaurante Parque Selva Sassiri","tags":"amenity:restaurant","lat":-20.3859992,"lng":-41.0984521},{"id":"2386932971","name":"Sítio dos Palmitos","tags":"addr:city:Domingos Martins,addr:postcode:29278-000,addr:street:Rodovia Estadual Sebastião Alves de Lima,addr:suburb:São Bento,amenity:restaurant,email:contato@sitiodospalmitos.com.br,phone:+55 27 3248 3163,rooms:4,website:www.sitiodospalmitos.com.br","lat":-20.3372783,"lng":-41.0434788},{"id":"2386935088","name":"Apiário Florin","tags":"addr:city:Domingos Martins,addr:suburb:Cachoeira Alta,amenity:cafe","lat":-20.3454367,"lng":-41.0505706},{"id":"2396385539","name":"Lanchonete e Pizzaria Alto Astral","tags":"amenity:restaurant,cuisine:pizza","lat":-20.3804287,"lng":-41.0297416},{"id":"2396385542","name":"Farmácia Cidade","tags":"addr:city:Domingos Martins,addr:postcode:29260-000,addr:street:Avenida Módulo,addr:suburb:Pedra Azul,amenity:pharmacy,healthcare:pharmacy","lat":-20.3791069,"lng":-41.0322355},{"id":"2396385554","name":"Polícia Civil","tags":"amenity:police","lat":-20.3794708,"lng":-41.0312142},{"id":"2412314871","name":"Banco do Brasil","tags":"addr:city:Venda Nova do Imigrante,addr:housenumber:441,addr:postcode:29375-000,addr:street:Avenida Evandi Américo Comarela,addr:suburb:Esplanada,amenity:bank,atm:yes,brand:Banco do Brasil,brand:wikidata:Q610817,brand:wikipedia:en:Banco do Brasil,phone:28 3546 1693","lat":-20.3294782,"lng":-41.1319237},{"id":"2517509666","name":"Pizza By Norbert","tags":"amenity:restaurant,cuisine:pizza","lat":-20.334462,"lng":-41.1290953},{"id":"2549896749","name":"Domaine lle de France","tags":"addr:city:Domingos Martins,addr:postcode:29278-000,addr:suburb:São Bento,amenity:restaurant","lat":-20.3084586,"lng":-41.0560745},{"id":"2844671967","name":"EEEFM Pedreiras","tags":"IJSN:administra:Estadual,IJSN:classeCnae:Fundamental e Médio,addr:city:Domingos Martins,addr:postcode:29260-000,addr:street:Rua Peterle,addr:suburb:Comunidade Pedra Azul,alt_name:Escola Estadual de Ensino Fundamental e Médio,amenity:school,contact:phone:(27)3248-1291/3248-1312","lat":-20.3815363,"lng":-41.0314845},{"id":"3092932906","name":"DPM","tags":"amenity:police","lat":-20.3181389,"lng":-40.8044897},{"id":"3092983227","name":"EEEFM Gisela Salloker Fayet","tags":"IJSN:administra:Estadual,IJSN:classeCnae:Fundamental e Médio,addr:city:Domingos Martins,addr:housenumber:35,addr:postcode:29273-000,addr:street:Rua Principal,addr:suburb:Comunidade Parajú,alt_name:Escola Estadual de Ensino Fundamental e Médio,amenity:school,contact:phone:+55 27 3249-1063;+55 27 3249-1046","lat":-20.3166533,"lng":-40.8036756},{"id":"3092984568","name":"EEEFM de Ponto Alto","tags":"IJSN:administra:Estadual,IJSN:classeCnae:Fundamental e Médio,addr:city:Domingos Martins,addr:housenumber:92,addr:postcode:29273-993,addr:street:Rua Reinoldo Kiefer,addr:suburb:Comunidade Ponto Alto,alt_name:Escola Estadual de Ensino Fundamental e Médio,amenity:school,contact:phone:+55 27 3249-5066;+55 27 3249-5139","lat":-20.2865821,"lng":-40.8163309},{"id":"3092984739","name":"EMEF Antônio Francisco Erlacher","tags":"IJSN:administra:Municipal,IJSN:classeCnae:Fundamental,addr:city:Domingos Martins,addr:housenumber:61,addr:postcode:29273-000,addr:street:Praça Eurico Gaspar Dutra,addr:suburb:Comunidade Perobas,alt_name:Escola Municipal de Ensino Fundamental,amenity:school,contact:phone:+55 27 3249-3024/9842-2358","lat":-20.288157,"lng":-40.7868026},{"id":"3662071254","name":"Estação Rodoviária de Venda Nova do Imigrante","tags":"addr:city:Venda Nova do Imigrante,addr:postcode:29375-000,addr:street:Avenida Antônio Roberto Feitosa,addr:suburb:Centro,amenity:bus_station,bus:yes,public_transport:station","lat":-20.3341168,"lng":-41.1292721},{"id":"3662121855","name":"Delegacia da Polícia Civil de Venda Nova do Imigrante","tags":"addr:city:Venda Nova do Imigrante,addr:housenumber:102,addr:place:Centro,addr:postcode:29375-000,addr:street:Rua Lourenço Lourenção,amenity:police,contact:phone:(28) 3546-1124,short_name:DPC","lat":-20.3360886,"lng":-41.1293365},{"id":"3662161316","name":"Espaço Gourmet","tags":"amenity:restaurant","lat":-20.3314909,"lng":-41.1296342},{"id":"3662343800","name":"Lusitânia","tags":"addr:city:Domingos Martins,addr:postcode:29260-000,addr:street:Acesso ao Restaurante e Pousada Lusitânia,addr:suburb:Pedra Azul,amenity:restaurant,cuisine:portuguese,internet_access:wlan,internet_access:fee:no,outdoor_seating:yes","lat":-20.3799784,"lng":-41.034849},{"id":"3663888799","name":"Restaurante Passos","tags":"addr:city:Domingos Martins,addr:postcode:29260-000,addr:street:Avenida Módulo,addr:suburb:Pedra Azul,amenity:restaurant","lat":-20.3790679,"lng":-41.0323544},{"id":"3663888803","name":"Supermercado Canal","tags":"addr:city:Domingos Martins,addr:postcode:29260-000,addr:street:Avenida Módulo,addr:suburb:Pedra Azul,shop:supermarket","lat":-20.3799104,"lng":-41.0299383},{"id":"3919305334","name":"Pagotto","tags":"shop:supermarket","lat":-20.3330831,"lng":-41.13002},{"id":"4024904450","name":"EEEF Domingos Perim","tags":"IJSN:administra:Estadual,IJSN:classeCnae:Fundamental,addr:city:Venda Nova do Imigrante,addr:housenumber:134,addr:postcode:29375-000,addr:street:Rua La Ville,addr:suburb:30 de Dezembro,alt_name:Escola Estadual de Ensino Fundamental,amenity:school,contact:phone:(28) 3546-1608","lat":-20.3350105,"lng":-41.1317185},{"id":"4024905398","name":"EMEF Cristo Rei","tags":"IJSN:administra:Municipal,IJSN:classeCnae:Fundamental,addr:city:Domingos Martins,addr:postcode:29260-000,addr:suburb:Comunidade Cristo Rei,alt_name:Escola Municipal de Ensino Fundamental,amenity:school,contact:phone:(27)3248-0088","lat":-20.2810069,"lng":-40.9748654},{"id":"4024905451","name":"EMEF Fazenda Osvaldo Retz","tags":"IJSN:administra:Municipal,IJSN:classeCnae:Infantil e Fundamental,addr:city:Domingos Martins,addr:postcode:29276-000,addr:suburb:Alto Tijuco Preto,alt_name:Escola Municipal de Ensino Fundamental,amenity:school,contact:phone:(27) 3249-5120","lat":-20.2190696,"lng":-40.9419963},{"id":"4024905482","name":"EMEF José Uliana","tags":"IJSN:administra:Municipal,IJSN:classeCnae:Infantil e Fundamental,addr:city:Domingos Martins,addr:postcode:29260-000,addr:suburb:Comunidade Lajinha,alt_name:Escola Municipal de Ensino Fundamental,amenity:school","lat":-20.2673454,"lng":-41.0624907},{"id":"4024905601","name":"EMEF Luiz Pianzola","tags":"IJSN:administra:Municipal,IJSN:classeCnae:Infantil e Fundamental,addr:city:Domingos Martins,addr:postcode:29278-000,addr:suburb:Comunidade Fazenda do Estado,alt_name:Escola Municipal de Ensino Fundamental,amenity:school,contact:phone:(27) 3248-1328","lat":-20.3660543,"lng":-41.0622169},{"id":"4024905687","name":"EMEF Rio Ponte","tags":"IJSN:administra:Municipal,IJSN:classeCnae:Fundamental,addr:city:Domingos Martins,addr:postcode:29260-000,addr:street:Estrada Rio Ponte Melgaço,addr:suburb:Rio Ponte,alt_name:Escola Municipal de Ensino Fundamental,amenity:school,contact:phone:(27) 9893-8100","lat":-20.2286585,"lng":-40.8242065},{"id":"4024905726","name":"EMEF Tijuco Preto","tags":"IJSN:administra:Municipal,IJSN:classeCnae:Infantil e Fundamental,addr:city:Domingos Martins,addr:postcode:29260-000,addr:street:Rua Principal,addr:suburb:Comunidade Tijuco Preto,alt_name:Escola Municipal de Ensino Fundamental,amenity:school,contact:phone:(27) 3268-1580","lat":-20.2512957,"lng":-40.9037126},{"id":"4024905985","name":"EMPEF Alto Rio Ponte","tags":"IJSN:administra:Municipal,IJSN:classeCnae:Fundamental,addr:city:Domingos Martins,addr:postcode:29260-000,addr:suburb:Alto Rio Ponte,alt_name:Escola Municipal Pluridocente de Ensino Fundamental,amenity:school","lat":-20.2205771,"lng":-40.845799},{"id":"4024905987","name":"EMPEF Alto Tijuco Preto","tags":"IJSN:administra:Municipal,IJSN:classeCnae:Infantil e Fundamental,addr:city:Domingos Martins,addr:postcode:29273-000,addr:suburb:Alto Tijuco Preto,alt_name:Escola Municipal Pluridocente de Ensino Fundamental,amenity:school","lat":-20.2635159,"lng":-40.9381474},{"id":"4024906095","name":"EMPEF Barra do Tijuco Preto","tags":"IJSN:administra:Municipal,IJSN:classeCnae:Fundamental,addr:city:Domingos Martins,addr:postcode:29260-000,addr:suburb:Comunidade Barra do Tijuco Preto,alt_name:Escola Municipal Pluridocente de Ensino Fundamental,amenity:school","lat":-20.2889449,"lng":-40.8914064},{"id":"4024906110","name":"EMPEF Córrego de São Bento","tags":"IJSN:administra:Municipal,IJSN:classeCnae:Infantil e Fundamental,addr:city:Domingos Martins,addr:postcode:29260-000,addr:suburb:Paraju,alt_name:Escola Municipal Pluridocente de Ensino Fundamental,amenity:school","lat":-20.3280857,"lng":-40.85312},{"id":"4024906115","name":"EMPEF Fazenda Alberto Bringer","tags":"IJSN:administra:Municipal,IJSN:classeCnae:Infantil e Fundamental,addr:city:Domingos Martins,addr:postcode:29276-000,addr:street:Fazenda Alberto Brenger,addr:suburb:Parajú,alt_name:Escola Municipal Pluridocente de Ensino Fundamental,amenity:school,contact:phone:(27) 9983-8077","lat":-20.2235997,"lng":-40.905088},{"id":"4024906123","name":"EMPEF Fazenda Schroeder","tags":"IJSN:administra:Municipal,IJSN:classeCnae:Fundamental,addr:city:Domingos Martins,addr:postcode:29260-000,addr:suburb:Alto Paraju,alt_name:Escola Municipal Pluridocente de Ensino Fundamental,amenity:school","lat":-20.3707782,"lng":-40.8478367},{"id":"4024906142","name":"EMPEF Nova Almeida","tags":"IJSN:administra:Municipal,IJSN:classeCnae:Fundamental,addr:city:Domingos Martins,addr:postcode:29273-000,addr:suburb:Paraju,alt_name:Escola Municipal Pluridocente de Ensino Fundamental,amenity:school,contact:phone:(27) 9955-6230","lat":-20.3789151,"lng":-40.788206},{"id":"4024906167","name":"EMPEF São Rafael","tags":"IJSN:administra:Municipal,IJSN:classeCnae:Infantil e Fundamental,addr:city:Domingos Martins,addr:postcode:29260-000,addr:suburb:São Rafael,alt_name:Escola Municipal Pluridocente de Ensino Fundamental,amenity:school,contact:phone:(27) 3249-1210","lat":-20.2966053,"lng":-40.9331276},{"id":"4024906216","name":"EMUEF Alto Pena","tags":"IJSN:administra:Municipal,IJSN:classeCnae:Fundamental,addr:city:Domingos Martins,addr:postcode:29260-000,addr:suburb:Alto pena,alt_name:Escola Municipal Unidocente de Ensino Fundamental,amenity:school","lat":-20.234748,"lng":-40.7956855},{"id":"4024906297","name":"EMUEF Fazenda Arthur Poleto","tags":"IJSN:administra:Municipal,IJSN:classeCnae:Fundamental,addr:city:Domingos Martins,addr:postcode:29260-000,addr:suburb:Comunidade Alto Jucu,alt_name:Escola Municipal Unidocente de Ensino Fundamental,amenity:school","lat":-20.2892371,"lng":-41.0162929},{"id":"4024906317","name":"EMUEF Goiabeiras","tags":"IJSN:administra:Municipal,IJSN:classeCnae:Fundamental,addr:city:Domingos Martins,addr:postcode:29260-000,addr:suburb:Comunidade Goiabeira,alt_name:Escola Municipal Unidocente de Ensino Fundamental,amenity:school","lat":-20.29734,"lng":-40.8478055},{"id":"4024906341","name":"EMUEF Nossa Senhora do Carmo","tags":"IJSN:administra:Municipal,IJSN:classeCnae:Fundamental,addr:city:Domingos Martins,addr:postcode:29260-000,addr:suburb:Nossa Senhora do Carmo,alt_name:Escola Municipal Unidocente de Ensino Fundamental,amenity:school,contact:phone:(27) 3248-4513","lat":-20.3349862,"lng":-41.0256412},{"id":"4024906381","name":"EMUEF Santa Luzia","tags":"IJSN:administra:Municipal,IJSN:classeCnae:Fundamental,addr:city:Domingos Martins,addr:postcode:29260-000,addr:suburb:Comunidade Santa Luzia,alt_name:Escola Municipal Unidocente de Ensino Fundamental,amenity:school","lat":-20.3842616,"lng":-40.9249238},{"id":"4024906614","name":"EMUEF Vó Rezende","tags":"IJSN:administra:Municipal,IJSN:classeCnae:Fundamental,addr:city:Domingos Martins,addr:postcode:29260-000,addr:suburb:Comunidade Córrego Capixaba,alt_name:Escola Municipal Unidocente de Ensino Fundamental,amenity:school","lat":-20.3581556,"lng":-40.8859511},{"id":"4024906620","name":"EMUL Alto Guandu","tags":"IJSN:administra:Municipal,IJSN:classeCnae:Fundamental,addr:city:Afonso Cláudio,addr:postcode:29600-000,addr:suburb:Comunidade Alto Guandu,alt_name:Escola Municipal,amenity:school","lat":-20.244642,"lng":-41.0791826},{"id":"4024906649","name":"EMUL Sebastião Claro Dias","tags":"IJSN:administra:Municipal,IJSN:classeCnae:Fundamental,addr:city:Afonso Cláudio,addr:postcode:29607-000,addr:suburb:Comunidade Serra do Boi,alt_name:Escola Municipal,amenity:school","lat":-20.2431545,"lng":-41.1157426},{"id":"6782862343","name":"Caixa Econômica Federal","tags":"addr:city:Venda Nova do Imigrante,addr:housenumber:305,addr:postcode:29375-000,addr:street:Avenida Evandi Américo Comarela,addr:suburb:Esplanada,air_conditioning:yes,amenity:bank,atm:yes,brand:Caixa Econômica Federal,brand:wikidata:Q835283,brand:wikipedia:pt:Caixa Econômica Federal,operator:Caixa Econômica Federal,wheelchair:yes","lat":-20.3304841,"lng":-41.1311633},{"id":"6910623810","name":"Restaurante Sabor Caseiro","tags":"addr:housenumber:731,amenity:restaurant","lat":-20.3278216,"lng":-41.1305453},{"id":"7018314734","name":"Restaurante Fazenda Saúde","tags":"amenity:restaurant,cuisine:regional","lat":-20.3703962,"lng":-41.1119825},{"id":"9530546135","name":"Bradesco","tags":"addr:city:Venda Nova do Imigrante,addr:housenumber:234,addr:postcode:29375-000,addr:street:Avenida Domingos Perim,addr:suburb:Centro,amenity:bank,atm:yes,brand:Bradesco,brand:wikidata:Q806181,brand:wikipedia:en:Banco Bradesco,operator:Banco Brasileiro de Descontos,phone:+55 28 3546 1574","lat":-20.3351705,"lng":-41.130249},{"id":"9530546136","name":"Agência dos Correios de Venda Nova do Imigrante","tags":"addr:city:Venda Nova do Imigrante,addr:housenumber:119,addr:postcode:29375-000,addr:street:Avenida Domingos Perim,addr:suburb:Centro,amenity:post_office,operator:Correios,operator:wikidata:Q3375004,operator:wikipedia:en:Correios","lat":-20.3339678,"lng":-41.1297976},{"id":"9530546137","name":"Banestes","tags":"addr:city:Venda Nova do Imigrante,addr:housenumber:155,addr:postcode:29375-000,addr:street:Avenida Evandi Américo Comarela,addr:suburb:Esplanada,amenity:bank,atm:yes,operator:Banco do Estado do Espírito Santo Sociedade Anônima,phone:+55 28 3546 1120","lat":-20.3317827,"lng":-41.1304438},{"id":"9530546139","name":"Sicoob","tags":"addr:city:Venda Nova do Imigrante,addr:housenumber:340,addr:postcode:29375-000,addr:street:Rua Ângelo Altoé,addr:suburb:São Pedro,amenity:bank,atm:yes,brand:Sicoob,brand:wikidata:Q28679754,brand:wikipedia:pt:Sistema de Cooperativas de Crédito do Brasil,operator:Cooperativa de Crédito,phone:+55 28 3546 3020","lat":-20.3307093,"lng":-41.1301136},{"id":"9571534192","name":"Banco do Brasil","tags":"addr:city:Domingos Martins,addr:postcode:29273-000,addr:street:Rua Celio Pitanga Pinto,addr:suburb:Parajú,amenity:bank,brand:Banco do Brasil,brand:wikidata:Q610817,brand:wikipedia:en:Banco do Brasil,operator:Banco do Brasil Sociedade Anônima","lat":-20.3168481,"lng":-40.8051616},{"id":"9581809863","name":"Sicoob","tags":"addr:city:Domingos Martins,addr:housenumber:127,addr:postcode:29273-000,addr:street:Rodovia Coreolano Guilherme Stein,addr:suburb:Parajú,amenity:bank,atm:yes,brand:Sicoob,brand:wikidata:Q28679754,brand:wikipedia:pt:Sistema de Cooperativas de Crédito do Brasil,operator:Cooperativa de Crédito Centro-Serrana do Espírito Santo","lat":-20.3179577,"lng":-40.804478},{"id":"9581809864","name":"Sicoob","tags":"addr:city:Domingos Martins,addr:postcode:29260-000,addr:street:Avenida Módulo,addr:suburb:Pedra Azul,amenity:bank,atm:yes,brand:Sicoob,brand:wikidata:Q28679754,brand:wikipedia:pt:Sistema de Cooperativas de Crédito do Brasil,email:sulserrano@sicoobes.com.br,operator:Cooperativa de Crédito Centro-Serrana do Espírito Santo,phone:+55 27 3248 1290","lat":-20.3796996,"lng":-41.0305555},{"id":"9581809865","name":"Banestes","tags":"addr:city:Domingos Martins,addr:postcode:29260-000,addr:street:Avenida Módulo,addr:suburb:Pedra Azul,amenity:bank,atm:yes,operator:Banco do Estado do Espírito Santo Sociedade Anônima","lat":-20.3793655,"lng":-41.0315678},{"id":"9586092182","name":"Vallino Pizzeria Napoletana","tags":"addr:city:Domingos Martins,addr:postcode:29260-000,addr:street:Rua Nona Elvira Peterle Modolo,addr:suburb:Chácara Pietra Azzurra,amenity:restaurant,cuisine:pizza;italian,phone:+55 27 99986 8962","lat":-20.3830936,"lng":-41.0230897},{"id":"9586135336","name":"Ninho do Jacú","tags":"addr:city:Domingos Martins,addr:postcode:29260-000,addr:suburb:Nossa Senhora do Carmo,amenity:restaurant","lat":-20.3375697,"lng":-41.0213242},{"id":"9595692072","name":"Restaurante Moinho da Roça","tags":"addr:city:Domingos Martins,addr:postcode:29260-000,addr:street:Rodovia Federal Deputado Aloízio Santos,addr:suburb:Vivendas de Pedra Azul,amenity:restaurant","lat":-20.3775648,"lng":-41.0534917}]