[{"id":"4498626386","tags":"amenity:school","lat":-19.6091646,"lng":-44.932132},{"id":"4958909241","name":"Escola Estadual Professor Francisco Tibúrcio","tags":"addr:street:Praça José Aniceto,amenity:school,contact:phone:+55 37 32721105","lat":-19.5124875,"lng":-44.676134},{"id":"4958909252","tags":"amenity:place_of_worship,building:church,denomination:roman_catholic,religion:christian","lat":-19.5129122,"lng":-44.6779338},{"id":"6894342074","name":"Balsa Ponte do Curral","tags":"amenity:ferry_terminal,description:Antiga Balsa Ponte do Curral,ferry:yes,public_transport:station,status:inactive","lat":-19.5410302,"lng":-44.9902321},{"id":"7787467680","name":"Rodoviária","tags":"addr:city:Pitangui,addr:state:MG,amenity:bus_station,public_transport:station","lat":-19.6860858,"lng":-44.8949116}]