[{"id":"3764118093","name":"Escola Estadual José Guimarães","tags":"amenity:school,note:pt:Não consta no Cadastro Estadual","lat":-18.5418199,"lng":-42.7603691},{"id":"4188187690","name":"Escola Municipal Bom Começo","tags":"amenity:school,operator:Prefeitura","lat":-18.5289635,"lng":-42.6272967},{"id":"4213944982","name":"Escola Estadual Abelardo da Cunha","tags":"amenity:school","lat":-18.5525613,"lng":-42.5602049},{"id":"4213944983","name":"Escola Estadual Doutor Antônio da Cunha Pereira","tags":"amenity:school","lat":-18.5431704,"lng":-42.5635764},{"id":"4213944984","name":"Escola Estadual Sady da Cunha","tags":"amenity:school","lat":-18.539661,"lng":-42.5659475},{"id":"4213944985","name":"Estádio de Futebol Doutor Juarez Vieira","tags":"leisure:stadium","lat":-18.5517755,"lng":-42.5621549},{"id":"4213945499","tags":"amenity:school","lat":-18.5500286,"lng":-42.5573054},{"id":"5994056479","tags":"amenity:police,police:traffic_police","lat":-18.5236835,"lng":-42.7107329},{"id":"10119964098","name":"Bradesco","tags":"addr:city:Peçanha,addr:housenumber:115,addr:postcode:39700-000,addr:street:Avenida dos Bragas,addr:suburb:Centro,amenity:bank,atm:yes,brand:Bradesco,brand:wikidata:Q806181","lat":-18.548073,"lng":-42.5596921},{"id":"10119964100","name":"Museu Histórico de Peçanha","tags":"addr:city:Peçanha,addr:housenumber:118,addr:postcode:39700-000,addr:street:Avenida dos Bragas,addr:suburb:Centro,museum:history,tourism:museum","lat":-18.5482487,"lng":-42.5597406},{"id":"10119964101","name":"Escola Estadual Senador Simão da Cunha","tags":"addr:city:Peçanha,addr:housenumber:161,addr:postcode:39700-000,addr:street:Avenida dos Bragas,addr:suburb:Centro,amenity:school,operator:Governo de Minas Gerais,operator:type:public","lat":-18.548128,"lng":-42.5593611},{"id":"10119964104","name":"Supermercado Maciel","tags":"shop:supermarket","lat":-18.5482513,"lng":-42.5595971},{"id":"10119964105","name":"Farmácia Minas","tags":"addr:city:Peçanha,addr:housenumber:75,addr:postcode:39700-000,addr:street:Avenida dos Bragas,addr:suburb:Centro,amenity:pharmacy,dispensing:yes,healthcare:pharmacy","lat":-18.5480529,"lng":-42.5599485},{"id":"10119964106","name":"Banco do Brasil","tags":"addr:city:Peçanha,addr:housenumber:47,addr:postcode:39700-000,addr:street:Avenida dos Bragas,addr:suburb:Centro,amenity:bank,atm:yes,brand:Banco do Brasil,brand:wikidata:Q610817","lat":-18.5480313,"lng":-42.5603535},{"id":"10119964107","name":"Vilela Farma","tags":"addr:city:Peçanha,addr:postcode:39700-000,addr:street:Avenida dos Bragas,addr:suburb:Centro,amenity:pharmacy,dispensing:yes,healthcare:pharmacy","lat":-18.5480504,"lng":-42.5601362},{"id":"10119964108","name":"Hospital Santo Antônio","tags":"addr:city:Peçanha,addr:housenumber:29,addr:postcode:39700-000,addr:street:Rua Horácio de Freitas,addr:suburb:Centro,amenity:hospital,healthcare:hospital,healthcare:speciality:general,operator:Hospital Santo Antônio,operator:type:private","lat":-18.5475355,"lng":-42.5597259},{"id":"10120012453","name":"Rodoviária de Peçanha","tags":"addr:city:Peçanha,addr:housenumber:68,addr:postcode:39700-000,addr:street:Avenida Cantagalo,addr:suburb:Bomba,amenity:bus_station,bus:yes,public_transport:station","lat":-18.5456025,"lng":-42.5624476},{"id":"10120579971","name":"Instituto Educacional Bravieira","tags":"addr:city:Peçanha,addr:housenumber:280,addr:postcode:39700-000,addr:street:Praça Getúlio Vargas,addr:suburb:Centro,amenity:school,operator:Instituto Educacional Bravieira Limitada,operator:type:private","lat":-18.5482176,"lng":-42.5574805},{"id":"10120579972","name":"Sicoob","tags":"addr:city:Peçanha,addr:housenumber:74,addr:postcode:39700-000,addr:street:Rua Horácio de Freitas,addr:suburb:Centro,amenity:bank,brand:Sicoob,brand:wikidata:Q28679754,operator:Cooperativa de Crédito de Livre Admissão do Centro Nordeste Mineiro Limitada","lat":-18.5478936,"lng":-42.5596938},{"id":"10121606437","name":"Polícia Militar de Minas Gerais","tags":"addr:city:Peçanha,addr:postcode:39700-000,addr:suburb:Bomba,amenity:police,operator:Polícia Militar de Minas Gerais,operator:short:PMMG,operator:wikidata:Q6852134","lat":-18.5454255,"lng":-42.5629889},{"id":"10121606447","name":"Delegacia de Polícia Civil de Peçanha","tags":"addr:city:Peçanha,addr:housenumber:396,addr:postcode:39700-000,addr:street:Rua Vereador Francisco Viriato da Rocha,addr:suburb:Bomba,amenity:police,operator:Polícia Civil do Estado de Minas Gerais","lat":-18.5455654,"lng":-42.5630667},{"id":"4188187689","name":"Escola Estadual Professora Ester Siqueira","tags":"addr:city:Cantagalo,addr:housenumber:306,addr:postcode:39703-000,addr:street:Rua Francisco Ribeiro de Carvalho,addr:suburb:Centro,amenity:school,operator:Governo de Minas Gerais,operator:type:public","lat":-18.5284096,"lng":-42.6250495},{"id":"10123498567","name":"Escola Municipal Doutor Odilon Behrens","tags":"addr:city:Peçanha,addr:postcode:39700-000,addr:suburb:São Geraldo,amenity:school,operator:Município de Peçanha,operator:type:public","lat":-18.4637164,"lng":-42.5405382},{"id":"10124673641","name":"Centro Educacional Maria Tereza Queiroz - Apae","tags":"addr:city:Peçanha,addr:housenumber:25,addr:postcode:39700-000,addr:street:Rua José Bené,addr:suburb:Alvorada,amenity:school","lat":-18.55343,"lng":-42.5593544},{"id":"10124721621","name":"Agência de Correios de Peçanha","tags":"addr:city:Peçanha,addr:housenumber:67,addr:postcode:39700-000,addr:street:Rua Senador Simão da Cunha,addr:suburb:Centro,amenity:post_office,phone:+55 33 3411 1503","lat":-18.5488846,"lng":-42.5582232},{"id":"10125152058","name":"Escola Municipal Thayanne Helenita Eleto","tags":"addr:city:Peçanha,addr:housenumber:32,addr:postcode:39,addr:street:Rua Ivan Polidoro,addr:suburb:Sagrado Coração de Jesus,amenity:school,operator:Município de Peçanha,operator:type:public","lat":-18.5313036,"lng":-42.5668114},{"id":"10136657035","tags":"addr:city:Cantagalo,addr:suburb:Barra da Mesa,amenity:school","lat":-18.4831858,"lng":-42.6360583},{"id":"10139549172","name":"Sicoob","tags":"addr:city:São João Evangelista,addr:housenumber:93,addr:postcode:39705-000,addr:street:Rua Capitão Sebastião da Costa Rocha,addr:suburb:Centro,amenity:bank,brand:Sicoob,brand:wikidata:Q28679754,operator:Cooperativa de Crédito de Livre Admissão do Centro Nordeste Mineiro Limitada","lat":-18.5478857,"lng":-42.7668053},{"id":"10143016924","name":"Escola Municipal Antonio Medina Cardoso","tags":"addr:city:São João Evangelista,addr:postcode:39704-000,addr:suburb:Ribeirão da Mesa,amenity:school,operator:Município de São João Evangelista,operator:type:public","lat":-18.6226057,"lng":-42.7241845},{"id":"10147263752","name":"Bradesco","tags":"addr:city:São João Evangelista,addr:housenumber:36,addr:postcode:39705-000,addr:street:Praça Coronel Cornélio Pimenta,addr:suburb:Centro,amenity:bank,atm:yes,brand:Bradesco,brand:wikidata:Q806181","lat":-18.548064,"lng":-42.7664498},{"id":"10147263755","name":"Escola Estadual Monsenhor Pinheiro","tags":"addr:city:São João Evangelista,addr:housenumber:494,addr:postcode:39705-000,addr:street:Rua Coronel Antônio Borges do Amaral,addr:suburb:Centro,amenity:school,contact:phone:+55 33 34121203,operator:Governo de Minas Gerais,operator:type:public","lat":-18.5486073,"lng":-42.7664373},{"id":"10147263758","name":"Agência dos Correios de São João Evangelista","tags":"addr:city:São João Evangelista,addr:housenumber:289,addr:postcode:39705-000,addr:street:Praça Coronel Cornélio Pimenta,addr:suburb:Centro,amenity:post_office","lat":-18.5485421,"lng":-42.7666319},{"id":"10147263759","name":"Biblioteca Pública Municipal","tags":"addr:city:São João Evangelista,addr:postcode:39705-000,addr:street:Praça Coronel Cornélio Pimenta,addr:suburb:Centro,amenity:library,operator:Município de São João Evangelista,operator:type:public","lat":-18.5485079,"lng":-42.7667649},{"id":"10147267095","name":"4 Pel/102 Cia PM/65 BPM/8 RPM","tags":"addr:city:São João Evangelista,addr:housenumber:06,addr:postcode:39705-000,addr:street:Rua Doutor Mata Machado,addr:suburb:Centro,amenity:police,operator:Polícia Militar de Minas Gerais,operator:short:PMMG,operator:wikidata:Q6852134,phone:+55 33 3412 1190","lat":-18.5474815,"lng":-42.767918},{"id":"10147962261","name":"Escola Municipal Maria De Lourdes Medina Bicalho","tags":"addr:city:São João Evangelista,addr:housenumber:04,addr:postcode:39705-000,addr:street:Rua Astéria Ribeiro,addr:suburb:Engenho da Serra,amenity:school","lat":-18.5405677,"lng":-42.7531644},{"id":"10218375787","name":"PEM Branca de Neve","tags":"addr:city:Paulistas,addr:postcode:39765-000,addr:suburb:Currião da Cana-brava,amenity:school,operator:Município de Paulistas,operator:type:public","lat":-18.4705521,"lng":-42.8133328}]