[{"id":"3764118093","name":"Escola Estadual José Guimarães","tags":"amenity:school,note:pt:Não consta no Cadastro Estadual","lat":-18.5418199,"lng":-42.7603691},{"id":"4188187690","name":"Escola Municipal Bom Começo","tags":"amenity:school,operator:Prefeitura","lat":-18.5289635,"lng":-42.6272967},{"id":"4213944982","name":"Escola Estadual Abelardo da Cunha","tags":"amenity:school","lat":-18.5525613,"lng":-42.5602049},{"id":"4213944983","name":"Escola Estadual Doutor Antônio da Cunha Pereira","tags":"amenity:school","lat":-18.5431704,"lng":-42.5635764},{"id":"4213944984","name":"Escola Estadual Sady da Cunha","tags":"amenity:school","lat":-18.539661,"lng":-42.5659475},{"id":"4213944985","name":"Estádio de Futebol Doutor Juarez Vieira","tags":"leisure:stadium","lat":-18.5517755,"lng":-42.5621549},{"id":"4213945499","tags":"amenity:school","lat":-18.5500286,"lng":-42.5573054},{"id":"5994056479","tags":"amenity:police,police:traffic_police","lat":-18.5236835,"lng":-42.7107329}]