[{"id":"369888831","tags":"amenity:restaurant","lat":-18.239884,"lng":-43.6241518},{"id":"1243232095","name":"Restaurante Jequitinhonha","tags":"amenity:cafe","lat":-18.2399064,"lng":-43.6176474},{"id":"1243253315","name":"Banco do Brasil","tags":"addr:city:Diamantina,addr:housenumber:23,addr:postcode:39100-000,addr:street:Praça Conselheiro Mata,addr:suburb:Centro,amenity:bank,atm:yes,brand:Banco do Brasil,brand:wikidata:Q610817,brand:wikipedia:en:Banco do Brasil","lat":-18.2443692,"lng":-43.597589},{"id":"1243253316","name":"Bradesco","tags":"addr:city:Diamantina,addr:housenumber:119,addr:postcode:39100-000,addr:street:Praça Barão de Guaicuí,addr:suburb:Centro,amenity:bank,atm:yes,brand:Bradesco,brand:wikidata:Q806181,brand:wikipedia:en:Banco Bradesco","lat":-18.243879,"lng":-43.5969066},{"id":"1243253323","name":"Banco Itau","tags":"amenity:bank,atm:yes","lat":-18.2448083,"lng":-43.6030335},{"id":"1243253326","name":"Caixa Econômica Federal","tags":"addr:city:Diamantina,addr:housenumber:86,addr:postcode:39100-000,addr:street:Rua Direita,addr:suburb:Centro,amenity:bank,atm:yes,brand:Caixa Econômica Federal,brand:wikidata:Q835283","lat":-18.2451853,"lng":-43.5975087},{"id":"2534399667","name":"Instituto Casa da Glória","tags":"addr:city:Diamantina,addr:housenumber:297;298,addr:postcode:39100-000,addr:street:Rua da Glória,addr:suburb:Centro,amenity:school,operator:Universidade Federal de Minas Gerais - Instituto de Geociências,operator:type:public","lat":-18.2415386,"lng":-43.601727},{"id":"3227953026","name":"Bar do Raimundo Sem Braço","tags":"amenity:restaurant","lat":-18.1442626,"lng":-43.6197119},{"id":"3342680185","name":"Igreja de São Francisco de Assis","tags":"addr:city:Diamantina,addr:postcode:39100-000,addr:street:Rua São Francisco,addr:suburb:Centro,amenity:place_of_worship,building:church,denomination:roman_catholic,religion:christian","lat":-18.2438742,"lng":-43.5985499},{"id":"3342680186","name":"Mercado Velho","tags":"addr:city:Diamantina,addr:postcode:39100-000,addr:street:Praça Barão de Guaicuí,addr:suburb:Centro,amenity:marketplace,source:name:IBGE,tourism:attraction","lat":-18.243953,"lng":-43.596453},{"id":"3342875162","name":"Hospital Nossa Senhora da Saúde","tags":"addr:city:Diamantina,addr:housenumber:564,addr:postcode:39100-000,addr:street:Rua Paula Vieira,addr:suburb:Centro,amenity:hospital,healthcare:hospital","lat":-18.2388057,"lng":-43.5985631},{"id":"3342875163","name":"Igreja Nossa Senhora das Mercês","tags":"addr:city:Diamantina,addr:postcode:39100-000,addr:street:Rua das Mercês,addr:suburb:Centro,amenity:place_of_worship,building:church,denomination:catholic,religion:christian","lat":-18.246666,"lng":-43.5983666},{"id":"3342875166","name":"Recanto do Antônio","tags":"amenity:restaurant,cuisine:regional","lat":-18.2445112,"lng":-43.5969854},{"id":"3342875167","name":"Seminário Provincial do Sagrado Coração de Jesus","tags":"addr:city:Diamantina,addr:postcode:39100-000,addr:street:Praça do Sagrado Coração,addr:suburb:Bom Jesus,amenity:school","lat":-18.2480352,"lng":-43.6008348},{"id":"3342875168","name":"Sushi Barroco","tags":"amenity:restaurant,cuisine:sushi","lat":-18.2444334,"lng":-43.596998},{"id":"3342875189","name":"Igreja de Nossa Senhora do Carmo","tags":"addr:city:Diamantina,addr:postcode:39100-000,addr:street:Rua do Carmo,addr:suburb:Centro,amenity:place_of_worship,building:church,denomination:roman_catholic,religion:christian","lat":-18.2458236,"lng":-43.5961028},{"id":"3342937508","name":"Drogaria Popular","tags":"amenity:pharmacy,healthcare:pharmacy","lat":-18.2434313,"lng":-43.598567},{"id":"3342937509","name":"Illusion","tags":"amenity:nightclub","lat":-18.2436431,"lng":-43.5979454},{"id":"3346729092","name":"Poço da Água Limpa","tags":"tourism:attraction,waterway:waterfall","lat":-18.2145455,"lng":-43.6186661},{"id":"3346729493","name":"Poço do Estudante","tags":"tourism:attraction,waterway:waterfall","lat":-18.2012933,"lng":-43.6204711},{"id":"3346853995","name":"Cachoeira da Sentinela","tags":"tourism:attraction,waterway:waterfall","lat":-18.1836076,"lng":-43.6183206},{"id":"3346854047","tags":"amenity:parking,parking:surface","lat":-18.144924,"lng":-43.6188544},{"id":"3346854308","name":"Cachoeira dos Cristais","tags":"tourism:attraction,waterway:waterfall","lat":-18.1575355,"lng":-43.5995848},{"id":"3349896563","name":"Farmácia Arraial","tags":"amenity:pharmacy,healthcare:pharmacy,operator:Drogarede","lat":-18.2415941,"lng":-43.6065911},{"id":"3349896564","name":"BR Mania","tags":"shop:convenience","lat":-18.2459009,"lng":-43.6028229},{"id":"3349896565","name":"Marques Center","tags":"shop:supermarket","lat":-18.2415159,"lng":-43.6071286},{"id":"3349896566","name":"Restaurante e Churrascaria Bom Jesus","tags":"amenity:restaurant,cuisine:barbecue","lat":-18.2414164,"lng":-43.6073657},{"id":"3349896575","name":"Igreja do Senhor do Bom Jesus","tags":"addr:city:Diamantina,addr:housenumber:612,addr:postcode:39100-000,addr:state:Minas Gerais,addr:street:Praça João Pão,addr:suburb:Bom Jesus,amenity:place_of_worship,building:church,denomination:roman_catholic,religion:christian","lat":-18.2415495,"lng":-43.6059576},{"id":"4272528059","name":"Cervejaria Capistrana","tags":"addr:city:Diamantina,addr:housenumber:160,addr:postcode:39100-000,addr:street:Rua Maria Leopoldina,addr:suburb:Jardim Imperial,amenity:bar,description:(38) 3531-8255","lat":-18.2302523,"lng":-43.6112411},{"id":"4272590791","name":"Cordeiro Supermercado","tags":"addr:housenumber:149,addr:postcode:39100000,addr:street:Praça José Augusto Neves,shop:supermarket,website:https://supercordeiro.com.br/","lat":-18.2379367,"lng":-43.5959379},{"id":"4277394177","name":"Moradia Estudantil da UFVJM","tags":"amenity:university,description:Futuras instalações da Moradia Estudantil da UFVJM","lat":-18.2297041,"lng":-43.6081215},{"id":"4286029187","name":"Capela de Nossa Senhora da Luz","tags":"addr:city:Diamantina,addr:housenumber:466,addr:postcode:39100-000,addr:state:Minas Gerais,addr:street:Praça da Luz,addr:suburb:Centro,amenity:place_of_worship,building:church,denomination:catholic,religion:christian","lat":-18.2434064,"lng":-43.6033191},{"id":"4568870389","name":"Escola Estadual Professor Leopoldo Miranda","tags":"addr:city:Diamantina,addr:housenumber:338,addr:postcode:39100-000,addr:street:Rua Macau do Meio,addr:suburb:Centro,amenity:school,email:escola.23817@educacao.mg.gov.br,name:pt:Escola Estadual Professor Leopoldo Miranda","lat":-18.2419136,"lng":-43.5989265},{"id":"4673824424","name":"Cordeiro","tags":"shop:supermarket","lat":-18.2473667,"lng":-43.6023451},{"id":"4673824425","name":"Serra das Biquinhas","tags":"leisure:park","lat":-18.2478559,"lng":-43.6037853},{"id":"4707202744","name":"Correios","tags":"addr:housenumber:93,addr:street:Praça Correa Rabelo,addr:suburb:Centro,amenity:post_office,brand:Correios,brand:wikidata:Q3375004,brand:wikipedia:en:Correios,opening_hours:09:00-17:00","lat":-18.2446648,"lng":-43.5971404},{"id":"6016630800","tags":"amenity:pharmacy,dispensing:yes,healthcare:pharmacy","lat":-18.2443064,"lng":-43.5967032},{"id":"6016641397","name":"Apocalipse","tags":"amenity:restaurant","lat":-18.24432,"lng":-43.5967755},{"id":"6594845392","name":"Baiuca","tags":"amenity:bar","lat":-18.2449183,"lng":-43.5967952},{"id":"6594845394","name":"Bufet 13RS","tags":"amenity:restaurant","lat":-18.2438132,"lng":-43.5983806},{"id":"6594845396","name":"Bar do adilsom","tags":"amenity:restaurant","lat":-18.1441935,"lng":-43.6199327},{"id":"6594845487","name":"Butiquim da Quitanda","tags":"amenity:restaurant","lat":-18.2451306,"lng":-43.5968461},{"id":"6637708656","name":"Tem Tudo Mercearia","tags":"shop:convenience","lat":-18.2451676,"lng":-43.5972665},{"id":"6644156118","name":"Farmácias FTB","tags":"amenity:pharmacy,dispensing:yes,healthcare:pharmacy","lat":-18.2445823,"lng":-43.5971958},{"id":"6644388433","name":"Indiana","tags":"amenity:pharmacy,dispensing:yes,healthcare:pharmacy","lat":-18.2452049,"lng":-43.5973651},{"id":"6928328851","name":"Villa Kids","tags":"addr:city:Diamantina,addr:housenumber:30,addr:postcode:39100000,addr:street:Rua Imperatriz,addr:suburb:Jardim Imperial,amenity:restaurant,phone:+55 38 99749 4500","lat":-18.2326234,"lng":-43.615794},{"id":"6934978961","name":"CEMEI","tags":"amenity:childcare","lat":-18.2398899,"lng":-43.6311762},{"id":"7006682397","name":"Querubim - Espaço de Brincar e Aprender","tags":"amenity:childcare","lat":-18.2438071,"lng":-43.6141625},{"id":"7006682398","name":"Escola Estadual Professor Ayres da Matta Machado","tags":"amenity:school","lat":-18.2392625,"lng":-43.6172416},{"id":"9550492617","name":"Passadiço da Glória","tags":"addr:city:Diamantina,addr:housenumber:297;298,addr:postcode:39100-000,addr:street:Rua da Glória,addr:suburb:Centro,tourism:attraction","lat":-18.2415854,"lng":-43.6016511},{"id":"9796679114","name":"Terceiro Batalhão de Polícia Militar do Estado de Minas Gerais","tags":"addr:city:Diamantina,addr:postcode:39100-000,addr:street:Rua Pedro Duarte,addr:suburb:Romana,amenity:police,operator:Polícia Militar de Minas Gerais,operator:short:PMMG,operator:wikidata:Q6852134,police:offices","lat":-18.2520834,"lng":-43.5951809},{"id":"9798603642","name":"Museu do Diamante","tags":"addr:city:Diamantina,addr:postcode:39100-000,addr:street:Rua Direita,addr:suburb:Centro,museum:history,tourism:museum","lat":-18.2445672,"lng":-43.5977725},{"id":"9798603643","name":"Bnb","tags":"addr:city:Diamantina,addr:postcode:39100-000,addr:street:Rua do Carmo,addr:suburb:Centro,amenity:bank,operator:Banco Nordeste do Brasil","lat":-18.2456094,"lng":-43.596276},{"id":"9804546463","tags":"amenity:restaurant","lat":-18.2449019,"lng":-43.5970897},{"id":"10032505545","name":"Sicoob","tags":"addr:city:Diamantina,addr:housenumber:75,addr:postcode:39100-000,addr:street:Praça Barão de Guaicuí,addr:suburb:Centro,air_conditioning:yes,amenity:bank,atm:yes,brand:wikdate:Q28679754,brand:wikipedia:pt:Sistema de Cooperativas de Crédito do Brasil","lat":-18.2439474,"lng":-43.597113},{"id":"10056640219","name":"Pronto Atendimento Santa Izabel","tags":"addr:city:Diamantina,addr:housenumber:195,addr:postcode:39100-000,addr:street:Rua da Glória,addr:suburb:Centro,amenity:hospital,emergency:yes,healthcare:hospital,healthcare:speciality:general,operator:Santa Casa de Caridade de Diamantina,operator:type:private","lat":-18.2420543,"lng":-43.5998607}]