[{"id":"1932976834","name":"Polícia Rodoviária","tags":"amenity:police,police:traffic_police","lat":-17.3589537,"lng":-44.8825193},{"id":"1948389811","name":"Polícia Rodoviária","tags":"amenity:police,police:traffic_police","lat":-17.2930124,"lng":-44.8860469},{"id":"2051789090","name":"Caixa Econômica Federal","tags":"amenity:bank","lat":-17.3518011,"lng":-44.9495943},{"id":"2051789298","name":"Itaú","tags":"amenity:bank,brand:Itaú Unibanco,brand:wikidata:Q1424293,brand:wikipedia:pt:Itaú Unibanco","lat":-17.3498321,"lng":-44.9505886},{"id":"2051860840","name":"Fundação Doutor Moisés Magalhães Freire","tags":"amenity:hospital,emergency:yes","lat":-17.3381346,"lng":-44.9394877},{"id":"2051872328","name":"Correios","tags":"amenity:post_office","lat":-17.3497402,"lng":-44.9467431},{"id":"2052246171","name":"Campo de Futebol","tags":"leisure:sports_centre","lat":-17.3653541,"lng":-44.9399834},{"id":"2054851904","tags":"amenity:parking","lat":-17.3526891,"lng":-44.9457764},{"id":"2062514481","name":"Bar e Restaurante do Bahiano","tags":"amenity:restaurant","lat":-17.3429578,"lng":-44.9276046},{"id":"2263445611","name":"Banco do Brasil","tags":"amenity:bank,atm:yes","lat":-17.3526905,"lng":-44.9489511},{"id":"2263447090","name":"Kaka's Bar","tags":"amenity:restaurant","lat":-17.3510597,"lng":-44.9508984},{"id":"2263449103","name":"Restaurante Egnaldo","tags":"amenity:restaurant,cuisine:regional","lat":-17.3475957,"lng":-44.9530039},{"id":"2779865270","name":"Hospital São Sebastião","tags":"addr:city:Pirapora,addr:housenumber:1054,addr:postcode:39270-000,addr:street:Avenida Jeferson Gitirana,amenity:hospital","lat":-17.3343257,"lng":-44.92548},{"id":"6928950638","name":"Porto Pescador","tags":"amenity:ferry_terminal,ferry:yes,public_transport:station,status:inactive","lat":-17.2753081,"lng":-44.9344844},{"id":"6928950639","name":"Porto Pedral Serafim","tags":"amenity:ferry_terminal,ferry:yes,public_transport:station,status:inactive","lat":-17.3085807,"lng":-44.9311783},{"id":"6928950640","name":"Antigo Porto do Senap","tags":"amenity:ferry_terminal,ferry:yes,public_transport:station,status:inactive","lat":-17.3426536,"lng":-44.957196},{"id":"6990771972","name":"Porto do Genipapo","tags":"amenity:ferry_terminal,ferry:yes,public_transport:station,status:inactive","lat":-17.2484646,"lng":-44.8830651},{"id":"6990771973","name":"Porto do Pajuí","tags":"amenity:ferry_terminal,ferry:yes,public_transport:station,status:inactive","lat":-17.2467013,"lng":-44.8215389},{"id":"6990771974","name":"Porto do Roque","tags":"amenity:ferry_terminal,ferry:yes,public_transport:station,status:inactive","lat":-17.2381302,"lng":-44.8209351},{"id":"6990771975","name":"Porto do Silverio","tags":"amenity:ferry_terminal,ferry:yes,public_transport:station,status:inactive","lat":-17.2396778,"lng":-44.820967},{"id":"6990771976","name":"Porto do Chico Leite","tags":"addr:city:Várzea da Palma,amenity:ferry_terminal,ferry:yes,public_transport:station,status:inactive","lat":-17.2710405,"lng":-44.7798189},{"id":"6990771977","name":"Porto do Roçado","tags":"amenity:ferry_terminal,ferry:yes,public_transport:station,status:inactive","lat":-17.3018037,"lng":-44.9331514},{"id":"6990771981","name":"Porto da Pindaíba","tags":"amenity:ferry_terminal,ferry:yes,old_name:Porto da Pindahyba,public_transport:station,status:inactive","lat":-17.3028015,"lng":-44.9304092},{"id":"8560176877","name":"Restaurante do Gaúcho","tags":"amenity:restaurant","lat":-17.3825715,"lng":-44.9732666},{"id":"8560243051","name":"Polícia Civil de Minas Gerais","tags":"amenity:police","lat":-17.3580247,"lng":-44.9582182},{"id":"8560243052","name":"Academia Corpo & Mente","tags":"leisure:fitness_centre","lat":-17.3671255,"lng":-44.9657396},{"id":"8560243056","name":"Correios","tags":"amenity:post_office,brand:Correios,brand:wikidata:Q3375004,brand:wikipedia:en:Correios","lat":-17.3645024,"lng":-44.9630081},{"id":"8560243058","name":"Drogaria Cristina","tags":"amenity:pharmacy,dispensing:yes,healthcare:pharmacy","lat":-17.3635334,"lng":-44.9619086},{"id":"8560243061","name":"Academia Aperfeisuando","tags":"leisure:fitness_centre","lat":-17.3607575,"lng":-44.9588625},{"id":"8561027448","name":"Drogaria São José","tags":"amenity:pharmacy,dispensing:yes,healthcare:pharmacy","lat":-17.3731848,"lng":-44.9720886},{"id":"8561133776","name":"Pizzaria Sabor de Minas","tags":"amenity:restaurant,cuisine:pizza","lat":-17.3637257,"lng":-44.9710062},{"id":"8561133778","name":"Supermercado Albatroz","tags":"shop:supermarket","lat":-17.3666886,"lng":-44.9717483},{"id":"8561133780","name":"Aliança Supermercado","tags":"shop:supermarket","lat":-17.3688149,"lng":-44.9690895},{"id":"8561133799","name":"Bradesco","tags":"amenity:bank,brand:Bradesco,brand:wikidata:Q806181,brand:wikipedia:en:Banco Bradesco","lat":-17.3611533,"lng":-44.9572529},{"id":"8561133800","name":"Drogaria Cristina","tags":"amenity:pharmacy,dispensing:yes,healthcare:pharmacy","lat":-17.3612809,"lng":-44.9577871},{"id":"8561133807","name":"Banco do Brasil","tags":"amenity:bank,brand:Banco do Brasil,brand:wikidata:Q610817,brand:wikipedia:en:Banco do Brasil","lat":-17.3573162,"lng":-44.956357},{"id":"8561133808","name":"Beira Rio Night Club","tags":"amenity:nightclub","lat":-17.3562776,"lng":-44.9564481},{"id":"8561209024","name":"Supermercado Avenida","tags":"shop:supermarket","lat":-17.3255236,"lng":-44.9200984},{"id":"8561209026","name":"Restaurante e Dormitório Lima","tags":"amenity:restaurant","lat":-17.3227017,"lng":-44.9254068},{"id":"8561209029","name":"FUNAM","tags":"amenity:university","lat":-17.3302281,"lng":-44.9268735},{"id":"8561213463","name":"APAE Pirapora","tags":"amenity:school","lat":-17.3323873,"lng":-44.9201324},{"id":"8561213464","name":"Açaí Club Fitness","tags":"leisure:fitness_centre","lat":-17.3389946,"lng":-44.924392},{"id":"8561213465","name":"Cobra Academia","tags":"leisure:fitness_centre","lat":-17.3407165,"lng":-44.9228998},{"id":"8561213466","name":"Academia Espaço Ativo","tags":"leisure:fitness_centre","lat":-17.337682,"lng":-44.9441867},{"id":"8561213467","name":"Five Academia","tags":"leisure:fitness_centre","lat":-17.3425203,"lng":-44.9349493},{"id":"8561310503","name":"Pirapark","tags":"leisure:sports_centre","lat":-17.3926369,"lng":-44.963515},{"id":"8561337329","tags":"amenity:restaurant","lat":-17.3830708,"lng":-44.9739584},{"id":"8562111589","name":"Pré Escolar Municipal Gotinhas de Carvalho","tags":"amenity:school","lat":-17.3608798,"lng":-44.9657735},{"id":"8562306735","name":"Rodoviária de Buritizeiro","tags":"amenity:bus_station,bus:yes,public_transport:station","lat":-17.364405,"lng":-44.9634579},{"id":"8562319459","name":"E. M. Maria Geralda da Silva","tags":"amenity:school","lat":-17.3673348,"lng":-44.9858789},{"id":"8563989837","name":"Supermercado Albatroz Mix","tags":"shop:supermarket","lat":-17.3577378,"lng":-44.9580567},{"id":"8563989839","name":"Supermercado Albatroz","tags":"shop:supermarket","lat":-17.3629858,"lng":-44.9608641},{"id":"8740009005","tags":"shop:supermarket","lat":-17.3621,"lng":-44.9591704},{"id":"8928677605","name":"Supermercado Avenida","tags":"shop:supermarket","lat":-17.3168209,"lng":-44.9083101}]