[{"id":"3350146218","name":"Mercearia Coutense","tags":"shop:convenience","lat":-18.0815728,"lng":-43.4771749},{"id":"6039869472","tags":"amenity:school","lat":-18.0766184,"lng":-43.2437434},{"id":"6130772616","tags":"amenity:school","lat":-18.0745613,"lng":-43.4624511},{"id":"6130772617","tags":"amenity:school","lat":-18.0758119,"lng":-43.4617225},{"id":"7128471795","name":"Escola Estadual Dom João Antonio dos Santos","tags":"amenity:school","lat":-18.0050319,"lng":-43.38154},{"id":"7128471799","name":"Restaurante Tempero de Minas","tags":"amenity:restaurant","lat":-18.0076004,"lng":-43.3770235},{"id":"7131703902","name":"Estádio Municipal","tags":"leisure:stadium","lat":-18.0034987,"lng":-43.3779362},{"id":"7131751401","tags":"amenity:grave_yard","lat":-18.0010299,"lng":-43.3790048},{"id":"7131751403","name":"Escola Municipal Zulma Rocha Santos","tags":"amenity:school","lat":-17.9998215,"lng":-43.3782673},{"id":"7131751405","name":"Empório Rio Preto","tags":"shop:supermarket","lat":-18.0050973,"lng":-43.3827745},{"id":"7724943166","tags":"amenity:post_office","lat":-18.0764059,"lng":-43.2478461},{"id":"7724943175","tags":"amenity:school","lat":-18.0770047,"lng":-43.2468615},{"id":"8316531486","name":"São Gonçalo","tags":"shop:supermarket","lat":-18.0747585,"lng":-43.4725705},{"id":"8316531487","name":"Polícia Militar","tags":"amenity:police","lat":-18.074204,"lng":-43.472292},{"id":"8334984108","tags":"amenity:post_office","lat":-18.0736638,"lng":-43.4709647},{"id":"8334984113","name":"Droga Rede","tags":"amenity:pharmacy,dispensing:yes,healthcare:pharmacy","lat":-18.0739008,"lng":-43.4718317}]