[{"id":"4024904467","name":"EEEF Valério","tags":"IJSN:administra:Estadual,IJSN:classeCnae:Fundamental,addr:city:Vila Valério,addr:housenumber:167,addr:postcode:29785-000,addr:street:Rua Antônio Barcelos,addr:suburb:Vila Nova,alt_name:Escola Estadual de Ensino Fundamental,amenity:school,contact:phone:(27) 3728-1565","lat":-19.0017803,"lng":-40.3874185},{"id":"4024904484","name":"EEEFM Atílio Vivacqua","tags":"IJSN:administra:Estadual,IJSN:classeCnae:Fundamental e Médio,addr:city:Vila Valério,addr:postcode:29785-000,addr:street:Rua Natalino Cossi,addr:suburb:São Rafael,alt_name:Escola Estadual de Ensino Fundamental e Médio,amenity:school,contact:phone:(27) 3728-1589/3728-1115","lat":-18.9988758,"lng":-40.3916058},{"id":"4024904991","name":"EEPEF Córrego Rodrigues","tags":"IJSN:administra:Estadual,IJSN:classeCnae:Fundamental,addr:city:Sooretama,addr:postcode:29927-000,addr:suburb:Comunidade Córrego do Rodrigues,alt_name:Escola Estadual Pluridocente de Ensino Fundamental,amenity:school","lat":-19.0608391,"lng":-40.2294055},{"id":"4024904994","name":"EEPEF Fazenda Domingos Correia","tags":"IJSN:administra:Estadual,IJSN:classeCnae:Fundamental,addr:city:Sooretama,addr:postcode:29927-000,addr:suburb:Comunidade Joeiranais,alt_name:Escola Estadual Pluridocente de Ensino Fundamental,amenity:school","lat":-19.0729577,"lng":-40.0849963},{"id":"4024905021","name":"EEUEF Córrego Patioba","tags":"IJSN:administra:Estadual,IJSN:classeCnae:Fundamental,addr:city:Sooretama,addr:postcode:29927-000,addr:suburb:Comunidade Patioba,alt_name:Escola Estadual Unidocente de Ensino Fundamental,amenity:school","lat":-19.1576575,"lng":-40.143814},{"id":"4024905263","name":"EMEF Araribóia","tags":"IJSN:administra:Municipal,IJSN:classeCnae:Fundamental,addr:city:Vila Valério,addr:postcode:29785-000,addr:suburb:Comunidade Araribóia,alt_name:Escola Municipal de Ensino Fundamental,amenity:school,contact:phone:(27) 37281048","lat":-19.049623,"lng":-40.295352},{"id":"4024905393","name":"EMEF Chumbado","tags":"IJSN:administra:Municipal,IJSN:classeCnae:Fundamental,addr:city:Sooretama,addr:postcode:29927-000,addr:suburb:Córrego Chumbado,alt_name:Escola Municipal de Ensino Fundamental,amenity:school,contact:phone:(27) 3273-3003","lat":-19.1166184,"lng":-40.1911235},{"id":"4024905589","name":"EMEF Jurama","tags":"IJSN:administra:Municipal,IJSN:classeCnae:Infantil e Fundamental,addr:city:Vila Valério,addr:postcode:29785-000,addr:street:Rua Principal,addr:suburb:Jurama,alt_name:Escola Municipal de Ensino Fundamental,amenity:school,contact:phone:(27) 9971-8732","lat":-18.993378,"lng":-40.2732952},{"id":"4024905647","name":"EMEF Patrimônio de Santo Antônio","tags":"IJSN:administra:Municipal,IJSN:classeCnae:Infantil e Fundamental,addr:city:São Domingos do Norte,addr:postcode:29745-000,addr:suburb:Comunidade Santo Antônio de Novo Brasil,alt_name:Escola Municipal de Ensino Fundamental,amenity:school,contact:phone:(27) 9969-2785","lat":-19.0779671,"lng":-40.4197626},{"id":"4024905727","name":"EMEF Tiradentes","tags":"IJSN:administra:Municipal,IJSN:classeCnae:Fundamental,addr:city:Rio Bananal,addr:postcode:29920-000,addr:street:Avenida Jorge Torres,addr:suburb:Distrito de São Jorge do Tiradentes,alt_name:Escola Municipal de Ensino Fundamental,amenity:school,contact:phone:(27) 3265-6164","lat":-19.1212765,"lng":-40.3614493},{"id":"4024905740","name":"EMEF Viva Kaio Fredy Grigoleto","tags":"IJSN:administra:Municipal,IJSN:classeCnae:Fundamental,addr:city:Vila Valério,addr:housenumber:50,addr:postcode:29785-000,addr:street:Rua Daniel Pelissari,addr:suburb:São Rafael,alt_name:Escola Municipal de Ensino Fundamental,amenity:school,contact:phone:(27) 3728-1483","lat":-19.0007835,"lng":-40.3931715},{"id":"4024905974","name":"EMEIUEF São Sebastião do Lacrimal","tags":"IJSN:administra:Municipal,IJSN:classeCnae:Infantil e Fundamental,addr:city:Rio Bananal,addr:postcode:29920-000,addr:suburb:Córrego São Sebastião do Lacrimal,alt_name:Escola Municipal de Ensino Infantil Unidocente e Ensino Fundamental,amenity:school","lat":-19.1290662,"lng":-40.2581246},{"id":"4024906232","name":"EMUEF Bom Jesus da Lapa","tags":"IJSN:administra:Municipal,IJSN:classeCnae:Fundamental,addr:city:Rio Bananal,addr:postcode:29920-000,addr:suburb:Comunidade Córrego da Penha,alt_name:Escola Municipal Unidocente de Ensino Fundamental,amenity:school","lat":-19.1019247,"lng":-40.2987369},{"id":"4024906257","name":"EMUEF Córrego Cedro","tags":"IJSN:administra:Municipal,IJSN:classeCnae:Fundamental,addr:city:Rio Bananal,addr:postcode:29200-000,addr:suburb:Comunidade Córrego da Penha,alt_name:Escola Municipal Unidocente de Ensino Fundamental,amenity:school","lat":-19.0994262,"lng":-40.2809828},{"id":"4024906262","name":"EMUEF Córrego Lacrimal","tags":"IJSN:administra:Municipal,IJSN:classeCnae:Fundamental,addr:city:Rio Bananal,addr:postcode:29920-000,addr:suburb:Córrego Lacrimal,alt_name:Escola Municipal Unidocente de Ensino Fundamental,amenity:school","lat":-19.1513048,"lng":-40.263208},{"id":"4024906275","name":"EMUEF Córrego Vargem Alegre","tags":"IJSN:administra:Municipal,IJSN:classeCnae:Fundamental,addr:city:Vila Valério,addr:postcode:29785-000,addr:suburb:Comunidade Vargem Alegre,alt_name:Escola Municipal Unidocente de Ensino Fundamental,amenity:school,contact:phone:(27) 3728-1611","lat":-19.0114087,"lng":-40.3319422},{"id":"4024906283","name":"EMUEF Córrego da Penha","tags":"IJSN:administra:Municipal,IJSN:classeCnae:Fundamental,addr:city:Rio Bananal,addr:postcode:29920-000,addr:suburb:Comunidade Córrego da Penha,alt_name:Escola Municipal Unidocente de Ensino Fundamental,amenity:school","lat":-19.1341255,"lng":-40.309044},{"id":"4024906904","name":"EUMEF Baixo Moacir","tags":"IJSN:administra:Municipal,IJSN:classeCnae:Fundamental,addr:city:Governador Lindenberg,addr:postcode:29720-000,addr:suburb:Comunidade Córrego São João do Moacir,alt_name:Escola Unidocente Municipal de Ensino Fundamental,amenity:school","lat":-19.1110768,"lng":-40.3955339},{"id":"4024906906","name":"EUMEF Barra de São João de Moacir","tags":"IJSN:administra:Municipal,IJSN:classeCnae:Fundamental,addr:city:Governador Lindenberg,addr:postcode:29720-000,addr:suburb:Comunidade de Santo Antônio de Novo Brasil,alt_name:Escola Municipal Unidocente de Ensino Fundamental,amenity:school","lat":-19.0953157,"lng":-40.3804656},{"id":"4024906919","name":"EUMEF Córrego Sereno","tags":"IJSN:administra:Municipal,IJSN:classeCnae:Fundamental,addr:city:Governador Lindenberg,addr:postcode:29720-000,addr:suburb:Comunidade Córrego Sereno,alt_name:Escola Unidocente Municipal de Ensino Fundamental,amenity:school","lat":-19.151346,"lng":-40.4020854},{"id":"9426866686","name":"Banestes","tags":"addr:city:Vila Valério,addr:housenumber:160,addr:postcode:297850-000,addr:street:Avenida Doutor Valério,addr:suburb:Centro,amenity:bank","lat":-18.9966882,"lng":-40.3905675},{"id":"9426866687","name":"Sicoob","tags":"addr:city:Vila Valério,addr:housenumber:140,addr:postcode:297850-000,addr:street:Avenida Doutor Valério,addr:suburb:Centro,amenity:bank,brand:Sicoob,brand:wikidata:Q28679754,brand:wikipedia:pt:Sistema de Cooperativas de Crédito do Brasil","lat":-18.996538,"lng":-40.3906353},{"id":"9428170892","name":"Banco do Brasil","tags":"addr:city:Vila Valério,addr:housenumber:30,addr:postcode:29785-000,addr:street:Rua Natalino Cossi,addr:suburb:Centro,amenity:bank,atm:yes,brand:Banco do Brasil,brand:wikidata:Q610817,brand:wikipedia:en:Banco do Brasil,operator:Banco do Brasil,phone:+55 27 3728 1144","lat":-18.9979079,"lng":-40.3902406}]