[{"id":"2482210645","name":"EMEF João Ferreira de Araújo","tags":"IJSN:administra:Municipal,IJSN:classeCnae:Infantil e Fundamental,addr:city:Conceição da Barra,addr:postcode:29967-000,addr:street:Rua Adolpho Serra,addr:suburb:Pinheiro,alt_name:Escola Municipal de Ensino Fundamental,amenity:school,contact:phone:+55 27 3762-4305","lat":-18.4317013,"lng":-39.935939},{"id":"2882797614","tags":"amenity:bus_station,public_transport:station","lat":-18.4317512,"lng":-39.9336261},{"id":"2882807407","tags":"amenity:police","lat":-18.4285911,"lng":-39.930826},{"id":"3743499962","name":"Delegacia da Polícia Civil de Pedro Canário","tags":"addr:city:Pedro Canário,addr:place:Boa Vista,addr:postcode:29970-000,addr:street:Rua São Roque,amenity:police,contact:phone:(27) 3764-2609,short_name:DPC","lat":-18.3067161,"lng":-39.9514421},{"id":"4024904427","name":"Centro Educacional União","tags":"IJSN:administra:Privada,IJSN:classeCnae:Infantil e Fundamental,addr:city:Pedro Canário,addr:housenumber:04,addr:postcode:29970-000,addr:street:Rua Minas Gerais,addr:suburb:Explanada,alt_name:Centro Educacional,amenity:school,contact:phone:+55 27 3764-1882;+55 27 3764-1078;+55 27 3764-1882","lat":-18.2928746,"lng":-39.9635584},{"id":"4024904448","name":"EEEF Córrego do Cedro","tags":"IJSN:administra:Estadual,IJSN:classeCnae:Fundamental,addr:city:Conceição da Barra,addr:postcode:29960-000,addr:street:Rodovia ES 209,addr:suburb:Comunidade Cedro,alt_name:Escola Estadual de Ensino Fundamental,amenity:school,contact:phone:(27) 37622549","lat":-18.3662378,"lng":-39.7882475},{"id":"4024904466","name":"EEEF Valdicio Barbosa dos Santos","tags":"IJSN:administra:Estadual,IJSN:classeCnae:Fundamental,addr:city:Conceição da Barra,addr:postcode:29960-000,addr:suburb:Comunidade Água Preta,alt_name:Escola Estadual de Ensino Fundamental,amenity:school,contact:phone:(27) 3762-3710","lat":-18.3023841,"lng":-39.8781702},{"id":"4024905006","name":"EEPEF São Benedito","tags":"IJSN:administra:Estadual,IJSN:classeCnae:Fundamental,addr:city:Conceição da Barra,addr:postcode:29960-000,addr:suburb:Comunidade Jundiá,alt_name:Escola Estadual Pluridocente de Ensino Fundamental,amenity:school","lat":-18.3838319,"lng":-39.8782591},{"id":"4024905413","name":"EMEF Córrego das Palmeiras","tags":"IJSN:administra:Municipal,IJSN:classeCnae:Fundamental,addr:city:Conceição da Barra,addr:postcode:29967-000,addr:suburb:Comunidade Córrego das Palmeiras,alt_name:Escola Municipal de Ensino Fundamental,amenity:school,contact:phone:(27) 3762-0239","lat":-18.3310317,"lng":-39.9171677},{"id":"4024905439","name":"EMEF Emilio Lagarsse","tags":"IJSN:administra:Municipal,IJSN:classeCnae:Fundamental,addr:city:Conceição da Barra,addr:postcode:29960-000,addr:suburb:Comunidade Córrego das Palmeiras,alt_name:Escola Municipal de Ensino Fundamental,amenity:school,contact:phone:(27) 3762-3054 / 3762-0238","lat":-18.3281145,"lng":-39.9170037},{"id":"4024905457","name":"EMEF Felinto Damião","tags":"IJSN:administra:Municipal,IJSN:classeCnae:Fundamental,addr:city:Pedro Canário,addr:postcode:29970-000,addr:street:Rua Júlia Bonelar,addr:suburb:Felinto Damião,alt_name:Escola Municipal de Ensino Fundamental,amenity:school,contact:phone:(27) 3764-2342","lat":-18.2964116,"lng":-39.9482201},{"id":"4024905663","name":"EMEF Professor Guedes Alcoforado","tags":"IJSN:administra:Municipal,IJSN:classeCnae:Fundamental,addr:city:Pedro Canário,addr:housenumber:139,addr:postcode:29970-000,addr:street:Avenida Mario Vello Silvares,addr:suburb:Centro,alt_name:Escola Municipal de Ensino Fundamental,amenity:school,contact:phone:(27) 3764-1715","lat":-18.3034257,"lng":-39.9564702},{"id":"4024905745","name":"EMEF Água Preta","tags":"IJSN:administra:Municipal,IJSN:classeCnae:Fundamental,addr:city:Conceição da Barra,addr:postcode:29960-000,addr:suburb:Comunidade Água Preta,alt_name:Escola Municipal de Ensino Fundamental,amenity:school,contact:phone:(27) 3762-0239","lat":-18.2815474,"lng":-39.8871346},{"id":"9378817164","name":"Terminal de Ônibus de Pedro Canário","tags":"addr:city:Pedro Canário,addr:postcode:29970-000,addr:street:Rua Caltrem,addr:suburb:Centro,amenity:bus_station,bus:yes,network:Viação Águia Branca,operator:Viação Águia Branca,public_transport:station","lat":-18.3002635,"lng":-39.9578241},{"id":"9399979784","name":"Bradesco","tags":"addr:city:Pedro Canário,addr:housenumber:51,addr:postcode:29970-000,addr:street:Rua Antônio Guedes Alcoforado,addr:suburb:Centro,amenity:bank,brand:Bradesco,brand:wikidata:Q806181,brand:wikipedia:en:Banco Bradesco,email:2463.gerencia@bradesco.com.br,operator:Banco Brasileiro de Descontos Sociedade Anônima,phone:+55 27 3764 1410","lat":-18.3016627,"lng":-39.9565976},{"id":"9399979785","name":"Banco do Brasil","tags":"addr:city:Pedro Canário,addr:housenumber:26,addr:postcode:29970-000,addr:street:Avenida Antônio Guedes Alcoforado,addr:suburb:Centro,amenity:bank,brand:Banco do Brasil,brand:wikidata:Q610817,brand:wikipedia:en:Banco do Brasil,email:age4579@bb.com.br,phone:+55 27 3764 1478","lat":-18.3018171,"lng":-39.9567988},{"id":"9399979786","name":"Sicoob","tags":"addr:city:Pedro Canário,addr:housenumber:146,addr:postcode:29970-000,addr:street:Rua Antônio Guedes Alcoforado,addr:suburb:Centro,amenity:bank,atm:no,brand:Sicoob,brand:wikidata:Q28679754,brand:wikipedia:pt:Sistema de Cooperativas de Crédito do Brasil,operator:Cooperativa de Crédito Norte do Espírito Santo,phone:+55 27 3764 1719","lat":-18.3010297,"lng":-39.9556138},{"id":"9399979787","name":"Banestes","tags":"addr:city:Pedro Canário,addr:housenumber:931,addr:postcode:29970-000,addr:street:Rua José Jesuino da Rocha,addr:suburb:Centro,amenity:bank,phone:+55 27 3764 1122","lat":-18.3028014,"lng":-39.9558028},{"id":"9695839620","tags":"amenity:bus_station","lat":-18.3003101,"lng":-39.9578459},{"id":"10552798850","name":"Terceira Companhia de Polícia Militar de Pedro Canário","tags":"addr:city:Pedro Canário,addr:postcode:29970-000,addr:street:Rua Doutor Washignton Luis da Silva,addr:suburb:Novo Horizonte,amenity:police,email:cmt3cia.13bpm@pm.es.gov.br,operator:Polícia Militar do Estado do Espírito Santo,operator:short:PMES,operator:wikidata:Q10351029,phone:+55 27 3767 7614","lat":-18.293245,"lng":-39.958159},{"id":"10553693372","name":"Creche Bom Jesus","tags":"addr:city:Pedro Canário,addr:postcode:29970-000,addr:street:Rua Bermiro Teixeira,addr:suburb:Centro,amenity:childcare,operator:Município de Pedro Canário,operator:type:public","lat":-18.2964152,"lng":-39.952806},{"id":"10559475543","name":"Banestes","tags":"addr:city:Conceição da Barra,addr:housenumber:671,addr:postcode:29967-000,addr:street:Avenida Walderedo Faria,addr:suburb:Braço do Rio,amenity:bank,brand:Banestes,brand:wikidata:Q4854848,official_name:Banco do Estado do Espírito Santo","lat":-18.43388,"lng":-39.9305311},{"id":"10562109471","name":"Agência de Correios em Pedro Canário","tags":"addr:city:Pedro Canário,addr:postcode:29970-000,addr:street:Avenida Alberto dos Reis Castro,addr:suburb:Centro,amenity:post_office,brand:Empresa Brasileira de Correios e Telégrafos,brand:short:Correios,brand:wikidata:Q3375004","lat":-18.2994058,"lng":-39.9581793}]