[{"id":"6615163888","name":"Correios","tags":"addr:city:Ouro Verde de Minas,addr:postcode:39855-000,amenity:post_office,operator:Correios,operator:wikidata:Q3375004","lat":-18.0686108,"lng":-41.2710401},{"id":"9876526066","name":"Capela de Nossa Senhora Aparecida","tags":"amenity:place_of_worship,building:church,denomination:roman_catholic,religion:christian","lat":-17.9805514,"lng":-41.2700185},{"id":"9877525845","name":"Segundo Pelotão de Polícia Militar do Estado de Minas Gerais","tags":"addr:city:Ouro Verde de Minas,addr:housenumber:79,addr:postcode:39855-000,addr:street:Rua Concórdia,addr:suburb:Centro,amenity:police,operator:Polícia Militar de Minas Gerais,operator:short:PMMG,operator:wikidata:Q6852134,phone:+55 33 3527 1511","lat":-18.0696668,"lng":-41.269333},{"id":"9885770831","name":"Papelaria Aquarela","tags":"addr:city:Frei Gaspar,addr:housenumber:150,addr:postcode:398040000,addr:street:Rua Charife Pimenta Bukzem,addr:suburb:Centro,operator:Cicero Neto,payment:cash:yes,payment:mastercard:yes,payment:visa:yes,shop:supermarket","lat":-18.0648919,"lng":-41.4310716},{"id":"9885774599","name":"Agência dos Correios de Frei Gaspar","tags":"addr:city:Frei Gaspar,addr:postcode:39840-000,addr:street:Praça Maria Leal,addr:suburb:Centro,amenity:post_office,operator:Empresa Brasileira de Correios e Telégrafos","lat":-18.0655036,"lng":-41.4289156},{"id":"9885774600","name":"Destacamento de Polícia Militar do Estado de Minas Gerais","tags":"addr:city:Frei Gaspar,addr:housenumber:21,addr:postcode:39840-000,addr:street:Praça Maria Leal,addr:suburb:Centro,amenity:police,operator:Polícia Militar do Estado de Minas Gerais","lat":-18.0653927,"lng":-41.4291953},{"id":"9885774612","name":"Igreja Matriz de Nossa Senhora da Conceição","tags":"addr:city:Frei Gaspar,addr:postcode:39840-000,addr:street:Rua Francisco de Bessa Couto,addr:suburb:Centro,amenity:place_of_worship,building:church,denomination:roman_catholic,religion:christian","lat":-18.0647412,"lng":-41.4296231},{"id":"9893743953","name":"Igreja Cristã do Brasil","tags":"addr:city:Ataléia,addr:postcode:39850-000,addr:state:Minas Gerais,amenity:place_of_worship,building:church,denomination:protestant,religion:christian","lat":-18.0135898,"lng":-41.1995754},{"id":"9895386604","name":"Capela de São Sebastião","tags":"addr:city:Ataléia,addr:postcode:39850-000,addr:state:Minas Gerais,amenity:place_of_worship,building:church,denomination:roman_catholic,religion:christian","lat":-18.0917831,"lng":-41.1933473}]