[{"id":"2422063696","name":"EMEF Pedro Palácios","tags":"IJSN:administra:Municipal,IJSN:classeCnae:Fundamental,addr:city:Montanha,addr:postcode:29894-000,addr:street:Avenida Cristiano Dias Lopes Filho,addr:suburb:Comunidade Vinhático,alt_name:Escola Municipal de Ensino Fundamental,amenity:school,contact:phone:+55 27 3754-5142;+55 27 3754-5210","lat":-18.1973143,"lng":-40.2653363},{"id":"2422063704","name":"Mercado","tags":"shop:supermarket","lat":-18.1970595,"lng":-40.2653742},{"id":"4024904399","name":"CEB Nossa Senhora Aparecida","tags":"IJSN:administra:Privada,IJSN:classeCnae:Infantil e Fundamental,addr:city:Montanha,addr:housenumber:60,addr:postcode:29890-000,addr:street:Rua Nova Venécia,addr:suburb:Centro,alt_name:Centro de Educação Básica,amenity:school,contact:phone:(27) 3754-1106 / 3754-1459,wheelchair:yes","lat":-18.1285157,"lng":-40.3623995},{"id":"4024904794","name":"EEEFM Elpídio Campos de Oliveira","tags":"IJSN:administra:Estadual,IJSN:classeCnae:Fundamental,addr:city:Montanha,addr:housenumber:1085,addr:postcode:29890-000,addr:street:Avenida Antônio Paulino,addr:suburb:Centro,alt_name:Escola Estadual de Ensino Fundamental e Médio,amenity:school,contact:phone:(27) 3754-1735 / 3754-1735,wheelchair:yes","lat":-18.1264099,"lng":-40.3620051},{"id":"4024904800","name":"EEEFM Floresta do Sul","tags":"IJSN:administra:Estadual,IJSN:classeCnae:Fundamental e Médio,addr:city:Pedro Canário,addr:housenumber:11,addr:postcode:29970-000,addr:street:Rua Praça Nossa Senhora Aparecida,addr:suburb:Comunidade Floresta do Sul,alt_name:Escola Estadual de Ensino Fundamental e Médio,amenity:school,contact:phone:(27) 3764-6082 / 3764-6025","lat":-18.2630414,"lng":-40.0799944},{"id":"4024904829","name":"EEEFM Padre Manoel da Nobrega","tags":"IJSN:administra:Estadual,IJSN:classeCnae:Fundamental e Médio,addr:city:Montanha,addr:housenumber:190,addr:postcode:29894-000,addr:street:Rua Presidente Kennedy,addr:suburb:Centro,alt_name:Escola Estadual de Ensino Fundamental e Médio,amenity:school,contact:phone:(27) 3754-5181 / 3754-5180 / 3754-5181","lat":-18.1959598,"lng":-40.2651612},{"id":"4024904888","name":"EEPEF Bela Vista","tags":"IJSN:administra:Estadual,IJSN:classeCnae:Fundamental,addr:city:Montanha,addr:housenumber:55,addr:postcode:29890-000,addr:suburb:Comunidade Assentamento Bela Vista,alt_name:Escola Estadual Pluridocente de Ensino Fundamental,amenity:school","lat":-18.2092364,"lng":-40.2453587},{"id":"4024904997","name":"EEPEF Francisco Domingos Ramos","tags":"IJSN:administra:Estadual,IJSN:classeCnae:Fundamental,addr:city:Montanha,addr:housenumber:6,addr:postcode:29890-000,addr:suburb:Comunidade São Lourenço,alt_name:Escola Estadual Pluridocente de Ensino Fundamental,amenity:school","lat":-18.2662333,"lng":-40.1739207},{"id":"4024905004","name":"EEPEF Paulo Freire","tags":"IJSN:administra:Estadual,IJSN:classeCnae:Fundamental,addr:city:Montanha,addr:housenumber:55,addr:postcode:29890-000,addr:street:Rua Assentamento Adriano Machado,addr:suburb:Comunidade Montanha,alt_name:Escola Estadual Pluridocente de Ensino Fundamental,amenity:school","lat":-18.1111433,"lng":-40.3276364},{"id":"4024905041","name":"EEUEF Francisco Fialho de Lima","tags":"IJSN:administra:Estadual,IJSN:classeCnae:Fundamental,addr:city:Montanha,addr:housenumber:4,addr:postcode:29890-000,addr:suburb:Comunidade Santo Antônio,alt_name:Escola Estadual Unidocente de Ensino Fundamental,amenity:school","lat":-18.1261425,"lng":-40.2759474},{"id":"4024905052","name":"EEUEF Rosangela Leite Alves","tags":"IJSN:administra:Estadual,IJSN:classeCnae:Fundamental,addr:city:Montanha,addr:housenumber:46,addr:postcode:29890-000,addr:suburb:Comunidade São Lourenço,alt_name:Escola Estadual Unidocente de Ensino Fundamental,amenity:school","lat":-18.2444592,"lng":-40.2252534},{"id":"4024905072","name":"EFA de Vinhático","tags":"IJSN:administra:Privada,IJSN:classeCnae:Fundamental e Médio,addr:city:Montanha,addr:postcode:29890-000,addr:street:Rodovia Vinhático Montanha,addr:suburb:Comunidade Assentamento Bela Vista,alt_name:Escola Família Agrícola,amenity:school,contact:phone:(27) 3754-5192","lat":-18.1793237,"lng":-40.2629083},{"id":"4024905271","name":"EMEF Bairro Brasília","tags":"IJSN:administra:Municipal,IJSN:classeCnae:Fundamental,addr:city:Montanha,addr:housenumber:126,addr:postcode:29890-000,addr:street:Rua Professor Fagundes de Lima,addr:suburb:Brasília,alt_name:Escola Municipal de Ensino Fundamental,amenity:school,contact:phone:(27) 3754-2278 / 3754-1699","lat":-18.1301282,"lng":-40.3732035},{"id":"4024905429","name":"EMEF Domingos Martins","tags":"IJSN:administra:Municipal,IJSN:classeCnae:Fundamental,addr:city:Montanha,addr:postcode:29890-000,addr:street:Avenida Combonianos,addr:suburb:Irmã Maria Zélia Prudente,alt_name:Escola Municipal de Ensino Fundamental,amenity:school,contact:phone:(27) 3754-2275 / 3754-1791 / 3754-2260","lat":-18.1276674,"lng":-40.3722339},{"id":"4024905659","name":"EMEF Presidente Costa e Silva","tags":"IJSN:administra:Municipal,IJSN:classeCnae:Fundamental,addr:city:Montanha,addr:housenumber:234,addr:postcode:29890-000,addr:street:Praça Coronel Vindilino de Matos Lima,addr:suburb:Fundão,alt_name:Escola Municipal de Ensino Fundamental,amenity:school,contact:phone:(27) 3754-1790 / 3157-1715","lat":-18.1236715,"lng":-40.3630101},{"id":"4024905721","name":"EMEF São Sebastião do Norte","tags":"IJSN:administra:Municipal,IJSN:classeCnae:Fundamental,addr:city:Montanha,addr:postcode:29890-000,addr:street:Avenida Antônio Pinheiro Barbosa,addr:suburb:Comunidade São Sebastião do Norte,alt_name:Escola Municipal de Ensino Fundamental,amenity:school,contact:phone:(27) 3754-6086 / 3754-6064","lat":-18.1073013,"lng":-40.172837},{"id":"4024906287","name":"EMUEF Córrego do Limoeiro","tags":"IJSN:administra:Municipal,IJSN:classeCnae:Fundamental,addr:city:Montanha,addr:postcode:29890-000,addr:suburb:Comunidade Limoeiro,alt_name:Escola Municipal Unidocente de Ensino Fundamental,amenity:school","lat":-18.1418871,"lng":-40.247102},{"id":"4024906598","name":"EMUEF São Lourenço","tags":"IJSN:administra:Municipal,IJSN:classeCnae:Fundamental,addr:city:Montanha,addr:postcode:29890-000,addr:street:Fazenda Dois Irmãos,addr:suburb:Comunidade São Lourenço,alt_name:Escola Municipal Unidocente de Ensino Fundamental,amenity:school,contact:phone:(27) 3754-2277 / 3754-2262","lat":-18.2698287,"lng":-40.1696985},{"id":"9395175369","name":"Banestes","tags":"addr:city:Montanha,addr:housenumber:196,addr:postcode:29890-000,addr:street:Praça Osvaldo Lopes,addr:suburb:Centro,amenity:bank,operator:Banco do Estado do Espírito Santo,phone:+55 27","lat":-18.1261761,"lng":-40.3646222},{"id":"9395175374","name":"Sicoob","tags":"addr:city:Montanha,addr:housenumber:48,addr:postcode:29890-000,addr:street:Praça Osvaldo Lopes,addr:suburb:Centro,amenity:bank,brand:Sicoob,brand:wikidata:Q28679754,brand:wikipedia:pt:Sistema de Cooperativas de Crédito do Brasil,operator:Cooperativa de Crédito Norte do Espírito Santo,phone:+55 27 3754 1416","lat":-18.126521,"lng":-40.3637412},{"id":"9395175379","name":"Caixa Econômica Federal","tags":"addr:city:Montanha,addr:postcode:29890-000,addr:street:Avenida Antônio Paulino,addr:suburb:Centro,amenity:bank,brand:Caixa Econômica Federal,brand:wikidata:Q835283,brand:wikipedia:pt:Caixa Econômica Federal,operator:Caixa Econômica Federal","lat":-18.1269791,"lng":-40.3644534},{"id":"9395175380","name":"Banco do Brasil","tags":"addr:city:Montanha,addr:housenumber:831,addr:postcode:29890-000,addr:street:Avenida Antônio Paulino,addr:suburb:Centro,amenity:bank,brand:Banco do Brasil,brand:wikidata:Q610817,brand:wikipedia:en:Banco do Brasil,operator:Banco do Brasil Sociedade Anônima,phone:+55 27 3754 1300","lat":-18.1270177,"lng":-40.3639475},{"id":"9395175381","name":"Bradesco","tags":"addr:city:Montanha,addr:housenumber:101,addr:postcode:29890-000,addr:street:Rua Regina de Oliveira Matos,addr:suburb:Centro,amenity:bank,brand:Bradesco,brand:wikidata:Q806181,brand:wikipedia:en:Banco Bradesco","lat":-18.1274918,"lng":-40.3643471}]