[{"id":"5766590253","name":"Carvalho Pereira supermercado carol","tags":"addr:street:Praca loteria 26,shop:supermarket","lat":-14.6823216,"lng":-42.5108213},{"id":"5766590753","name":"Josuer de spuza matos mercado mattus","tags":"addr:street:RUA ENGENHEIRO RUBENS SALES,shop:supermarket","lat":-14.6797246,"lng":-42.5108442},{"id":"5766591253","name":"Servilar","tags":"addr:street:Praca francisco bezzera,shop:supermarket","lat":-14.6828339,"lng":-42.5068175},{"id":"5969984487","name":"Jose pires da rocha","tags":"shop:supermarket","lat":-14.6842255,"lng":-42.5059918},{"id":"5969984488","name":"Mercado bom lar","tags":"addr:street:Praca 2 de julho,shop:supermarket","lat":-14.6832993,"lng":-42.5065375},{"id":"8081823571","name":"Escola Floresta Ideal","tags":"amenity:school","lat":-14.6885529,"lng":-42.3789025},{"id":"8098454654","name":"Escola Barra da Onça","tags":"amenity:school","lat":-14.6225376,"lng":-42.2782231},{"id":"8098454656","name":"EScola Fidelino Máximo","tags":"amenity:school","lat":-14.59515,"lng":-42.2208667},{"id":"8113136776","name":"Escola Carolina Domingos","tags":"amenity:school","lat":-14.6832081,"lng":-42.3301399},{"id":"8113136777","name":"Escola Sete de Setembro","tags":"amenity:school","lat":-14.6603223,"lng":-42.3211385},{"id":"8113136778","name":"Escola Ministro Antônio Balbino","tags":"amenity:school","lat":-14.6674219,"lng":-42.3336268},{"id":"8113136779","name":"Escola José Custódio","tags":"amenity:school","lat":-14.713812,"lng":-42.3981285},{"id":"8113136780","name":"Escola Tiradentes","tags":"amenity:school","lat":-14.7157836,"lng":-42.3861981}]