[{"id":"5760359921","name":"Correios","tags":"amenity:post_office","lat":-15.7269782,"lng":-41.0003845},{"id":"5799194808","name":"Itaú","tags":"addr:city:Divisópolis,addr:postcode:39912-000,addr:street:Rua  Apolinario Borges,addr:suburb:Centro,amenity:bank,atm:yes,level:0","lat":-15.7251503,"lng":-41.0013133},{"id":"5799194814","name":"Drogaria Regina","tags":"amenity:pharmacy","lat":-15.7253154,"lng":-41.0010731},{"id":"5832451410","name":"Corpus Fitness","tags":"leisure:fitness_centre","lat":-15.7259382,"lng":-41.0014462},{"id":"5832451416","name":"Brasa de Ouro","tags":"amenity:restaurant,cuisine:steak_house,internet_access:wlan,internet_access:fee:no","lat":-15.7278843,"lng":-40.9958214},{"id":"5832451419","name":"Mercado Barato Todo Dia","tags":"shop:supermarket","lat":-15.7281967,"lng":-40.9991741},{"id":"5832451420","name":"Mine Preço","tags":"shop:supermarket","lat":-15.7256795,"lng":-41.0012072},{"id":"5832459897","name":"Supermecado Canaã","tags":"shop:supermarket","lat":-15.7225942,"lng":-41.0011402},{"id":"5832459898","name":"Supermecado Eliana","tags":"shop:supermarket","lat":-15.7230899,"lng":-41.0006413},{"id":"5832459899","name":"Supermecado Divisópolis","tags":"addr:city:Divisópolis,addr:street:Avenida Alberto Vicente Pereira,shop:supermarket","lat":-15.7227375,"lng":-41.0006181},{"id":"5832459900","name":"Supermecado JN","tags":"shop:supermarket","lat":-15.7249282,"lng":-41.0014862},{"id":"5832475275","name":"Farmacia Avenida","tags":"amenity:pharmacy","lat":-15.7229169,"lng":-41.0004133},{"id":"5832475280","name":"Comercial Bom Preço","tags":"shop:supermarket","lat":-15.7246751,"lng":-40.9989381},{"id":"5832526738","name":"Agroterra","tags":"shop:pet","lat":-15.7202214,"lng":-41.0011482},{"id":"5832526740","name":"Drogaria Menor Preço","tags":"amenity:pharmacy","lat":-15.7248068,"lng":-41.0016632},{"id":"5832526744","name":"Mercearia Clara","tags":"shop:supermarket","lat":-15.7250521,"lng":-40.9998608},{"id":"5832526752","name":"Rede De Farmacia de Minas","tags":"amenity:pharmacy","lat":-15.7256227,"lng":-40.9984392},{"id":"5835261988","name":"Comercial Boa Vista","tags":"shop:supermarket","lat":-15.7217699,"lng":-40.9995987},{"id":"5835287496","name":"Drogaria Valência","tags":"amenity:pharmacy,dispensing:yes,healthcare:pharmacy","lat":-15.7246757,"lng":-41.0021417},{"id":"5835287497","name":"Farmacia Líder","tags":"amenity:pharmacy,dispensing:yes,healthcare:pharmacy","lat":-15.7244315,"lng":-41.0021583},{"id":"5835287499","name":"Rações Beija-Flor","tags":"shop:pet","lat":-15.7248085,"lng":-40.998794},{"id":"5835294638","name":"Agro Minas","tags":"shop:pet","lat":-15.7226235,"lng":-41.0010915},{"id":"5835297157","name":"SESI - Industria do Conhecimento","tags":"amenity:library","lat":-15.7255257,"lng":-41.0016636},{"id":"5835317871","name":"Ed Casa","tags":"amenity:restaurant","lat":-15.7210853,"lng":-41.0055388},{"id":"5843477908","tags":"shop:supermarket","lat":-15.7187636,"lng":-40.9989682}]