[{"id":"5948702786","name":"Diomar dos santos dutra","tags":"addr:street:Rua Rodrigues Costa,shop:supermarket","lat":-14.6622386,"lng":-41.4915482},{"id":"5948739896","name":"Jeova alves miranda","tags":"addr:street:Praca 2,shop:supermarket","lat":-14.6884932,"lng":-41.6814326},{"id":"5948740288","name":"Manoel carlos da silva","tags":"addr:street:Praca 2,shop:supermarket","lat":-14.689244,"lng":-41.6807987},{"id":"5948741786","name":"Marli maria da silva","tags":"shop:supermarket","lat":-14.6884926,"lng":-41.6793628},{"id":"5948774285","name":"Aparecida rosa","tags":"addr:street:Avenida Minas Gerais,shop:supermarket","lat":-14.6865381,"lng":-41.6766279},{"id":"5948782686","name":"Zilma viera dutra","tags":"addr:street:Praça,shop:supermarket","lat":-14.6622994,"lng":-41.4916733},{"id":"5948797085","name":"Aides Gonçalves","tags":"shop:supermarket","lat":-14.6624278,"lng":-41.4901915},{"id":"6538072385","name":"3656 patrícia dutra lima","tags":"shop:supermarket","lat":-14.6624022,"lng":-41.4900835},{"id":"6538072386","name":"5139 km da silva","tags":"name:en:Estação cental,shop:supermarket","lat":-14.6877824,"lng":-41.6803463},{"id":"6538075585","name":"4715 zilma viera dutra","tags":"addr:street:Praca,shop:supermarket","lat":-14.6623664,"lng":-41.4917991},{"id":"6538075586","name":"5133 aparecida rosa Jesus santos","tags":"shop:supermarket","lat":-14.686583,"lng":-41.6766841},{"id":"6538077085","name":"5134 du bom supermercado ltda","tags":"addr:street:Avenida parana,name:en:Avenida Paraná,shop:supermarket","lat":-14.6868218,"lng":-41.6779723},{"id":"6538077385","name":"5140 agenor Carlos da Silva epp","tags":"addr:street:Travessa ademario,name:en:Mercearia 3 irmãos,shop:supermarket","lat":-14.6884801,"lng":-41.680634}]