[{"id":"1042083019","name":"Aeródromo de Castro Alves","tags":"aeroway:aerodrome","lat":-12.7656297,"lng":-39.4479596},{"id":"1930080675","tags":"amenity:school","lat":-12.7671982,"lng":-39.5182639},{"id":"1962631069","name":"Estádio Municipal Dr. Américo Barreto","tags":"leisure:stadium,sport:soccer","lat":-12.7640737,"lng":-39.433247},{"id":"1962631074","name":"Hospital Regional de Castro Alves","tags":"amenity:hospital","lat":-12.765529,"lng":-39.4372277},{"id":"1962631091","name":"Terminal Rodoviário","tags":"amenity:bus_station","lat":-12.7627105,"lng":-39.4314857},{"id":"1962631235","tags":"amenity:school","lat":-12.7641059,"lng":-39.4342292},{"id":"4632326810","tags":"amenity:school","lat":-12.7696211,"lng":-39.5211697},{"id":"7136990009","tags":"amenity:restaurant","lat":-12.6877326,"lng":-39.6845395},{"id":"10300479932","name":"Uirapuru","tags":"amenity:restaurant,check_date:2023-01-02,opening_hours:24/7,wheelchair:yes","lat":-12.6920644,"lng":-39.6991836},{"id":"10300479933","tags":"amenity:pharmacy,check_date:2023-01-02,healthcare:pharmacy","lat":-12.6921569,"lng":-39.6994035},{"id":"10300479934","tags":"check_date:2023-01-02,shop:convenience","lat":-12.6922266,"lng":-39.6994911},{"id":"10300479936","name":"Banco24Horas","tags":"amenity:atm,brand:Banco24Horas,brand:wikidata:Q4854069,cash_in:no,check_date:2023-01-02,currency:BRL:yes,drive_through:no","lat":-12.6920435,"lng":-39.699121}]