[{"id":"1042080118","name":"Aeródromo de Valente","tags":"aeroway:aerodrome","lat":-11.4107522,"lng":-39.4429505},{"id":"4155811693","name":"POSTO DE VENDAS DA APAEB","tags":"addr:city:Valente,addr:housenumber:100,addr:postcode:48890-000,addr:street:Rua JJ Seabra,addr:suburb:Centro,shop:supermarket","lat":-11.4124664,"lng":-39.4631056},{"id":"6165020375","name":"Colégio Estadual Liciberto Oliveira dos Santos","tags":"amenity:school","lat":-11.3571974,"lng":-39.58359},{"id":"6165020377","name":"Escola Municipal Reinaldo Ramos Rios","tags":"amenity:school","lat":-11.3567504,"lng":-39.5865794},{"id":"6165020379","name":"Escola Horizonte do Saber","tags":"amenity:school","lat":-11.360858,"lng":-39.5824152},{"id":"7197293188","tags":"amenity:school","lat":-11.4190159,"lng":-39.4541686},{"id":"8846875470","name":"Guloseima Pizzaria","tags":"addr:city:Valente,addr:housenumber:35,addr:postcode:48890-000,addr:street:Rua Juraci Magalhães,addr:suburb:Centro,amenity:restaurant,cuisine:pizza,delivery:yes,internet_access:wlan,opening_hours:Fr-Su 17:30-22:30,opening_hours:covid19:open,outdoor_seating:yes,phone:+5575981237820,takeaway:yes,website:www.guloseimapizzaria.com","lat":-11.4108043,"lng":-39.4657191},{"id":"9074546802","name":"Hospital Municipal de Valente","tags":"addr:city:Valente,addr:postcode:48890-000,addr:street:Rua Presidente Costa e Silva,addr:suburb:Centro,amenity:hospital,healthcare:hospital","lat":-11.4110061,"lng":-39.4607877}]