[{"id":"3812625685","name":"Hospital Municipal","tags":"amenity:hospital","lat":-11.6600818,"lng":-38.0201808},{"id":"3812625686","tags":"amenity:school","lat":-11.6580869,"lng":-38.0152708},{"id":"3812625702","tags":"amenity:bus_station","lat":-11.6590168,"lng":-38.0714516},{"id":"3812625725","tags":"amenity:police","lat":-11.663482,"lng":-38.0181327},{"id":"3812625738","tags":"amenity:police","lat":-11.6604774,"lng":-38.0764298},{"id":"3812625747","tags":"amenity:school","lat":-11.6807822,"lng":-38.013565},{"id":"3812625752","name":"Banco do Brasil","tags":"amenity:bank,atm:yes","lat":-11.6604698,"lng":-38.0193161},{"id":"3812625857","tags":"amenity:school","lat":-11.6598309,"lng":-38.0744932},{"id":"3812625858","tags":"amenity:school","lat":-11.6517613,"lng":-38.0215263},{"id":"3812625860","tags":"amenity:school","lat":-11.6630931,"lng":-38.0177575},{"id":"3812625879","name":"Terminal Rodoviário","tags":"amenity:bus_station","lat":-11.6617566,"lng":-38.0172181},{"id":"3812625902","tags":"amenity:school","lat":-11.6625946,"lng":-38.0199701},{"id":"3812625906","tags":"amenity:school","lat":-11.6574985,"lng":-38.0183178},{"id":"3812625912","tags":"amenity:school","lat":-11.6609079,"lng":-38.0757163},{"id":"3812625913","name":"Escola Estadual Rui Barbosa","tags":"amenity:school","lat":-11.6619957,"lng":-38.0156893},{"id":"3826815460","tags":"amenity:hospital","lat":-11.6526453,"lng":-38.0645056},{"id":"3891654369","tags":"amenity:school","lat":-11.6631107,"lng":-37.9953045},{"id":"3891654378","tags":"amenity:school","lat":-11.6770325,"lng":-38.0013985},{"id":"3891654380","tags":"amenity:hospital","lat":-11.6774948,"lng":-38.0009801},{"id":"5292833581","name":"Colégio Municipal Osvaldo Sales","tags":"amenity:school","lat":-11.6592782,"lng":-38.0773306},{"id":"5739077314","name":"Estacao de trem","tags":"public_transport:station,railway:station,train:yes","lat":-11.661334,"lng":-38.0171389},{"id":"8827904699","name":"Bar de Unga","tags":"addr:city:Inhambupe,addr:housenumber:sn,addr:postcode:48490000,addr:street:BA-233,addr:suburb:povoado Formoso,amenity:bar,brewery:various,min_age:18,opening_hours:Mo-Su 10:00-21:00,opening_hours:covid19:restricted","lat":-11.7147461,"lng":-38.2838452},{"id":"8828087319","name":"praça do formoso","tags":"addr:city:Inhambupe,addr:postcode:48490000,addr:street:centro,addr:suburb:povoado formoso,leisure:park,opening_hours:Mo-Su 10:00-21:00,opening_hours:covid19:Mo-Su 08:00-20:00","lat":-11.7195886,"lng":-38.2924331},{"id":"8828103385","name":"Mercado Sam","tags":"addr:city:Inhambupe,addr:postcode:48490000,addr:street:centro,addr:suburb:povoado formoso,opening_hours:Mo-Su 10:00-21:00,opening_hours:covid19:Mo-Fr 08:00-12:00,payment:coins:yes,payment:credit_cards:yes,shop:supermarket","lat":-11.7198284,"lng":-38.2927201}]