[{"id":"1042079188","name":"Aeródromo Praia do Saco","tags":"aeroway:aerodrome","lat":-11.4222769,"lng":-37.3223491},{"id":"1171310525","tags":"amenity:restaurant","lat":-11.2642229,"lng":-37.4419456},{"id":"1171310572","name":"Caixa Eletrônico","tags":"amenity:atm","lat":-11.2687445,"lng":-37.443316},{"id":"1504323124","name":"Bar Achonchego Entre Amigos","tags":"amenity:bar","lat":-11.3051811,"lng":-37.2977745},{"id":"1510593393","name":"Restaurante Brisa do Mar","tags":"amenity:restaurant","lat":-11.3974092,"lng":-37.4113159},{"id":"1654858830","name":"Polícia Rodoviária Estadual","tags":"amenity:police,opening_hours:24/7,police:traffic_police,wheelchair:yes","lat":-11.2646822,"lng":-37.2699399},{"id":"1654910011","name":"Correios","tags":"amenity:post_office","lat":-11.2708551,"lng":-37.4390622},{"id":"1654910052","tags":"amenity:restaurant","lat":-11.2696436,"lng":-37.4376482},{"id":"1654910116","name":"Escola Nossa Senhora de Guadalupe","tags":"amenity:school","lat":-11.2741101,"lng":-37.4381039},{"id":"1654910172","name":"Itaú","tags":"amenity:bank,brand:Itaú Unibanco,brand:wikidata:Q1424293,brand:wikipedia:pt:Itaú Unibanco","lat":-11.2701868,"lng":-37.4390375},{"id":"1654910196","tags":"amenity:restaurant","lat":-11.2694868,"lng":-37.43804},{"id":"1654910204","name":"Colégio Sagrado Coração","tags":"amenity:school","lat":-11.2669184,"lng":-37.43705},{"id":"1654910276","name":"Farmácia Alagoas","tags":"amenity:pharmacy","lat":-11.2563782,"lng":-37.4358377},{"id":"1725396118","tags":"amenity:restaurant","lat":-11.3134675,"lng":-37.3018268},{"id":"1725396120","tags":"amenity:bar","lat":-11.3129205,"lng":-37.302964},{"id":"2926436692","name":"Delegacia de Policia","tags":"amenity:police","lat":-11.3523339,"lng":-37.4473363},{"id":"3881058789","name":"Churrascaria","tags":"amenity:restaurant","lat":-11.2845924,"lng":-37.4506706},{"id":"3881058792","name":"Hiper GBarbosa","tags":"shop:supermarket","lat":-11.2676867,"lng":-37.43976},{"id":"3881058793","name":"Hospital Regional Amparo de Maria","tags":"amenity:hospital,healthcare:hospital","lat":-11.2700597,"lng":-37.4403427},{"id":"3881058794","name":"Centro Ambulatorial Amparo de Maria","tags":"amenity:hospital,emergency:yes,healthcare:hospital","lat":-11.2702783,"lng":-37.4404736},{"id":"3881058796","name":"Supermercado Bombom","tags":"shop:supermarket","lat":-11.2684747,"lng":-37.4390227},{"id":"3881058797","name":"Supermercado Todo Dia","tags":"shop:supermarket","lat":-11.2678443,"lng":-37.4388246},{"id":"3882754232","name":"Farmacia JB","tags":"amenity:pharmacy","lat":-11.2698853,"lng":-37.4402128},{"id":"3886790332","tags":"amenity:library","lat":-11.2710822,"lng":-37.4345485},{"id":"3886790341","name":"Delegacia Regional","tags":"amenity:police","lat":-11.265765,"lng":-37.4378247},{"id":"3886790342","name":"Escola Criativa","tags":"amenity:school","lat":-11.2651081,"lng":-37.4400264},{"id":"3886790344","name":"Escola Haroldo Rocha","tags":"amenity:school","lat":-11.270176,"lng":-37.4358974},{"id":"3886790346","name":"Escola Municipal Azarias Santos","tags":"amenity:school","lat":-11.2799933,"lng":-37.4481214},{"id":"3886790347","name":"Escola Municipal Givelda Santos Martins","tags":"amenity:school","lat":-11.2514132,"lng":-37.4311106},{"id":"3886790350","name":"Escola Municipal de Ensino Fundamental João Nascimento Filho","tags":"amenity:school","lat":-11.2675372,"lng":-37.4349678},{"id":"3886790356","name":"Mercadinho Alencar","tags":"shop:convenience","lat":-11.2718716,"lng":-37.4321294},{"id":"3886790558","name":"Pre Escola Professor José Dias de Oliveira","tags":"amenity:school","lat":-11.2670592,"lng":-37.4345503},{"id":"3924471720","name":"Escola Municipal Doutor Pedro Soares","tags":"amenity:school","lat":-11.3720438,"lng":-37.325976},{"id":"3924471721","name":"Mercadinho Shekná","tags":"shop:convenience","lat":-11.4020037,"lng":-37.3290792},{"id":"3924471722","name":"Mercearia Nossa Senhora da Conceição","tags":"shop:convenience","lat":-11.3394733,"lng":-37.3140396},{"id":"3924471724","name":"Pizzaria Dunas","tags":"amenity:restaurant,cuisine:pizza","lat":-11.4041393,"lng":-37.327412},{"id":"3924471725","name":"Restaurante Lagoa Mar","tags":"amenity:restaurant","lat":-11.308524,"lng":-37.2998888},{"id":"3924471726","name":"Restaurante da Josefina","tags":"amenity:restaurant","lat":-11.3924788,"lng":-37.3305464},{"id":"3924471728","name":"Supermercado Dunas","tags":"shop:convenience","lat":-11.4043486,"lng":-37.327381},{"id":"3924471729","name":"Supermercado Sauípe","tags":"shop:convenience","lat":-11.4000326,"lng":-37.3327027},{"id":"3937969566","tags":"amenity:pharmacy","lat":-11.2662978,"lng":-37.4366304},{"id":"7409113871","name":"Delegacia de Proteção a mulher","tags":"amenity:police,operator:Polícia Civil","lat":-11.2791116,"lng":-37.4471862},{"id":"7916555666","name":"Banco do Brasil","tags":"amenity:bank,brand:Banco do Brasil,brand:wikidata:Q610817,brand:wikipedia:en:Banco do Brasil","lat":-11.2719106,"lng":-37.4401954},{"id":"7916555667","name":"Banco do Nordeste","tags":"amenity:bank,brand:Banco do Nordeste,brand:wikidata:Q4854137,brand:wikipedia:en:Banco do Nordeste","lat":-11.2721027,"lng":-37.4402576},{"id":"7916555668","name":"Caixa Econômica Federal","tags":"amenity:bank,brand:Caixa Econômica Federal,brand:wikidata:Q835283,brand:wikipedia:pt:Caixa Econômica Federal","lat":-11.2726606,"lng":-37.4401201},{"id":"7916555669","name":"Bradesco","tags":"amenity:bank,brand:Bradesco,brand:wikidata:Q806181,brand:wikipedia:en:Banco Bradesco","lat":-11.2701392,"lng":-37.438796},{"id":"7916555670","name":"Banese","tags":"amenity:bank","lat":-11.2713786,"lng":-37.4400297},{"id":"1171310512","name":"Rodoviária de Estância","tags":"amenity:bus_station,bus:yes,public_transport:station","lat":-11.2740773,"lng":-37.4473334},{"id":"7409110954","name":"Escolinha Dengoso e Colégio Magistral","tags":"amenity:school","lat":-11.2753304,"lng":-37.4428416}]