[{"id":"10538048876","name":"Casa Moura","tags":"shop:supermarket","lat":-10.7673987,"lng":-44.3492457},{"id":"10538048877","name":"Mercadinho Moura","tags":"shop:supermarket","lat":-10.7674525,"lng":-44.3492521},{"id":"10538048878","name":"Farmácia Confiança","tags":"amenity:pharmacy,healthcare:pharmacy","lat":-10.7675799,"lng":-44.3492424},{"id":"10538048879","name":"Mercadinho do Zezinho","tags":"shop:supermarket","lat":-10.7676464,"lng":-44.3492587},{"id":"10538048882","name":"Loja 1001 utilidades","tags":"shop:convenience","lat":-10.7673203,"lng":-44.348981},{"id":"10538048883","name":"Armazém Santos","tags":"shop:supermarket","lat":-10.7679391,"lng":-44.3487494},{"id":"10538048884","name":"Ponto Skala","tags":"amenity:nightclub","lat":-10.7682336,"lng":-44.348086},{"id":"10538048889","name":"Colégio municipal Ant^nio José de Oliveira","tags":"amenity:school","lat":-10.7672491,"lng":-44.3500112},{"id":"10538048891","name":"Quiosque","tags":"shop:convenience","lat":-10.7666379,"lng":-44.3500157},{"id":"10538048892","name":"Mercado municipal","tags":"shop:convenience","lat":-10.7669644,"lng":-44.3499383},{"id":"10538048893","name":"Escola Municipal Antônio José de Oliveira","tags":"amenity:school","lat":-10.76701,"lng":-44.3495775},{"id":"10538048894","name":"Mercadinho de JB","tags":"shop:convenience","lat":-10.7684877,"lng":-44.3469725},{"id":"10538048895","name":"Mercadinho de Jânio","tags":"shop:convenience","lat":-10.7681041,"lng":-44.3474339},{"id":"10538048896","name":"Restaurante Renascer","tags":"amenity:restaurant","lat":-10.7692644,"lng":-44.3495294},{"id":"10538048897","name":"Boate Itiquira","tags":"amenity:bar","lat":-10.7687296,"lng":-44.3453787},{"id":"10538048898","name":"Loja de conveniência do posto","tags":"shop:convenience","lat":-10.7681618,"lng":-44.3456225},{"id":"10538048899","name":"Lava Jato Oncinha","tags":"amenity:car_wash","lat":-10.7665547,"lng":-44.3504874},{"id":"10538110012","name":"Bar","tags":"amenity:bar","lat":-10.7665383,"lng":-44.3499298},{"id":"10538110014","name":"Adega","tags":"amenity:bar","lat":-10.7666687,"lng":-44.3495674}]