[{"id":"1042064307","name":"Aeroporto de Itamotinga","tags":"aeroway:aerodrome","lat":-9.1555405,"lng":-40.0914001},{"id":"3482423602","tags":"amenity:restaurant","lat":-9.2738212,"lng":-40.3240533},{"id":"3482423603","tags":"amenity:restaurant","lat":-9.2744035,"lng":-40.324284},{"id":"3482423604","tags":"amenity:restaurant","lat":-9.2747053,"lng":-40.3243001},{"id":"3482423605","tags":"amenity:restaurant","lat":-9.2749012,"lng":-40.3244342},{"id":"3482423606","tags":"amenity:restaurant","lat":-9.2751871,"lng":-40.3244985},{"id":"3482423607","tags":"amenity:restaurant","lat":-9.2754041,"lng":-40.3245307},{"id":"3482423608","tags":"amenity:restaurant","lat":-9.2756159,"lng":-40.324579},{"id":"3482423609","tags":"amenity:restaurant","lat":-9.2740223,"lng":-40.324123},{"id":"6013296847","name":"Polícia Rodoviária Federal","tags":"amenity:police,operator:Federal,police:traffic_police","lat":-9.1994863,"lng":-40.3910095},{"id":"7306034889","name":"CMEI Ernestina Santos Nunes","tags":"amenity:school","lat":-9.1434571,"lng":-40.3241798},{"id":"7306034890","name":"Esc MUN José Nunes de Santana","tags":"amenity:school","lat":-9.1434572,"lng":-40.321265},{"id":"7306046287","name":"Esc MUN José Ribeiro da Silva","tags":"amenity:school,name:en:Nova Descoberta,opening_hours:Mo-Fr 07:30-17:00,operator:Robson","lat":-9.1423281,"lng":-40.3245782},{"id":"7306046288","name":"José Nunes de Santana","tags":"amenity:school","lat":-9.1434467,"lng":-40.321264},{"id":"7602589997","name":"Mercadinho Silva","tags":"shop:supermarket","lat":-9.1421481,"lng":-40.3251273},{"id":"7674048425","name":"Posto da serra","tags":"shop:convenience","lat":-9.2022694,"lng":-40.3939712},{"id":"7890889585","name":"Balneário Pedrinhas","tags":"addr:street:Localidade Pedrinhas,amenity:restaurant,internet_access:wlan,opening_hours:We-Su 00:00-24:00","lat":-9.2778498,"lng":-40.3277938},{"id":"7899530087","name":"Esc Mun Ricardina Ferreira","tags":"addr:street:N11,amenity:school","lat":-9.2616672,"lng":-40.4231573},{"id":"8987988518","name":"Farmácia Geane","tags":"amenity:pharmacy","lat":-9.1429389,"lng":-40.3216315},{"id":"9224889217","name":"Farmacia Geane","tags":"amenity:pharmacy","lat":-9.1422755,"lng":-40.322136}]