[{"id":"6980615760","name":"Bradesco","tags":"addr:city:Paraibano,addr:housenumber:152,addr:postcode:65670-000,addr:street:Avenida do Paraibano,addr:suburb:Centro,amenity:bank,atm:yes,brand:Bradesco,brand:wikidata:Q806181,brand:wikipedia:en:Banco Bradesco,email:2129.gerencia@bradesco.com.br,opening_hours:Mo-Fr 10:00-15:00,phone:+55 99 3554 1317,website:https://banco.bradesco","lat":-6.4334912,"lng":-43.9829181},{"id":"8789975412","name":"UE Henrique de La Roque","tags":"addr:city:Paraibano,addr:postcode:65670-000,amenity:school","lat":-6.3739339,"lng":-43.9971808},{"id":"8789993265","name":"UE Irmã Gema Rover","tags":"addr:city:Paraibano,addr:postcode:65670-000,addr:street:Rua Boa Vista,addr:suburb:Centro,amenity:school","lat":-6.4273256,"lng":-43.9882408},{"id":"8977364945","name":"EM Jarbas Passarinho","tags":"addr:city:Pastos Bons,addr:postcode:65870-000,amenity:school","lat":-6.4368373,"lng":-44.1214207},{"id":"9123319785","name":"Projeto Esperanca","tags":"addr:city:Sucupira do Norte,addr:street:Rua Doze de Maio,amenity:school","lat":-6.480685,"lng":-44.1871525},{"id":"9123333303","name":"Ueb Benedito Leite","tags":"amenity:school","lat":-6.4730948,"lng":-44.2936604},{"id":"9123339354","name":"Centro De Ensino Drº Adonias Lucas De Lacerda","tags":"amenity:school","lat":-6.4776441,"lng":-44.1913931},{"id":"9123339532","name":"Escola Familia Agricola Nossa Sra Maria Rosa Mistica","tags":"amenity:school","lat":-6.4427783,"lng":-44.1738059},{"id":"9123346819","name":"Centro De Educacao Santos Carvalho","tags":"amenity:school","lat":-6.4795867,"lng":-44.1884946}]