[{"id":"1042078513","name":"Aeródromo Fazenda Mata Escura","tags":"aeroway:aerodrome","lat":-5.7427778,"lng":-43.5988884},{"id":"1042081680","name":"Aeródromo Fazenda Bacatuba","tags":"aeroway:aerodrome","lat":-5.6583328,"lng":-43.705555},{"id":"8429457511","name":"EM Santa Rita","tags":"addr:city:Buriti Bravo,amenity:school","lat":-5.6324123,"lng":-43.7637118},{"id":"8432284173","name":"EM Ministro José Evandro Barros","tags":"addr:city:Buriti Bravo,addr:postcode:65685-000,amenity:school","lat":-5.7567956,"lng":-43.8488144},{"id":"8432301020","name":"EM Goncalves Dias","tags":"addr:city:Buriti Bravo,addr:postcode:65685-000,amenity:school","lat":-5.7515991,"lng":-43.9100311},{"id":"8432318337","name":"Em São Vicente","tags":"addr:city:Buriti Bravo,addr:postcode:65685-000,amenity:school","lat":-5.7871765,"lng":-43.7182666},{"id":"8432356008","name":"EM Santo Antônio","tags":"addr:city:Buriti Bravo,addr:postcode:65685-000,amenity:school","lat":-5.7698589,"lng":-43.6857672},{"id":"8432371588","name":"EM Adalberto Costa Santos","tags":"addr:city:Buriti Bravo,addr:postcode:65685-000,amenity:school","lat":-5.6593986,"lng":-43.7752081},{"id":"8432478663","name":"EM Cecilia Oliveira Almeida","tags":"addr:city:Buriti Bravo,addr:postcode:65685-000,amenity:school","lat":-5.6743771,"lng":-43.9254999},{"id":"8432578809","name":"EM Padre Jader Santos Ribeiro","tags":"addr:city:Buriti Bravo,addr:postcode:65685-000,amenity:school","lat":-5.725894,"lng":-43.6251572}]