[{"id":"6812187614","name":"Banco do Brasil","tags":"amenity:bank,branch:de Simplício Mendes,brand:Banco do Brasil,brand:wikidata:Q610817,brand:wikipedia:en:Banco do Brasil","lat":-7.8607517,"lng":-41.9107662},{"id":"6812201816","name":"Colégio Álvaro Mendes","tags":"amenity:school","lat":-7.8599972,"lng":-41.9092708},{"id":"9233177265","name":"Sabor do Nordeste","tags":"amenity:restaurant","lat":-7.8682499,"lng":-41.9084396},{"id":"9233180654","name":"Mercadinho compre bem","tags":"shop:supermarket","lat":-7.8679299,"lng":-41.9080315},{"id":"9233270094","name":"Maria's Doces","tags":"amenity:restaurant","lat":-7.8585501,"lng":-41.9045486},{"id":"9233297112","name":"Mercadinho Santos","tags":"shop:supermarket","lat":-7.85566,"lng":-41.9051399},{"id":"9233302224","name":"Mercadão do povo","tags":"shop:supermarket","lat":-7.85743,"lng":-41.9066696},{"id":"9233308769","name":"Mercadinho 90 graus","tags":"shop:supermarket","lat":-7.8552599,"lng":-41.9047203},{"id":"9233324847","name":"Restaurante PRESTIGIO","tags":"amenity:restaurant","lat":-7.8564701,"lng":-41.9059296},{"id":"9233331699","name":"DROGARIA SOUSA","tags":"amenity:pharmacy","lat":-7.85919,"lng":-41.9070816},{"id":"9233411775","name":"Tico Peixe","tags":"amenity:bar","lat":-7.8629098,"lng":-41.9085083},{"id":"9233451775","name":"Econômico Supermercado","tags":"shop:supermarket","lat":-7.86093,"lng":-41.9095917},{"id":"9233491565","name":"Lava Jato Auto Brilho","tags":"amenity:car_wash","lat":-7.86201,"lng":-41.9099312},{"id":"9233501103","name":"Lava Jato Auto Brilho","tags":"amenity:car_wash","lat":-7.8627501,"lng":-41.9108009},{"id":"9233507789","name":"Correios- Simplício Mendes","tags":"amenity:post_office,operator:Correios,operator:wikidata:Q3375004,operator:wikipedia:en:Correios","lat":-7.8606,"lng":-41.9099808},{"id":"9233528356","name":"The Bar City","tags":"amenity:bar","lat":-7.8575301,"lng":-41.9094315},{"id":"9233537565","name":"NC TRAILAR E RESTAURANTE","tags":"amenity:restaurant","lat":-7.8569002,"lng":-41.9078407},{"id":"9233544298","name":"Bar E Restaurante Da Beta","tags":"amenity:restaurant","lat":-7.8572698,"lng":-41.9077911},{"id":"9233544474","name":"Dr. Espeto","tags":"amenity:restaurant","lat":-7.8573298,"lng":-41.9085808},{"id":"9233558893","name":"Bar Do Salomao Pi","tags":"amenity:restaurant","lat":-7.8576002,"lng":-41.90839},{"id":"9233559103","name":"Espaço Itaianny Morais","tags":"shop:beauty","lat":-7.85607,"lng":-41.9076118},{"id":"9233563793","name":"Panificadora JM","tags":"amenity:cafe","lat":-7.8533502,"lng":-41.9079094},{"id":"9233572447","name":"Mariá Cafe","tags":"amenity:cafe","lat":-7.85673,"lng":-41.9103508},{"id":"9233573261","name":"Sabor de Ervas Supermercados","tags":"shop:supermarket","lat":-7.8529731,"lng":-41.9098596},{"id":"9233576555","name":"Tokaki Sushi","tags":"amenity:restaurant","lat":-7.8583398,"lng":-41.9105492},{"id":"9233578616","name":"Panificadora Coelho","tags":"craft:bakery","lat":-7.8593602,"lng":-41.9104805},{"id":"9233586892","name":"Lanchonete e Restaurante do Lourão","tags":"amenity:restaurant","lat":-7.8580399,"lng":-41.9100494},{"id":"9233590298","name":"Picanharia Beco da Arte","tags":"amenity:restaurant","lat":-7.8587198,"lng":-41.9104118},{"id":"9233603152","name":"Restaurante Barril","tags":"amenity:restaurant","lat":-7.8586702,"lng":-41.9107399},{"id":"9233608184","name":"Centro De Artesanato (Abrigo)","tags":"amenity:bar","lat":-7.8585401,"lng":-41.9105492},{"id":"9233617100","name":"Bar do Assis","tags":"amenity:bar","lat":-7.8568201,"lng":-41.910881},{"id":"9233636135","name":"Mercadinho Dular","tags":"shop:supermarket","lat":-7.8575301,"lng":-41.9107819},{"id":"9233662325","name":"Elite pizzaria 3","tags":"amenity:restaurant","lat":-7.8591499,"lng":-41.9110794},{"id":"9233688043","name":"Socialmente Botequim Grill","tags":"amenity:bar","lat":-7.85989,"lng":-41.911869},{"id":"9233692858","name":"Mateus Supermercado","tags":"shop:supermarket","lat":-7.85676,"lng":-41.9113617},{"id":"9233718210","name":"Farmácia Janeto 2","tags":"amenity:pharmacy,healthcare:pharmacy","lat":-7.8597598,"lng":-41.9123993},{"id":"9233736547","name":"Churrascaria e Restaurante tempero bom (lá na roça)","tags":"amenity:restaurant","lat":-7.8783898,"lng":-41.909481},{"id":"9457881765","name":"Inst Educ Turminha Da Monica","tags":"amenity:school","lat":-7.8623868,"lng":-41.908911},{"id":"9457892951","name":"Nucleo De Educacao Profissional Arnaldo Ferreira De Carvalho","tags":"amenity:school","lat":-7.8600194,"lng":-41.91011},{"id":"9457897969","name":"Escola Djanira Alves Rodrigues","tags":"amenity:school","lat":-7.858016,"lng":-41.9113947},{"id":"9466999637","name":"Esc Mun Raimundo Moreira Pinto","tags":"amenity:school","lat":-7.7982792,"lng":-42.1645926}]