[{"id":"6079772291","name":"Delegacia","tags":"amenity:police","lat":-6.9819222,"lng":-41.2317391},{"id":"9468849591","name":"Unid Esc Antonio Serafim","tags":"addr:city:Santo Antônio de Lisboa,addr:postcode:64640-000,addr:street:Avenida João Almeida,amenity:school","lat":-6.992353,"lng":-41.2041338},{"id":"9477127171","name":"Esc Mul Teotonho Marques","tags":"amenity:school","lat":-6.8593171,"lng":-41.313297},{"id":"9477179647","name":"Colegio Imaculada Conceicao","tags":"addr:city:Santo Antônio de Lisboa,addr:postcode:64640-000,addr:street:Avenida Lino Rodrigues,addr:suburb:Centro,amenity:school","lat":-6.9835407,"lng":-41.2314849},{"id":"9477183665","name":"U E Jomasio Dos Santos Barros","tags":"addr:city:Bocaina,addr:housenumber:120,addr:postcode:64630-000,addr:street:Rua Oswaldo Cruz,addr:suburb:Centro,amenity:school","lat":-6.9447547,"lng":-41.3242887},{"id":"9477191530","name":"Unid Esc Antonio Sabino Da Silva","tags":"amenity:school,phone:+55 89 3449 1120","lat":-6.9772817,"lng":-41.2718301},{"id":"9477194099","name":"Escola Municipal Santa Filomena","tags":"addr:city:Francisco Santos,addr:housenumber:320,addr:postcode:64645-000,addr:street:Rua Cristo Rei,addr:suburb:Centro,amenity:school","lat":-6.9961867,"lng":-41.1365207},{"id":"9477194100","name":"U E Professor Mariano Da Silva Neto","tags":"addr:city:Francisco Santos,addr:housenumber:250,addr:postcode:64645-000,addr:street:Rua Santa Rita,addr:suburb:Centro,amenity:school,phone:+55 89 3450 9030","lat":-6.9957953,"lng":-41.136408},{"id":"9477194101","name":"Creche Mae Santa","tags":"addr:city:Francisco Santos,addr:housenumber:150,addr:postcode:64645-000,addr:street:Rua Amadeu Rodrigues,addr:suburb:Centro,amenity:school","lat":-6.9952735,"lng":-41.1371751},{"id":"9477197071","name":"U E Franco Rodrigues","tags":"addr:city:Francisco Santos,addr:housenumber:170,addr:postcode:64645-000,addr:street:Rua Amadeu Rodrigues,addr:suburb:Centro,amenity:school,phone:+55 89 3450 1368","lat":-6.9953656,"lng":-41.137718},{"id":"9477205104","name":"Unid Esc Antonio Calixto Da Silva","tags":"addr:city:Santo Antônio de Lisboa,addr:postcode:64640-000,amenity:school,phone:+55 89 3449 1184","lat":-6.9891636,"lng":-41.2203692},{"id":"9477223010","name":"Esc Mul Miguel Mendes","tags":"amenity:school","lat":-6.8799549,"lng":-41.3298838},{"id":"9477224330","name":"Colegio Paulo Freire","tags":"addr:city:Santo Antônio de Lisboa,addr:housenumber:07,addr:postcode:64640-000,addr:street:Rua Mariano Silva,addr:suburb:Centro,amenity:school","lat":-6.9830415,"lng":-41.2325877},{"id":"9477231069","name":"Esc Municipal Espedito Cipriano Da Silva","tags":"amenity:school","lat":-6.8777714,"lng":-41.337512},{"id":"9477233484","name":"Pre Esc Mul Zeze Leal","tags":"addr:city:Bocaina,addr:housenumber:00,addr:postcode:64630-000,addr:street:Rua Raimundo Brito,addr:suburb:Centro,amenity:school","lat":-6.9433702,"lng":-41.324396},{"id":"9477236060","name":"Esc Mul Joviano Epifanio Macedo","tags":"addr:city:Bocaina,amenity:school","lat":-6.9122201,"lng":-41.312554},{"id":"9477237082","name":"Escola Municipal Urbano Leal","tags":"addr:city:Bocaina,addr:postcode:64630-000,addr:street:Rua Dez de Abril,addr:suburb:Centro,amenity:school","lat":-6.9477208,"lng":-41.3223039},{"id":"9477237333","name":"Nucleo Mul De Educacao V Francisco Das C Rodrigues","tags":"addr:city:Santo Antônio de Lisboa,addr:housenumber:323,addr:postcode:64640-000,addr:street:Rua João Batista,addr:suburb:Centro,amenity:school,phone:+55 89 3449 1398","lat":-6.9815681,"lng":-41.2315084},{"id":"9477274175","name":"Cheche Tia Joana","tags":"addr:city:São José do Piauí,addr:postcode:64625-000,addr:suburb:Centro,amenity:school","lat":-6.8736678,"lng":-41.4802457},{"id":"9477282029","name":"Esc Mul Joao F De Morais","tags":"amenity:school,phone:+55 89 3447 1286","lat":-6.9117648,"lng":-41.4421932},{"id":"9477307190","name":"Escolinha Mul Josefa Maria Dos Santos","tags":"amenity:school","lat":-6.9272829,"lng":-41.4738782},{"id":"9477307191","name":"Esc Mul Ferreira Santos Brito","tags":"amenity:school","lat":-6.927014,"lng":-41.4739265},{"id":"9477307695","name":"Esc Mul Raimunda Paulina Da Conceicao","tags":"amenity:school","lat":-6.9244418,"lng":-41.4420135},{"id":"9481247198","name":"Unid Esc Nicolau Borges","tags":"amenity:school","lat":-6.9316442,"lng":-41.3599809},{"id":"9481247821","name":"Esc Mul Simao Da Rocha","tags":"amenity:school","lat":-6.8669119,"lng":-41.26561},{"id":"9481252828","name":"Esc Mul Mariano Rocha","tags":"amenity:school","lat":-6.8714842,"lng":-41.2429132},{"id":"9481278502","name":"Unid Esc Vila Nova","tags":"amenity:school","lat":-7.0161024,"lng":-41.4083304},{"id":"9481279207","name":"Unid Esc Matias Francisco De Brito","tags":"amenity:school","lat":-6.9973767,"lng":-41.3698058},{"id":"9481279794","name":"Esc Mul Eliseu Nunes","tags":"amenity:school,phone:+55 89 3425 0190","lat":-6.9991151,"lng":-41.3568453},{"id":"9481288570","name":"Esc Est Elpidio Borges Dos Santos","tags":"amenity:school","lat":-6.959875,"lng":-41.432548},{"id":"9481297927","name":"Unid Esc Mariano Andre De Barros","tags":"amenity:school","lat":-6.95411,"lng":-41.4579875},{"id":"9481317782","name":"Unid Esc Joaquim Avelino De Barros","tags":"amenity:school","lat":-7.0132753,"lng":-41.3712247}]