[{"id":"2496447698","name":"UOP CARIÉ Polícia Rodoviária Federal","tags":"amenity:police,opening_hours:24/7,operator:Polícia Rodoviária Federal,operator:wikidata:Q1158853,operator:wikipedia:pt:Polícia Rodoviária Federal,phone:+55 82 3214 4132,police:traffic_police","lat":-9.1936859,"lng":-37.5147615},{"id":"6740244413","name":"Banco do Brasil","tags":"amenity:bank,brand:Banco do Brasil,brand:wikidata:Q610817,brand:wikipedia:en:Banco do Brasil","lat":-9.2323752,"lng":-37.3494591},{"id":"7661205693","name":"Praça Padre Cícero","tags":"addr:city:Poço das Trincheiras,addr:postcode:57510000,addr:street:Rua Praça Leopoldo Wanderley,addr:suburb:Centro,leisure:park","lat":-9.3072156,"lng":-37.2861544},{"id":"7661205698","name":"Praça Leopoldo Wanderley","tags":"addr:city:Poço das Trincheiras,addr:postcode:57510000,addr:street:Rua Leopoldo Wanderley,addr:suburb:Centro,leisure:park","lat":-9.3057853,"lng":-37.2849953},{"id":"8114630373","name":"Praça Bicho Preguiça Gigante","tags":"landuse:recreation_ground,leisure:park","lat":-9.2318816,"lng":-37.3493909},{"id":"8114630382","name":"Praça Pedro Fernando","tags":"leisure:park","lat":-9.2315581,"lng":-37.3494895},{"id":"8114630383","name":"Estátua Maria Concebida","tags":"amenity:place_of_worship,leisure:park","lat":-9.233578,"lng":-37.3508745}]