[{"id":"1042077572","name":"Aeródromo Campo da Praia","tags":"aeroway:aerodrome","lat":-10.2208328,"lng":-36.2861099},{"id":"1042079328","name":"Aeroporto de Penedo","tags":"aeroway:aerodrome","lat":-10.2657936,"lng":-36.5528658},{"id":"2655768766","tags":"amenity:hospital","lat":-10.2819634,"lng":-36.5619615},{"id":"6565549139","name":"Praça Arizona","tags":"addr:city:Penedo,addr:postcode:57200000,addr:street:Rua A,leisure:park","lat":-10.2875819,"lng":-36.5452097},{"id":"6640302460","name":"Praça Arizona","tags":"leisure:park","lat":-10.2877968,"lng":-36.5452868},{"id":"9762213428","name":"Cooperativa Agrícola de Penedo - Necleo I","tags":"addr:city:Penedo,addr:postcode:57200000,addr:street:Rodovia AL105,leisure:park","lat":-10.2695456,"lng":-36.5405306}]