[{"id":"791438148","name":"Escola Marta C. Costa","tags":"amenity:school","lat":-9.3200318,"lng":-36.471217},{"id":"791438149","name":"Biblioteca Municipal","tags":"amenity:library","lat":-9.3200899,"lng":-36.4722175},{"id":"791438153","name":"Escola Desembargador Tenório","tags":"amenity:school","lat":-9.3174379,"lng":-36.4749534},{"id":"791438157","tags":"amenity:school","lat":-9.3191,"lng":-36.4705305},{"id":"791438160","tags":"amenity:hospital","lat":-9.3168796,"lng":-36.4774663},{"id":"791461384","name":"Mercado do Produtor Rural","tags":"shop:supermarket","lat":-9.3201742,"lng":-36.4742865},{"id":"791461446","name":"Banco do Brasil","tags":"amenity:bank,atm:yes","lat":-9.321154,"lng":-36.4729873},{"id":"791461487","tags":"amenity:grave_yard","lat":-9.3233879,"lng":-36.4746073},{"id":"810979984","name":"Mecardo Municipal","tags":"shop:supermarket","lat":-9.3196966,"lng":-36.4735928},{"id":"1972200180","name":"Terminal Paulo Jacinto","tags":"amenity:bus_station","lat":-9.3700893,"lng":-36.3727285},{"id":"1972200184","name":"Terminal Quebrangulo","tags":"amenity:bus_station","lat":-9.3204834,"lng":-36.4735962},{"id":"2759882734","name":"Banco do Brasil","tags":"amenity:bank,atm:yes,brand:Banco do Brasil,brand:wikidata:Q610817,brand:wikipedia:en:Banco do Brasil","lat":-9.3717706,"lng":-36.2455849},{"id":"2759882736","name":"Correios","tags":"amenity:post_office,operator:Correios,operator:wikidata:Q3375004,operator:wikipedia:en:Correios","lat":-9.371891,"lng":-36.2459816},{"id":"2759882904","tags":"amenity:place_of_worship,building:church,denomination:catholic,religion:christian","lat":-9.3699265,"lng":-36.2581134},{"id":"2759883100","tags":"amenity:school","lat":-9.3735818,"lng":-36.2519951},{"id":"2759935433","name":"Delegacia","tags":"amenity:police","lat":-9.3777301,"lng":-36.2448681},{"id":"2759935437","name":"Escola Estadual Joaquim Diegues","tags":"amenity:school","lat":-9.3703777,"lng":-36.2401489},{"id":"2759935918","tags":"amenity:hospital","lat":-9.373734,"lng":-36.2404007},{"id":"2763789349","name":"Escola Manoel LE","tags":"amenity:school","lat":-9.32808,"lng":-36.3289114},{"id":"2763789544","tags":"leisure:sports_centre","lat":-9.3283311,"lng":-36.3284427},{"id":"2763870442","name":"Creche Eleusa Maria","tags":"amenity:school","lat":-9.3381294,"lng":-36.3046818},{"id":"2763870443","name":"Escola Municipal Elias Leite Passos","tags":"amenity:school","lat":-9.3368879,"lng":-36.3049791},{"id":"2774904744","name":"Creche","tags":"amenity:school","lat":-9.3794851,"lng":-36.2393655},{"id":"6758524465","name":"Mercadona","tags":"brand:Mercadona,brand:wikidata:Q377705,brand:wikipedia:en:Mercadona,operator:Mercado São Francisco,payment:cash:yes,payment:credit_cards:yes,shop:supermarket","lat":-9.3644314,"lng":-36.4176707},{"id":"6758525751","name":"Escola São Francisco de Assis","tags":"amenity:school","lat":-9.3648092,"lng":-36.4171564},{"id":"6758533743","tags":"amenity:school","lat":-9.3655262,"lng":-36.4192828},{"id":"8241012349","name":"Igreja Nossa Senhora Sant'Ana","tags":"addr:city:Viçosa,addr:postcode:57700000,addr:street:Rua Aracaju,addr:suburb:Cohab,amenity:place_of_worship,denomination:catholic,leisure:park,religion:christian","lat":-9.3786339,"lng":-36.2459781}]