[{"id":"616775165","name":"Terminal do Trapiche","tags":"amenity:bus_station,bus:yes,public_transport:station","lat":-9.6743744,"lng":-35.7611332},{"id":"625635031","tags":"amenity:bus_station,bus:yes,public_transport:station","lat":-9.6681533,"lng":-35.7439409},{"id":"643488501","name":"Museu Theo Brandão","tags":"addr:housenumber:1490,addr:street:Avenida da Paz,tourism:museum","lat":-9.6693784,"lng":-35.7325244},{"id":"643613805","name":"MISA - Museu da Imagem e do Som","tags":"addr:housenumber:275,addr:street:Rua Sá e Albuquerque,tourism:museum","lat":-9.6726722,"lng":-35.722222},{"id":"644327101","name":"Ginásio Poliesportivo do CRB","tags":"leisure:sports_centre","lat":-9.6734886,"lng":-35.7176219},{"id":"644354725","name":"Memorial Teotônio Vilela","tags":"tourism:museum","lat":-9.6702135,"lng":-35.7149936},{"id":"913522339","name":"Terminal Pontal da Barra","tags":"amenity:bus_station,bus:yes,public_transport:station","lat":-9.6913676,"lng":-35.7734009},{"id":"2015406176","tags":"addr:housenumber:73,shop:supermarket","lat":-9.6690858,"lng":-35.7169216},{"id":"2421066736","tags":"amenity:parking","lat":-9.6680901,"lng":-35.7133486},{"id":"2586047067","tags":"amenity:parking","lat":-9.6738081,"lng":-35.719218},{"id":"2657811242","tags":"amenity:parking,fee:no","lat":-9.6711119,"lng":-35.7424847},{"id":"2707015316","tags":"amenity:parking","lat":-9.6723668,"lng":-35.7594027},{"id":"2727907993","tags":"amenity:parking,fee:yes,parking:surface","lat":-9.6681338,"lng":-35.7406038},{"id":"2727907995","tags":"amenity:parking,fee:yes","lat":-9.6682326,"lng":-35.7423279},{"id":"2738211645","tags":"amenity:parking","lat":-9.6696323,"lng":-35.7377379},{"id":"2834653506","tags":"amenity:parking,parking:surface","lat":-9.7708267,"lng":-35.8414807},{"id":"2838100689","name":"Escola Municipal Maria Petronila Gouveia","tags":"amenity:school","lat":-9.7322577,"lng":-35.8368681},{"id":"2838448436","name":"Polícia Rodoviária","tags":"amenity:police,police:traffic_police","lat":-9.7046649,"lng":-35.8087765},{"id":"2939860403","name":"Pizzaria Fornaria","tags":"addr:city:Maceió,addr:housename:48,addr:street:Rua Doutor Lessa de Azevedo,addr:suburb:Pajuçara,amenity:restaurant,cuisine:pizza,fax:+55 82 3327-8844","lat":-9.669365,"lng":-35.7153044},{"id":"2939860404","name":"Rex Bar","tags":"amenity:bar","lat":-9.6708629,"lng":-35.7174816},{"id":"3748664483","tags":"access:private,amenity:parking,parking:surface","lat":-9.669304,"lng":-35.8431212},{"id":"3748664502","tags":"access:private,amenity:parking,parking:surface","lat":-9.6701705,"lng":-35.8251361},{"id":"4124126994","tags":"access:customers,amenity:parking,fee:no,parking:surface","lat":-9.6737342,"lng":-35.7197097},{"id":"4176945002","name":"Casa da Macarronada","tags":"amenity:restaurant,cuisine:noodle","lat":-9.669538,"lng":-35.7150347},{"id":"4754446921","name":"Mercearia 2","tags":"name:pt:Mercearia 2,shop:convenience","lat":-9.6902825,"lng":-35.7748209},{"id":"4799948687","tags":"amenity:police","lat":-9.7314291,"lng":-35.8360308},{"id":"5029537522","name":"Churrascaria São Luiz","tags":"addr:street:Rodovia Edval Lemos,amenity:restaurant,cuisine:steak_house,name:pt:Churrascaria São Luiz","lat":-9.7668341,"lng":-35.8519697},{"id":"5029538421","name":"J6 fitness","tags":"leisure:fitness_centre,name:pt:J6 fitness","lat":-9.7668758,"lng":-35.851885},{"id":"5243143318","name":"Hospital Escola Hélvio Auto","tags":"addr:housenumber:s/n,addr:street:Rua Cônego Fernando Lyra,amenity:hospital,healthcare:hospital,opening_hours:24/7,phone:+55 82 3315-6828,website:https://heha.uncisal.edu.br/","lat":-9.6743469,"lng":-35.7586668},{"id":"6392484813","name":"Jaraguá","tags":"light_rail:yes,operator:CBTU Maceió,public_transport:station,railway:station,station:light_rail","lat":-9.6719304,"lng":-35.7199964},{"id":"6577087898","tags":"amenity:parking","lat":-9.6740078,"lng":-35.7189763},{"id":"6577087908","tags":"amenity:parking","lat":-9.6686989,"lng":-35.7362185},{"id":"6727784725","name":"Boulervard da Pajuçara","tags":"addr:city:Maceió,addr:street:Rua Doutor Lessa de Azevedo,addr:suburb:Pajuçara,operator:Prefeitura de Maceió,tourism:attraction","lat":-9.6692841,"lng":-35.7155367},{"id":"6937832703","name":"Museu da Tecnologia","tags":"addr:city:Maceió,addr:housenumber:467,addr:postcode:57022-180,addr:street:Rua Sá e Albuquerque,addr:suburb:Jaraguá,tourism:museum","lat":-9.671855,"lng":-35.7237442},{"id":"8476108209","name":"Massaguerinha","tags":"amenity:restaurant","lat":-9.694054,"lng":-35.7864107},{"id":"9057140417","name":"A Casa Portuguesa","tags":"amenity:restaurant","lat":-9.671826,"lng":-35.7578993},{"id":"9476514391","name":"ATOATOA Beach Bar Restô","tags":"addr:city:Marechal Deodoro,addr:housenumber:s/n,addr:postcode:57160000,addr:street:Tv. dos Arrecifes,addr:suburb:Praia do Francês,amenity:bar,opening_hours:Todos os dias das 9h às 17h","lat":-9.7716061,"lng":-35.8420838},{"id":"9673545009","name":"Café do Sobrado","tags":"addr:city:Maceió,addr:housenumber:330,addr:postcode:57030103,addr:street:Rua Epaminondas Gracindo,addr:suburb:Pajuçara,amenity:cafe,contact:instagram:https://www.instagram.com/cafe.dosobrado/,cuisine:regional,internet_access:yes,opening_hours:Tu-Sa 16:00-20:00,outdoor_seating:yes,phone:+55 82 996221413,takeaway:yes,wheelchair:yes","lat":-9.6710684,"lng":-35.71706},{"id":"9682385717","name":"Escola Estadual José Correia da Silva Titara","tags":"amenity:school,contact:instagram:escolatitara.massagueira","lat":-9.7434219,"lng":-35.8441367},{"id":"9953447432","name":"Restaurante Zepellin","tags":"addr:city:Maceió,addr:housenumber:40,addr:postcode:57020640,addr:street:Rua Desembargador Artur Jucá,addr:suburb:Centro,amenity:restaurant,cuisine:brazilian,opening_hours:Mo-Th 11:00-15:00; Fr 11:00-23:00,phone:+55 82 98728-8005,website:https://www.instagram.com/zeppellinrestaurante/","lat":-9.6688634,"lng":-35.7351808}]