[{"id":"6013849466","name":"Polícia Rodoviaria Federal","tags":"amenity:police,email:del05.ce@prf.gov.br,opening_hours:24/7,opening_hours:covid19:same,operator:Polícia Rodoviária Federal,operator:wikidata:Q1158853,operator:wikipedia:pt:Polícia Rodoviária Federal,phone:+55 85 3474 6795,police:traffic_police","lat":-7.3049826,"lng":-38.9174125},{"id":"6053423401","name":"Delegacia","tags":"amenity:police","lat":-7.3133362,"lng":-38.9456467},{"id":"6053423418","name":"Rodoviária","tags":"amenity:bus_station,bus:yes,network:Onibus,operator:Prefeitura de Milagres, CE,public_transport:station","lat":-7.3116668,"lng":-38.9377087},{"id":"7602590304","name":"Churrascaria do Piaba","tags":"amenity:restaurant","lat":-7.3007453,"lng":-38.8928005},{"id":"7602590312","name":"Mercantil Gentil","tags":"shop:supermarket","lat":-7.3092086,"lng":-38.7988636},{"id":"7602590313","name":"Mercadinho Pai é Filho","tags":"shop:supermarket","lat":-7.3030193,"lng":-38.8153812},{"id":"7602591788","name":"Churrascaria E Lanchonete Posto Magnólia","tags":"amenity:restaurant","lat":-7.3014687,"lng":-38.8925032},{"id":"7602591986","name":"Mercadinho Central","tags":"shop:supermarket","lat":-7.2987473,"lng":-38.8868612},{"id":"7786964086","name":"Mercadinho Central","tags":"shop:supermarket","lat":-7.2987067,"lng":-38.8868701},{"id":"7787992685","name":"Mercafinho Gentil","tags":"shop:supermarket","lat":-7.3092199,"lng":-38.798865},{"id":"7787992885","name":"Metcadinho pais e Filhos","tags":"shop:supermarket","lat":-7.3031719,"lng":-38.8154104},{"id":"7787993385","name":"Churrascaria Magnolia","tags":"amenity:restaurant","lat":-7.301383,"lng":-38.8923246},{"id":"7787993485","name":"Churrascaria o Piaba","tags":"amenity:restaurant","lat":-7.3007685,"lng":-38.8928349},{"id":"7788134285","name":"Farmacia Coelho","tags":"amenity:pharmacy","lat":-7.3142722,"lng":-38.9442119},{"id":"7788134286","name":"Metcadinho Nossa Senhora de Fatima","tags":"shop:supermarket","lat":-7.3379249,"lng":-38.9371573},{"id":"7985724685","name":"Farmacia Saraiva","tags":"amenity:pharmacy","lat":-7.3153413,"lng":-38.782171},{"id":"9102049117","name":"Mercantil União","tags":"shop:supermarket","lat":-7.3773094,"lng":-38.7663232},{"id":"9102076917","name":"Mercantil São Miguel","tags":"shop:supermarket","lat":-7.3802517,"lng":-38.7664228},{"id":"9102191217","name":"IsaFarma","tags":"amenity:pharmacy","lat":-7.3011753,"lng":-38.8935982}]