[{"id":"1042079760","name":"Aeroporto de Afogados da Ingazeira","tags":"aeroway:aerodrome,wikidata:Q9585591","lat":-7.7236109,"lng":-37.6188889},{"id":"2150392592","name":"Escola Estadual Tomé Francisco da silva","tags":"amenity:school","lat":-7.7110686,"lng":-37.9156425},{"id":"5595416425","tags":"shop:convenience","lat":-7.6393269,"lng":-37.8762268},{"id":"8886422677","tags":"shop:supermarket","lat":-7.6361513,"lng":-37.8785534},{"id":"9874557717","name":"Bar de João Soares","tags":"amenity:bar","lat":-7.6920549,"lng":-37.9143958},{"id":"9874562417","name":"Restaurante Rural","tags":"amenity:restaurant","lat":-7.7316975,"lng":-37.9544026},{"id":"9874676217","name":"Panteras Bar","tags":"amenity:bar","lat":-7.6549448,"lng":-37.8940728}]