[{"id":"2467707698","name":"Portal de Coxixola","tags":"building:yes,tourism:attraction","lat":-7.6207739,"lng":-36.6126689},{"id":"2467730069","name":"CHÁCARA JARARACA","tags":"leisure:park","lat":-7.6217826,"lng":-36.6198513},{"id":"5619964822","name":"EEEFM José Gonçalves de Queiroz","tags":"addr:street:R: Prof. Guiomar Coelho,amenity:school,name:pt:EEEFM José Gonçalves de Queiroz,opening_hours:Mo-Fr 09:00-18:00","lat":-7.6682239,"lng":-36.8765056},{"id":"5619991321","name":"Banco do Nordeste","tags":"addr:street:Av. Primeiro de Abril,amenity:bank,brand:Banco do Nordeste,brand:wikidata:Q4854137,brand:wikipedia:en:Banco do Nordeste,name:pt:Banco do Nordeste","lat":-7.6715657,"lng":-36.8781631},{"id":"5619991322","name":"Sumé Farma","tags":"addr:street:Av. Primeiro de Abril,amenity:pharmacy,healthcare:pharmacy,name:pt:Sumé Farma,opening_hours:24/7","lat":-7.6698136,"lng":-36.8761677},{"id":"5619991323","name":"Hospital e maternidade Alice de Almeida","tags":"amenity:hospital,healthcare:hospital,name:pt:Hospital e maternidade Alice de Almeida","lat":-7.6714613,"lng":-36.8766799},{"id":"5619991521","name":"Restaurante e Churrascaria PÉ DE SERRA","tags":"amenity:restaurant,cuisine:fish;sausage;friture;steak_house;pasta;noodles;chicken;brazilian;barbecue,internet_access:wlan,name:pt:Restaurante e Churrascaria PÉ DE SERRA","lat":-7.6688388,"lng":-36.8750067}]