[{"id":"4955707926","name":"Bom Gosto","tags":"amenity:restaurant,name:pt:Bom Gosto","lat":-7.2312653,"lng":-37.2546387},{"id":"4955707927","name":"Snook Bar","tags":"amenity:bar,name:pt:Snook Bar","lat":-7.2243819,"lng":-37.2542793},{"id":"4955708126","name":"Redenção","tags":"name:pt:Redenção,shop:supermarket","lat":-7.2214607,"lng":-37.253013},{"id":"4955708127","name":"Skina Bar","tags":"amenity:bar,name:pt:Skina Bar","lat":-7.2223271,"lng":-37.2546901},{"id":"4955708130","tags":"amenity:car_wash","lat":-7.2282049,"lng":-37.254244},{"id":"4955708131","name":"Sertanejo","tags":"amenity:restaurant,name:pt:Sertanejo","lat":-7.2293248,"lng":-37.2541674},{"id":"4955708133","name":"Aki Lanches","tags":"amenity:restaurant,name:pt:Aki Lanches","lat":-7.2218911,"lng":-37.2547623},{"id":"4955708134","name":"Museu Agar Nunes Guedes","tags":"name:pt:Museu Agar Nunes Guedes,tourism:museum","lat":-7.2215197,"lng":-37.2536935},{"id":"4955708135","name":"Hospital Municipal de Teixeira","tags":"amenity:hospital,healthcare:hospital,name:pt:Hospital Municipal de Teixeira","lat":-7.2191968,"lng":-37.2523211},{"id":"4977777827","name":"Sabores da Roça","tags":"amenity:restaurant,name:pt:Sabores da Roça","lat":-7.2523877,"lng":-37.2601828},{"id":"4993558524","name":"Canudos Bar","tags":"amenity:bar,name:pt:Canudos Bar","lat":-7.2227028,"lng":-37.2552098},{"id":"4993558525","name":"Farmácia Santa Isabel","tags":"amenity:pharmacy,healthcare:pharmacy,name:pt:Farmácia Santa Isabel","lat":-7.2252943,"lng":-37.2536879},{"id":"4993558527","name":"Preço Bom","tags":"name:pt:Preço Bom,shop:convenience","lat":-7.2248307,"lng":-37.2536143},{"id":"4993558529","name":"Central","tags":"amenity:pharmacy,healthcare:pharmacy,name:pt:Central","lat":-7.2216198,"lng":-37.253014},{"id":"4993575322","name":"Banco do Brasil","tags":"amenity:bank,atm:yes,brand:Banco do Brasil,brand:wikidata:Q610817,brand:wikipedia:en:Banco do Brasil,name:pt:Banco do Brasil","lat":-7.2223864,"lng":-37.2552644},{"id":"4993575424","name":"Mercadinho O Sertanejo","tags":"name:pt:Mercadinho O Sertanejo,shop:convenience","lat":-7.2248873,"lng":-37.253598},{"id":"4993575425","name":"Barateiro","tags":"name:pt:Barateiro,shop:supermarket","lat":-7.2260704,"lng":-37.2539571},{"id":"4993575522","name":"Mercadinho Canaã","tags":"name:pt:Mercadino Canaã,shop:convenience","lat":-7.2266201,"lng":-37.2516165},{"id":"4993575524","name":"Café Central","tags":"addr:housenumber:49,amenity:cafe","lat":-7.2253368,"lng":-37.2536865},{"id":"5006077923","name":"Bomboniere Central","tags":"name:pt:Bomboniere Central,shop:convenience","lat":-7.2237465,"lng":-37.2543934},{"id":"5071560026","name":"Espetinho Pedra do 8","tags":"amenity:bar,name:pt:Espetinho Pedra do 8","lat":-7.2230337,"lng":-37.260547},{"id":"5479058024","name":"Mercadinho Confiança","tags":"shop:supermarket","lat":-7.2227488,"lng":-37.2479607},{"id":"5479058025","name":"Arena Training","tags":"leisure:fitness_centre","lat":-7.2223172,"lng":-37.2475934},{"id":"5487993821","name":"Mercadinho","tags":"shop:convenience","lat":-7.3795168,"lng":-36.9415284},{"id":"6860751612","tags":"historic:memorial,memorial:bust,tourism:attraction","lat":-7.221107,"lng":-37.2524708},{"id":"6916272306","tags":"historic:memorial,memorial:bust,tourism:attraction","lat":-7.3755789,"lng":-36.9462054},{"id":"6918674187","name":"Mandacaru","tags":"amenity:restaurant","lat":-7.374645,"lng":-36.9421846},{"id":"7966360886","name":"Chácara Dezim Jesuíno","tags":"addr:street:Sítio lagoa de dentro,tourism:attraction","lat":-7.3720992,"lng":-37.2601887},{"id":"7966379085","name":"Forró de Valdecir","tags":"tourism:attraction","lat":-7.362843,"lng":-37.2486483},{"id":"9150318017","name":"Bar da Mangueira","tags":"amenity:bar","lat":-7.2453573,"lng":-37.2008346},{"id":"9150318018","name":"Grupo Escolar Vicente Vital Leite","tags":"amenity:school","lat":-7.2450697,"lng":-37.184372},{"id":"9150318020","name":"Bar de Damião","tags":"amenity:bar","lat":-7.2422101,"lng":-37.2012662},{"id":"9150318117","name":"Bar do Morcego","tags":"amenity:bar","lat":-7.239037,"lng":-37.1832887},{"id":"9152426517","name":"Escola Municipal Catolé II","tags":"amenity:school","lat":-7.260951,"lng":-37.1603036},{"id":"9155382817","name":"Escola Municipal Antônio Vicente Heleno","tags":"amenity:school","lat":-7.2597199,"lng":-37.1769846},{"id":"9155383017","tags":"amenity:car_wash","lat":-7.2600493,"lng":-37.1778992},{"id":"9492308727","name":"Evangelista Grampão","tags":"shop:convenience","lat":-7.2266658,"lng":-37.2485202},{"id":"9492912018","name":"Verão Bar","tags":"amenity:bar","lat":-7.227518,"lng":-37.2487574},{"id":"9643217017","name":"Neves","tags":"shop:supermarket","lat":-7.2886752,"lng":-37.0886514},{"id":"9984150840","name":"Cruz na Pedra","tags":"denomination:catholic,historic:wayside_cross,religion:christian,tourism:attraction","lat":-7.2605337,"lng":-37.2235847},{"id":"9989295017","name":"Oliver Cerveja & Churrasco","tags":"amenity:bar","lat":-7.3431612,"lng":-36.9396536},{"id":"10002069817","name":"Mini Mercardo Bernardo","tags":"shop:convenience","lat":-7.2613422,"lng":-37.1607024},{"id":"10002070017","name":"Recanto Verde","tags":"amenity:restaurant","lat":-7.2752725,"lng":-37.099509},{"id":"10002076017","name":"Vila Farma","tags":"amenity:pharmacy","lat":-7.2857539,"lng":-37.0847548},{"id":"10002076117","name":"Novo Sabor","tags":"amenity:restaurant","lat":-7.2906364,"lng":-37.083171},{"id":"10002589220","tags":"amenity:bar","lat":-7.260441,"lng":-37.1330479},{"id":"10002599917","name":"Bar","tags":"amenity:bar","lat":-7.3377363,"lng":-37.0329973},{"id":"10002600117","name":"Agytus","tags":"amenity:bar","lat":-7.2728666,"lng":-37.1030842}]