[{"id":"1802914168","name":"Bar da Pedra do Tendó","tags":"amenity:bar","lat":-7.2029231,"lng":-37.2595197},{"id":"2480805310","name":"Espinharas","tags":"public_transport:station,railway:station,wikidata:Q107009621,wikipedia:pt:Estação Ferroviária Espinharas","lat":-7.1257846,"lng":-37.0451343},{"id":"5002163427","name":"Biblioteca Municipal","tags":"amenity:library,name:pt:Biblioteca Municipal","lat":-7.0327931,"lng":-37.1480024},{"id":"5002163429","name":"Bar do Paulo","tags":"amenity:bar,name:pt:Bar do Paulo","lat":-7.0778921,"lng":-37.1406057},{"id":"5002163430","name":"Grupo Escolar Municipal","tags":"amenity:school,name:pt:Grupo Escolar Municipal","lat":-7.0901724,"lng":-37.1157686},{"id":"5002163431","name":"Clube João Maria Luiza","tags":"amenity:nightclub,name:pt:Clube João Maria Luiza","lat":-7.1179797,"lng":-37.0684715},{"id":"5002163432","name":"ENEF José Braz do Nascimento","tags":"amenity:school,name:pt:ENEF José Braz do Nascimento","lat":-7.1190543,"lng":-37.0649971},{"id":"5002188222","name":"Mercadinho São Miguel","tags":"name:pt:Mercadinho São Miguel,shop:convenience","lat":-7.0720439,"lng":-37.1566987},{"id":"5002188224","name":"Bar do Francinaldo","tags":"amenity:bar,name:pt:Bar do Francinaldo","lat":-7.090102,"lng":-37.1161192},{"id":"5002188225","tags":"amenity:childcare","lat":-7.1194661,"lng":-37.0645478},{"id":"5002188823","name":"Bar do Retorno","tags":"amenity:bar,name:pt:Bar do Retorno","lat":-7.1236696,"lng":-36.9432697},{"id":"5293711822","name":"Bar do Zé Novo","tags":"amenity:bar","lat":-7.1236399,"lng":-36.9472773},{"id":"5293717721","name":"Mercadinho JE","tags":"shop:convenience","lat":-7.1236798,"lng":-36.9420502},{"id":"5293718221","name":"Mercadinho Félix","tags":"shop:convenience","lat":-7.1233455,"lng":-36.9395774},{"id":"5302537826","name":"Bar do Poço","tags":"amenity:bar","lat":-7.0361349,"lng":-37.1480302},{"id":"5302537922","name":"Mercadinho Frei Damião","tags":"shop:convenience","lat":-7.0315383,"lng":-37.1488738},{"id":"7485231896","name":"Correios","tags":"addr:city:Cacimba de Areia,addr:postcode:58730000,addr:street:Rua Antônio Félix de Mendonça,amenity:post_office,brand:Correios,brand:wikidata:Q3375004,brand:wikipedia:en:Correios,image:https://lh3.googleusercontent.com/uxnfa9gOnmUHnMpLLYVbYcr267bTpNKOiP0WsYM53I3nb3qGm9KU4eAbKytFHAHpJgkUdqXCni5bnZRTv6S12L0a4Ic=s450","lat":-7.1297294,"lng":-37.1575005},{"id":"8555613346","name":"Ginásio de Poliesportivo \"O Jujão\"","tags":"leisure:stadium,opening_hours:Mo-Su 09:00-22:00,opening_hours:covid19:Mo-Su 08:00-20:00,operator:Prefeitura municipal","lat":-7.0770808,"lng":-36.9698851},{"id":"8555613369","name":"Posto médico \"Sebastiana de Andrade Gabriel\"","tags":"amenity:hospital,healthcare:hospital,healthcare:speciality:dentist;vaccination;physiotherapy;general,operator:Prefeitura municipal,operator:type:government","lat":-7.0741866,"lng":-36.9737957},{"id":"8860880318","name":"São José","tags":"amenity:pharmacy","lat":-7.1239828,"lng":-36.9490053},{"id":"9004470016","name":"Aeroporto Regional de Patos - Brigadeiro Firmino Ayres","tags":"aeroway:aerodrome,iata:JPO,icao:SNTS,loc_name:PTS,operator:Governo do Estado da Paraíba,wikidata:Q12694373,wikipedia:pt:Aeroporto Regional de Patos","lat":-7.0388218,"lng":-37.2519353},{"id":"9056192117","name":"Museu Municipal Adão Calixto","tags":"tourism:museum","lat":-7.1368049,"lng":-37.0487271},{"id":"9077987717","name":"Escola Municipal Maria Bernadete da Costa","tags":"amenity:school","lat":-7.1214248,"lng":-37.0716738},{"id":"9121410117","name":"Mercadinho","tags":"shop:convenience","lat":-7.1179042,"lng":-37.068598},{"id":"9620780917","name":"Point da Pizza","tags":"amenity:restaurant","lat":-7.1372284,"lng":-37.0501998},{"id":"9620781317","name":"Redenção","tags":"amenity:pharmacy","lat":-7.1372158,"lng":-37.0494061},{"id":"9620781417","name":"Coreto Central","tags":"amenity:bar","lat":-7.137068,"lng":-37.049482},{"id":"9620783217","name":"Bar do João","tags":"amenity:bar","lat":-7.1368733,"lng":-37.0492736},{"id":"9620783417","name":"Comercial Maria Diniz","tags":"shop:convenience","lat":-7.136873,"lng":-37.049137},{"id":"9620783617","name":"M Farma","tags":"amenity:pharmacy","lat":-7.1368569,"lng":-37.049045},{"id":"9620783717","name":"L. Construções","tags":"shop:convenience","lat":-7.1372257,"lng":-37.0490028},{"id":"9620783818","name":"Delegacia de Passagem","tags":"amenity:police","lat":-7.1372324,"lng":-37.048426},{"id":"9620807817","name":"SJ Junior","tags":"shop:supermarket","lat":-7.1367975,"lng":-37.0486444},{"id":"9815052118","name":"Bar do Motorista","tags":"amenity:bar","lat":-7.0734896,"lng":-37.1530679}]