[{"id":"1812082417","name":"Biblioteca Campus VII","tags":"amenity:library","lat":-7.0211449,"lng":-37.2654151},{"id":"1813389064","name":"Casa de Saúde e Maternidade Nossa Senhora da Conceição","tags":"amenity:hospital,healthcare:hospital","lat":-6.9292495,"lng":-37.0957754},{"id":"1813389117","tags":"amenity:school","lat":-6.9306809,"lng":-37.0951716},{"id":"1813389119","name":"Escola Francisco Pergentino","tags":"amenity:school","lat":-6.9271624,"lng":-37.0957823},{"id":"1813389207","name":"Correios","tags":"amenity:post_office,brand:Correios,brand:wikidata:Q3375004,brand:wikipedia:en:Correios","lat":-6.9275012,"lng":-37.0961226},{"id":"1955056566","name":"Copacabana Bar","tags":"amenity:bar","lat":-7.0194267,"lng":-37.262969},{"id":"1955056575","name":"Bar do Chico","tags":"amenity:bar","lat":-7.0197036,"lng":-37.2635484},{"id":"2004997620","name":"PRF - Polícia Rodoviária Federal","tags":"amenity:police,email:del03.pb@prf.gov.br,opening_hours:24/7,operator:Polícia Rodoviária Federal,operator:wikidata:Q1158853,operator:wikipedia:pt:Polícia Rodoviária Federal,phone:+55 83 3533 4731,police:traffic_police","lat":-6.9270271,"lng":-37.0695359},{"id":"2028001674","name":"Restaurante Ramal","tags":"amenity:restaurant","lat":-6.9373274,"lng":-37.0945292},{"id":"2028001676","tags":"amenity:bar","lat":-6.926717,"lng":-37.0969002},{"id":"2028001680","tags":"amenity:bar","lat":-6.9277927,"lng":-37.0967393},{"id":"2028001681","name":"Carreteiro","tags":"amenity:restaurant,cuisine:regional,operator:Ruzembergue e Ingrácia","lat":-6.937173,"lng":-37.0944326},{"id":"2028004455","tags":"amenity:library","lat":-6.9321247,"lng":-37.0949798},{"id":"2040129249","name":"Terminal Rodoviário de Patos","tags":"amenity:bus_station,bus:yes,covered:yes,internet_access:no,operator:DER,public_transport:station,wheelchair:yes","lat":-7.0194393,"lng":-37.2593848},{"id":"2818688153","name":"Delegacia da Polícia Federal em Patos","tags":"addr:city:Patos,addr:housenumber:238,addr:street:Rua Alfredo Lustosa Cabral,amenity:police,email:gab.pat.pb@pf.gov.br,operator:Polícia Federal do Brasil,operator:en:Federal Police of Brazil,operator:wikidata:Q2289697,operator:wikipedia:pt:Polícia Federal do Brasil,phone:+55 83 3511 3910,wheelchair:yes","lat":-7.023089,"lng":-37.264253},{"id":"4307390596","name":"Bradesco","tags":"amenity:bank,atm:yes,brand:Bradesco,brand:wikidata:Q806181,brand:wikipedia:en:Banco Bradesco,operator:Bradesco","lat":-6.871793,"lng":-36.9223229},{"id":"4483229066","tags":"amenity:parking","lat":-7.0191124,"lng":-37.2600612},{"id":"4483229068","tags":"amenity:parking","lat":-7.0190153,"lng":-37.2600586},{"id":"4483229077","tags":"amenity:parking","lat":-7.0193334,"lng":-37.260072},{"id":"4483229079","tags":"amenity:parking","lat":-7.0192096,"lng":-37.2600626},{"id":"4530660153","tags":"amenity:parking","lat":-7.0189305,"lng":-37.259423},{"id":"4530660154","tags":"amenity:parking","lat":-7.0193684,"lng":-37.2589858},{"id":"4930629026","name":"Neném Variedades","tags":"amenity:bar,name:pt:Neném Variedades","lat":-7.0140887,"lng":-37.2620384},{"id":"4987309406","name":"Caldo de Cana","tags":"amenity:restaurant","lat":-6.9651679,"lng":-37.1437374},{"id":"5004007521","name":"Bar e Restaurante Nova Brasília","tags":"amenity:bar,name:pt:Bar e Restaurante Nova Brasília","lat":-7.0242452,"lng":-37.259664},{"id":"5039529222","name":"Espetinho Universitário","tags":"amenity:bar,name:pt:Espetinho Universitário","lat":-7.02129,"lng":-37.2647902},{"id":"5046892058","tags":"amenity:atm,operator:Banco 24 horas","lat":-7.0169862,"lng":-37.2582608},{"id":"5152540535","name":"Restaurante Pão e Vinho","tags":"amenity:restaurant","lat":-7.0193268,"lng":-37.2593767},{"id":"5300839627","name":"Praça José Ferreira Jr","tags":"leisure:park","lat":-6.8692926,"lng":-36.9255556},{"id":"5300885495","name":"Praça Marcelo Pinto","tags":"leisure:park","lat":-6.8724139,"lng":-36.9141589},{"id":"5415173423","name":"Bazar","tags":"shop:convenience","lat":-6.8704831,"lng":-36.9249943},{"id":"5415173424","name":"Churrascaria 100% Guaíba","tags":"amenity:restaurant","lat":-6.8739173,"lng":-36.929265},{"id":"5415216825","name":"Popular","tags":"amenity:pharmacy,healthcare:pharmacy","lat":-6.8702162,"lng":-36.9245245},{"id":"5415216924","name":"Bar do Chrsthyano","tags":"amenity:bar","lat":-6.8699295,"lng":-36.9242005},{"id":"5415217124","name":"Quipauá","tags":"amenity:restaurant","lat":-6.8713936,"lng":-36.9259203},{"id":"5592304123","name":"Mercadinho Boa Vista","tags":"shop:convenience","lat":-6.9280177,"lng":-37.0978962},{"id":"5592315422","name":"Mercadinho Macedo","tags":"shop:convenience","lat":-6.9296964,"lng":-37.1008635},{"id":"5592315423","name":"Asa Branca","tags":"shop:supermarket","lat":-6.8707608,"lng":-36.9247556},{"id":"5592763021","name":"Popular","tags":"shop:convenience","lat":-6.8745604,"lng":-36.9146344},{"id":"5592763022","name":"Cadetão","tags":"shop:convenience","lat":-6.8728698,"lng":-36.9152029},{"id":"5592771022","name":"Leal Bar","tags":"amenity:bar","lat":-6.8724614,"lng":-36.9150568},{"id":"5595416421","name":"Santa Clara","tags":"amenity:pharmacy,healthcare:pharmacy","lat":-6.8724675,"lng":-36.9152331},{"id":"8988266317","name":"Dona Zila","tags":"amenity:restaurant","lat":-7.0197489,"lng":-37.2517322},{"id":"9471811817","name":"Recanto Karaokê","tags":"amenity:bar","lat":-7.0166049,"lng":-37.2643699},{"id":"9471812917","name":"Minibox Realeza","tags":"shop:convenience","lat":-7.0152954,"lng":-37.2652651},{"id":"9769612317","name":"Bar 55","tags":"amenity:bar","lat":-6.8707687,"lng":-36.9200479},{"id":"9817700817","name":"Uni Farma","tags":"amenity:pharmacy","lat":-6.8726191,"lng":-36.9160954},{"id":"9973553916","name":"Minibox Santa Luzia","tags":"shop:supermarket","lat":-6.8714602,"lng":-36.92387},{"id":"9973562917","name":"Museu Comunitário","tags":"official_name:Museu Comunitário Jeová Batista de Azevedo,tourism:museum","lat":-6.8716879,"lng":-36.9233926},{"id":"10661688705","name":"Mini Box Graça e Paz","tags":"shop:convenience","lat":-7.0187943,"lng":-37.2648386},{"id":"10688459605","name":"Mini Box Nossa Senhora do Rosário","tags":"shop:convenience","lat":-6.8733691,"lng":-36.9141955},{"id":"10689545586","tags":"denomination:catholic,historic:wayside_cross,religion:christian,tourism:attraction","lat":-6.86683,"lng":-36.9219167}]