[{"id":"4215372897","name":"Escola Salesiana Padre Rinaldi","tags":"addr:street:Rua Padre Rocha,amenity:school","lat":-7.8413224,"lng":-35.2528556},{"id":"4917009838","name":"Nazaré da Mata","tags":"public_transport:station,railway:station,start_date:1882-09-15,train:yes","lat":-7.7513107,"lng":-35.2291299},{"id":"5284265238","name":"Ki-pizza","tags":"addr:street:Avenida Pacheco Leite Filho,amenity:restaurant,cuisine:pizza","lat":-7.8984564,"lng":-35.1752454},{"id":"5284265239","name":"Mercadinho Maranata","tags":"addr:city:Paudalho,addr:housenumber:30,addr:postcode:55825-000,addr:street:Avenida Pacheco Leite Filho,addr:suburb:centro,shop:supermarket","lat":-7.8979941,"lng":-35.1758998},{"id":"5284265241","name":"Farmacia Confiança","tags":"addr:city:Paudalho,addr:postcode:55825-000,addr:street:Avenida Pacheco Leite Filho,addr:suburb:centro,amenity:pharmacy,healthcare:pharmacy","lat":-7.8976806,"lng":-35.1764282},{"id":"5284276756","name":"Banco Santander","tags":"addr:city:Paudalho,addr:postcode:55825-000,addr:street:Rua Conselheiro João Alfredo,addr:suburb:centro,amenity:bank","lat":-7.8968324,"lng":-35.1763837},{"id":"5284276757","name":"Bradesco","tags":"addr:city:Paudalho,addr:postcode:55825-000,addr:street:Rua Conselheiro João Alfredo,addr:suburb:centro,amenity:bank","lat":-7.8965169,"lng":-35.1761951},{"id":"5284276762","name":"Caixa Econômica Federal","tags":"addr:city:Paudalho,addr:postcode:55825-000,addr:street:Rua Conselheiro João Alfredo,addr:suburb:centro,amenity:bank","lat":-7.8964502,"lng":-35.1764034},{"id":"5284276764","name":"Correios do Brasil","tags":"addr:city:Paudalho,addr:postcode:55825-000,addr:street:Praça Padre Pedro Coutinho,addr:suburb:centro,amenity:post_office","lat":-7.8967776,"lng":-35.176236},{"id":"5284477244","name":"Farmacia São João","tags":"addr:city:Paudalho,addr:postcode:55825-000,addr:street:Avenida Pacheco Leite Filho,addr:suburb:centro,amenity:pharmacy,healthcare:pharmacy","lat":-7.8969829,"lng":-35.1764821},{"id":"5474409021","name":"Supermercado Cordeiro","tags":"shop:supermarket","lat":-7.8956689,"lng":-35.1780189},{"id":"5474409022","name":"Supermercado Boas Compras","tags":"shop:supermarket","lat":-7.8963824,"lng":-35.1769107},{"id":"5775977976","name":"Shopping Carpina","tags":"shop:mall","lat":-7.8356826,"lng":-35.2259185},{"id":"5775998893","name":"Tracunhaém","tags":"disused:railway:station,public_transport:station,railway:station,train:yes","lat":-7.798493,"lng":-35.2483287},{"id":"6060398185","name":"supermercado ideal","tags":"shop:supermarket","lat":-7.8669659,"lng":-35.4410001},{"id":"6361034990","name":"4696 Mercadinho Albuquerque","tags":"shop:supermarket","lat":-7.8795125,"lng":-35.4567381},{"id":"6361036888","name":"4704 Nego do Feijão","tags":"shop:supermarket","lat":-7.8795707,"lng":-35.4565264},{"id":"6361100286","name":"4691 Supermercado Estrela do Lar","tags":"shop:supermarket","lat":-7.879971,"lng":-35.4564182},{"id":"6361111385","name":"4702 Casa Primor","tags":"shop:supermarket","lat":-7.8797322,"lng":-35.4557537},{"id":"6361131385","name":"4682 Atacarejo Feira Nova","tags":"shop:supermarket","lat":-7.8787356,"lng":-35.4552431},{"id":"6361189804","name":"4683 Mercadinho Santo Antônio","tags":"shop:supermarket","lat":-7.8815475,"lng":-35.4575998},{"id":"6361234685","name":"4692 Mercadinho Parceria do Lar","tags":"shop:supermarket","lat":-7.8705179,"lng":-35.4452428},{"id":"6361251585","name":"4700 Varejão Supermercado","tags":"shop:supermarket","lat":-7.8779045,"lng":-35.4516633},{"id":"6361313286","name":"4687 Conveniência Posto BR","tags":"shop:convenience","lat":-7.8788713,"lng":-35.4437104},{"id":"6361313287","name":"4684 Supermercado Fragoso","tags":"shop:supermarket","lat":-7.8824778,"lng":-35.4437897},{"id":"6362690805","name":"4713 Merca","tags":"name:pt:4713 Mercadinho Nsa Sra da Conceição,shop:supermarket","lat":-7.8835985,"lng":-35.4409112},{"id":"6362801485","name":"4688 Mercadinho Varejão Verde","tags":"shop:supermarket","lat":-7.862526,"lng":-35.4419282},{"id":"6363094785","name":"4708 Conveniência Posto Zupp","tags":"shop:convenience","lat":-7.8803926,"lng":-35.4506293},{"id":"6363105385","name":"4689 Mercadinho Muniz","tags":"shop:supermarket","lat":-7.8801669,"lng":-35.4508506},{"id":"6363208785","name":"4703 Super Barato Atacarejo","tags":"shop:supermarket","lat":-7.8651648,"lng":-35.4405373},{"id":"6363273685","name":"4685 Supermercado Ideal","tags":"shop:supermarket","lat":-7.867096,"lng":-35.4409654},{"id":"6363387285","name":"4686 P F Conveniências","tags":"shop:convenience","lat":-7.8618479,"lng":-35.4411851},{"id":"6364828085","name":"4716 Supermercado Kumamoto","tags":"shop:supermarket","lat":-7.8451607,"lng":-35.3084446},{"id":"6365023086","name":"4825 Supermercado Preço Real","tags":"shop:supermarket","lat":-7.8412265,"lng":-35.311032},{"id":"6365259286","name":"4824 Mercadinho Albuquerque","tags":"shop:supermarket","lat":-7.8473411,"lng":-35.3132462},{"id":"6365261385","name":"4737 Dede Lanches","tags":"shop:supermarket","lat":-7.8462249,"lng":-35.2625807},{"id":"6365282385","name":"4733 Supermercado Bela Vista","tags":"shop:supermarket","lat":-7.8438452,"lng":-35.2677709},{"id":"6365368785","name":"4739 Mercadinho Leve Mais","tags":"shop:supermarket","lat":-7.8528122,"lng":-35.2525373},{"id":"6370823668","name":"Bradesco","tags":"addr:city:Carpina,amenity:bank,brand:Bradesco,brand:wikidata:Q806181,brand:wikipedia:en:Banco Bradesco","lat":-7.8353109,"lng":-35.2266376},{"id":"6370823671","name":"Sal e Brasa","tags":"amenity:restaurant","lat":-7.8354117,"lng":-35.226301},{"id":"6370823672","name":"Capilé","tags":"addr:city:Carpina,amenity:restaurant","lat":-7.8356366,"lng":-35.2263715},{"id":"6409483986","name":"4683 Varejão Santo Antonio","tags":"shop:supermarket","lat":-7.8803296,"lng":-35.4568654},{"id":"6445548525","name":"Supermercado Hiper Cordeiro","tags":"shop:supermarket","lat":-7.8775324,"lng":-35.4446816},{"id":"6570956205","name":"TAPIOCA","tags":"addr:city:Carpina,addr:housenumber:S/N,addr:postcode:55819-040,addr:street:Avenida Estácio Coimbra,addr:suburb:Centro,amenity:restaurant,cuisine:regional","lat":-7.8450789,"lng":-35.2556016},{"id":"6570962062","name":"CARMEL","tags":"addr:city:Carpina,addr:housenumber:614,addr:postcode:55819-040,addr:street:Avenida Estácio Coimbra,addr:suburb:Centro,amenity:restaurant","lat":-7.8450834,"lng":-35.2557279},{"id":"6779075346","name":"Escola Mul. Santa Lucia","tags":"addr:city:Limoeiro,addr:suburb:Duas Pedras,amenity:school","lat":-7.8995765,"lng":-35.4799359},{"id":"7105909001","name":"Santander","tags":"addr:city:Carpina,addr:housenumber:572,addr:postcode:55819-907,addr:street:Avenida Estácio Coimbra,addr:suburb:São José,amenity:bank,atm:yes,brand:Santander,brand:wikidata:Q5835668,brand:wikipedia:en:Santander Bank","lat":-7.8451804,"lng":-35.2553164},{"id":"7105909002","name":"Bradesco","tags":"addr:city:Carpina,addr:housenumber:566,addr:street:Avenida Estácio Coimbra,addr:suburb:São José,amenity:bank,atm:yes,brand:Bradesco,brand:wikidata:Q806181,brand:wikipedia:en:Banco Bradesco","lat":-7.845195,"lng":-35.2552111},{"id":"7105909003","name":"Banco do Brasil","tags":"addr:city:Carpina,addr:housenumber:720,addr:postcode:55819-908,addr:street:Avenida Estácio Coimbra,addr:suburb:São José,amenity:bank,atm:yes,brand:Banco do Brasil,brand:wikidata:Q610817,brand:wikipedia:en:Banco do Brasil","lat":-7.8449981,"lng":-35.2565645},{"id":"7105909004","name":"Itaú","tags":"addr:housenumber:391,addr:postcode:55815-060,addr:street:Avenida Agamenon Magalhães,addr:suburb:São José,amenity:bank,atm:yes,brand:Itaú Unibanco,brand:wikidata:Q1424293,brand:wikipedia:pt:Itaú Unibanco","lat":-7.8427821,"lng":-35.257191},{"id":"7105909005","name":"Caixa Econômica Federal","tags":"addr:city:Carpina,addr:housenumber:33,addr:postcode:55813-810,addr:street:Praça Joaquim Nabuco,addr:suburb:Centro,amenity:bank,atm:yes,brand:Caixa Econômica Federal,brand:wikidata:Q835283,brand:wikipedia:pt:Caixa Econômica Federal","lat":-7.8458299,"lng":-35.2549473},{"id":"7114436170","name":"Universidade Estácio de Sá","tags":"addr:city:Carpina,addr:postcode:55810-000,addr:street:Avenida Agamenon Magalhães,addr:suburb:São José,amenity:university,website:https://estacio.br","lat":-7.8426781,"lng":-35.2560728},{"id":"7439923647","name":"Estádio Alfredo Coutinho","tags":"leisure:stadium","lat":-7.7441803,"lng":-35.2330732},{"id":"7455558781","name":"Universidade Santíssima Trindade","tags":"amenity:university","lat":-7.7423289,"lng":-35.2296551},{"id":"8023768236","name":"Terminal Rodoviário de Nazaré da Mata","tags":"amenity:bus_station,bus:yes,official_name:Terminal Rodoviário Rodolfo Ferreira Lima,public_transport:station","lat":-7.7423557,"lng":-35.2263602},{"id":"8060310878","name":"Praça Pedro Coutinho","tags":"addr:postcode:55825000,addr:street:Praça Padre Pedro Coutinho,addr:suburb:centro,leisure:park","lat":-7.8966816,"lng":-35.1762252}]