[{"id":"630743138","name":"Jardim Botânico Benjamin Maranhão","tags":"amenity:parking","lat":-7.1354912,"lng":-34.8607616},{"id":"670611259","name":"Ilha do Bispo","tags":"light_rail:yes,public_transport:station,railway:station,station:light_rail","lat":-7.1272041,"lng":-34.9015707},{"id":"845009397","name":"Sta. Thereza","tags":"amenity:hospital,healthcare:hospital","lat":-7.1293045,"lng":-34.8584839},{"id":"859506493","name":"Veranda do Mar","tags":"amenity:bar,comment:wifi pass 1717202017,internet_access:wlan,internet_access:password:1717202017,wifi:yes","lat":-7.109066,"lng":-34.824643},{"id":"921101994","name":"Posto da Polícia Rodoviária Federal","tags":"amenity:police,opening_hours:24/7,operator:Polícia Rodoviária Federal,operator:wikidata:Q1158853,operator:wikipedia:pt:Polícia Rodoviária Federal,phone:+55 83 3533 4735,police:traffic_police","lat":-7.1410522,"lng":-34.9217484},{"id":"1021517897","name":"Menor Preço","tags":"addr:city:Cabedelo,addr:housenumber:381,addr:street:Avenida Mar Vermelho,addr:suburb:Intermares,shop:supermarket","lat":-7.043785,"lng":-34.845646},{"id":"1021521803","tags":"amenity:pharmacy,healthcare:pharmacy,phone:+558332481010","lat":-7.043552,"lng":-34.845401},{"id":"1021522959","name":"Farmacia KiFarma","tags":"amenity:pharmacy,healthcare:pharmacy,phone:+55 83 3248-2928","lat":-7.044277,"lng":-34.844493},{"id":"1021528849","name":"Galeteria Intermares","tags":"amenity:bar","lat":-7.047473,"lng":-34.847995},{"id":"1026885492","name":"Escola Mar e Sol","tags":"amenity:school","lat":-7.094684,"lng":-34.844914},{"id":"1028957865","name":"Pague Menos","tags":"amenity:pharmacy,brand:Pague Menos,brand:wikidata:Q7124466,brand:wikipedia:pt:Pague Menos,healthcare:pharmacy,opening_hours:24/7","lat":-7.097101,"lng":-34.834786},{"id":"1028958115","name":"Itaú","tags":"amenity:bank,brand:Itaú Unibanco,brand:wikidata:Q1424293,brand:wikipedia:pt:Itaú Unibanco","lat":-7.097125,"lng":-34.834249},{"id":"1028960406","name":"Bar da Surfista","tags":"amenity:bar","lat":-7.048584,"lng":-34.842079},{"id":"1029738875","name":"Galeteria D'Intermares","tags":"access:yes,addr:housenumber:28,addr:street:Rua Golfo de Veneza,amenity:restaurant,emergency:no,healthcare:clinic","lat":-7.044365,"lng":-34.845573},{"id":"1207879576","name":"Almirante Joaquim Marques Lisboa, Marquês de Tamandaré","tags":"historic:memorial,loc_name:Busto de Tamandaré,memorial:bust,tourism:attraction","lat":-7.1192434,"lng":-34.8235891},{"id":"1330000526","name":"Corais Bar e Restaurante","tags":"addr:city:João Pessoa,addr:housenumber:5100,addr:postcode:58045010,addr:street:Avenida Cabo Branco,addr:suburb:cabo branco,amenity:restaurant,cuisine:seafood,phone:+5583 3247-4336","lat":-7.145741,"lng":-34.8068762},{"id":"1351960638","name":"Kyoto Restaurante","tags":"addr:city:joao pessoa,addr:street:Final da Av. Beira Rio, nº71,amenity:restaurant,cuisine:sushi,phone:558332266587,website:http://www.restaurantekyoto.com,wheelchair:limited,wheelchair:description:Sushibar e temakeria","lat":-7.1248717,"lng":-34.8247125},{"id":"1704577815","name":"Restaurante Recanto do Picuí","tags":"amenity:restaurant,cuisine:steak_house","lat":-7.0408137,"lng":-34.8447666},{"id":"1751874262","name":"Restaurante Terraço Brasil","tags":"amenity:restaurant","lat":-7.1263842,"lng":-34.8236101},{"id":"1957132650","name":"Nau Frutos do Mar","tags":"amenity:restaurant,cuisine:seafood","lat":-7.1107575,"lng":-34.8290618},{"id":"1957132654","name":"Polícia Civil","tags":"amenity:police","lat":-7.1004039,"lng":-34.8438408},{"id":"1993173430","name":"Escola Estadual de Ensino Fundamental João Roberto Borges de Souza","tags":"addr:street:Rua Ozório Milanez Filho,alt_name:João Roberto Borges de Souza,amenity:school","lat":-7.1782615,"lng":-34.8395843},{"id":"2014592886","name":"Verde Fruit","tags":"shop:convenience","lat":-7.1183792,"lng":-34.8253349},{"id":"2014595894","name":"Parmegiana","tags":"amenity:restaurant","lat":-7.1113309,"lng":-34.8259989},{"id":"2014596909","name":"Loja de Conveniencia","tags":"shop:convenience","lat":-7.1110753,"lng":-34.8252479},{"id":"2022094178","tags":"amenity:cafe","lat":-7.1192659,"lng":-34.8248002},{"id":"2022094181","tags":"amenity:restaurant","lat":-7.1130266,"lng":-34.8239523},{"id":"2050007077","name":"Pôr-do-Sol do Jacaré","tags":"tourism:attraction","lat":-7.0394073,"lng":-34.8552994},{"id":"2051811294","tags":"amenity:bar","lat":-7.1121289,"lng":-34.8233252},{"id":"2051838618","name":"Cia do Chopp","tags":"amenity:bar","lat":-7.1123398,"lng":-34.8237499},{"id":"2051839605","tags":"amenity:police","lat":-7.1134071,"lng":-34.8247289},{"id":"2051840529","name":"Bradesco","tags":"amenity:bank","lat":-7.1109428,"lng":-34.8263117},{"id":"2051841352","tags":"amenity:bank","lat":-7.1103383,"lng":-34.8249435},{"id":"2051842263","tags":"amenity:post_office","lat":-7.1107992,"lng":-34.8252842},{"id":"2051846671","name":"Emporio Café","tags":"amenity:bar","lat":-7.1119599,"lng":-34.8235649},{"id":"2051861612","tags":"shop:supermarket","lat":-7.0857872,"lng":-34.8463315},{"id":"2052041597","name":"Adega do Alfredo","tags":"addr:city:João Pessoa,addr:housenumber:92,addr:postcode:58038250,addr:street:Avenida Ingá,addr:suburb:Manaira,amenity:restaurant,cuisine:regional","lat":-7.1049842,"lng":-34.8302681},{"id":"2052042204","name":"Apetitto Tratoria","tags":"amenity:restaurant,cuisine:italian","lat":-7.1118055,"lng":-34.8242489},{"id":"2052042388","name":"Mediterraneo","tags":"amenity:restaurant,cuisine:seafood","lat":-7.1124021,"lng":-34.824331},{"id":"2052042464","name":"Peixada do Duda","tags":"amenity:restaurant,cuisine:seafood","lat":-7.1121253,"lng":-34.8240038},{"id":"2052191813","name":"Fri Berg Sorveteria","tags":"amenity:restaurant","lat":-7.1094003,"lng":-34.8246286},{"id":"2052197138","name":"Osaka Restaurante Asiático","tags":"amenity:restaurant,cuisine:sushi","lat":-7.1111766,"lng":-34.8244554},{"id":"2111531387","name":"Jacaré","tags":"light_rail:yes,public_transport:station,railway:station,station:light_rail","lat":-7.0364351,"lng":-34.8503911},{"id":"2401049269","name":"Pague Menos","tags":"amenity:pharmacy,brand:Pague Menos,brand:wikidata:Q7124466,brand:wikipedia:pt:Pague Menos,healthcare:pharmacy","lat":-7.0446167,"lng":-34.8428337},{"id":"2401049270","name":"Supermercado Litoral","tags":"shop:supermarket","lat":-7.0444144,"lng":-34.8432736},{"id":"2402987308","tags":"shop:convenience","lat":-7.1432622,"lng":-34.9400356},{"id":"2447728167","name":"Alto do Mateus","tags":"light_rail:yes,public_transport:station,railway:station,station:light_rail","lat":-7.1303844,"lng":-34.9128912},{"id":"2530845076","name":"Terminal do Varadouro | Plataforma C - 02","tags":"amenity:bus_station,bench:yes,bin:yes,bus:yes,departures_board:realtime,lit:yes,public_transport:platform,shelter:yes,tactile_paving:yes,wheelchair:yes","lat":-7.1176651,"lng":-34.8900531},{"id":"2531341342","name":"Terminal de Ônibus de Mangabeira IV","tags":"amenity:bus_station,bus:yes,public_transport:station","lat":-7.1887995,"lng":-34.8390882},{"id":"2537415384","name":"IHGP - Instituto Histórico e Geográfico Paraibano","tags":"addr:housenumber:64,addr:postcode:58013-080,addr:street:Rua Barão do Abiaí,amenity:library,building:yes,contact:phone:+55 83 32220513,contact:website:http://ihgp.net/","lat":-7.1178891,"lng":-34.882559},{"id":"2576453030","name":"Paula Cavalcanti","tags":"old_name:Estação Entroncamento,public_transport:station,railway:station,train:yes","lat":-7.1555813,"lng":-35.1377968},{"id":"2587387900","name":"Restaurante e Churrascaria Novo Planalto","tags":"amenity:restaurant,cuisine:regional","lat":-7.1427613,"lng":-34.9943085},{"id":"2630657422","name":"Vila Cariri","tags":"addr:housename:Rua Francisco Claudino Pereira,addr:housenumber:500,addr:street:Rua Francisco Claudino Pereira,amenity:restaurant,cuisine:regional","lat":-7.1013517,"lng":-34.8386475},{"id":"2630667490","name":"Golfinho Bar e Restaurante","tags":"addr:street:Rua Argemiro de Figueiredo,amenity:bar","lat":-7.0806619,"lng":-34.831397},{"id":"2631202026","name":"Supermercado Pão de Açúcar - Retão de Manaíra","tags":"addr:street:Avenida Governador Flávio Ribeiro Coutinho,shop:supermarket","lat":-7.0973131,"lng":-34.8385861},{"id":"2635341171","name":"Terminal Miramar - Linha 402","tags":"amenity:bus_station,bus:yes,public_transport:station","lat":-7.1245901,"lng":-34.8367546},{"id":"2635341843","name":"Terminal Cristo Redentor - 204, 208, 3200","tags":"amenity:bus_station,bus:yes,public_transport:station","lat":-7.1664887,"lng":-34.8720017},{"id":"2635342335","tags":"amenity:bus_station,bus:yes,internet_access:no,operator:Unitrans,public_transport:station","lat":-7.1827931,"lng":-34.8815464},{"id":"2658067117","tags":"addr:city:João Pessoa,addr:housename:Pague Menos,addr:street:Avenida Senador Ruy Carneiro,amenity:pharmacy,healthcare:pharmacy","lat":-7.1182949,"lng":-34.8403394},{"id":"2658100358","name":"Santander","tags":"addr:city:João Pessoa,addr:street:Avenida Senador Ruy Carneiro,amenity:bank,atm:yes,brand:Santander,brand:wikidata:Q5835668,brand:wikipedia:en:Santander Bank","lat":-7.1110391,"lng":-34.8256711},{"id":"2658100593","name":"Caixa Econômica Federal","tags":"addr:city:João Pessoa,addr:street:Avenida Senador Ruy Carneiro,amenity:bank,atm:yes","lat":-7.1111118,"lng":-34.8258144},{"id":"2658667750","name":"Restaurante Domani","tags":"addr:city:João Pessoa,addr:street:Rua Luiz Alves Conserva,amenity:restaurant,cuisine:regional","lat":-7.1473319,"lng":-34.8472426},{"id":"2673113421","name":"Correios","tags":"amenity:post_office","lat":-7.1406617,"lng":-35.0885658},{"id":"2673113445","name":"Ginásio Rafão","tags":"leisure:stadium","lat":-7.1417952,"lng":-35.089489},{"id":"2677362197","name":"Bradesco","tags":"addr:city:João Pessoa,addr:housenumber:1177,addr:street:Avenida Diógenes Chianca,amenity:bank,atm:yes,brand:Bradesco,brand:wikidata:Q806181,brand:wikipedia:en:Banco Bradesco","lat":-7.1687569,"lng":-34.863909},{"id":"2678741385","name":"Santander","tags":"addr:city:João Pessoa,addr:street:Avenida Barão do Triunfo,amenity:bank,atm:yes,brand:Santander,brand:wikidata:Q5835668,brand:wikipedia:en:Santander Bank,opening_hours:10:00-16:00","lat":-7.1158507,"lng":-34.8888185},{"id":"2678749782","name":"Faculdade de Ciências Médicas da Paraíba","tags":"addr:city:João Pessoa,addr:street:Praça Dom Ulrico,amenity:university","lat":-7.1154791,"lng":-34.8850398},{"id":"2678753524","name":"Instituto João XXIII","tags":"addr:city:João Pessoa,addr:street:Rua Professor Batista Leite,amenity:school","lat":-7.114419,"lng":-34.8787026},{"id":"2681582442","name":"Bá do Zé","tags":"addr:city:João Pessoa,addr:street:Rua Francisco Claudino Pereira,amenity:bar","lat":-7.1012466,"lng":-34.838402},{"id":"2681583080","name":"Correios - Manaíra","tags":"amenity:post_office,operator:Correios,operator:wikidata:Q3375004,operator:wikipedia:en:Correios","lat":-7.0976924,"lng":-34.8405739},{"id":"2695733548","name":"Manaíra Shopping","tags":"addr:city:João Pessoa,addr:housenumber:900,addr:street:Avenida Governador Flávio Ribeiro Coutinho,opening_hours:10:00-22:00,phone:+55 83 2106-6000,shop:mall,website:http://www.manairashopping.com.br,wheelchair:yes","lat":-7.098275,"lng":-34.8442886},{"id":"2731878958","name":"Bar do Borba","tags":"addr:city:João Pessoa,addr:street:Rua Gutemberg Morais Paiva,amenity:bar","lat":-7.1473991,"lng":-34.844357},{"id":"2789542912","name":"Bom Preço - Epitácio","tags":"addr:city:João Pessoa,addr:street:Avenida Presidente Epitácio Pessoa,shop:supermarket","lat":-7.1198593,"lng":-34.857359},{"id":"2793874689","name":"Novo Oriente","tags":"amenity:restaurant,cuisine:chinese","lat":-7.1454462,"lng":-34.8401689},{"id":"2838290900","name":"Santander","tags":"addr:city:João Pessoa,addr:street:Rua Rodrigues de Aquino,amenity:bank,atm:yes,brand:Santander,brand:wikidata:Q5835668,brand:wikipedia:en:Santander Bank","lat":-7.1216329,"lng":-34.8831192},{"id":"2838296427","name":"Banco do Brasil","tags":"addr:city:João Pessoa,addr:street:Praça João Pessoa,amenity:bank,atm:yes,brand:Banco do Brasil,brand:wikidata:Q610817,brand:wikipedia:en:Banco do Brasil","lat":-7.1212824,"lng":-34.8832652},{"id":"2838296461","name":"Estacionamento Pago","tags":"amenity:parking,fee:yes","lat":-7.1211972,"lng":-34.882423},{"id":"2847348199","name":"Livraria Paulos","tags":"addr:city:João Pessoa,addr:street:Avenida Visconde de Pelotas,shop:books","lat":-7.1161241,"lng":-34.8824233},{"id":"2884646402","name":"Delegacia do Turista","tags":"addr:city:João Pessoa,addr:street:Avenida Almirante Tamandaré,amenity:police","lat":-7.1101088,"lng":-34.8233743},{"id":"2885794674","name":"Big Bompreço Lagoa","tags":"addr:city:João Pessoa,addr:street:Parque Solon de Lucena,shop:supermarket","lat":-7.1184632,"lng":-34.8783283},{"id":"2885813044","name":"Banco Itaú - Epitácio Pessoa","tags":"addr:city:João Pessoa,addr:street:Avenida Presidente Epitácio Pessoa,amenity:bank,atm:yes","lat":-7.1195591,"lng":-34.8549413},{"id":"2885820548","name":"Bradesco - Epitácio Pessoa","tags":"addr:city:João Pessoa,addr:street:Avenida Presidente Epitácio Pessoa,amenity:bank,atm:yes","lat":-7.1195502,"lng":-34.8546476},{"id":"2885821955","name":"Caixa Econômica Federal - Epitácio Pessoa","tags":"addr:city:João Pessoa,addr:street:Avenida Presidente Epitácio Pessoa,amenity:bank,atm:yes","lat":-7.1195169,"lng":-34.856727},{"id":"2902104297","name":"Arquivo Eclesiástico","tags":"amenity:library","lat":-7.1142134,"lng":-34.8824022},{"id":"2902104298","name":"Centro Cultural São Francisco","tags":"operator:Arquidiocese da Paraíba,tourism:museum","lat":-7.1145883,"lng":-34.8825453},{"id":"2929149343","name":"Olho de Lula","tags":"amenity:restaurant,cuisine:seafood","lat":-7.1301144,"lng":-34.8225877},{"id":"2936706413","name":"Mamma mia","tags":"amenity:restaurant,cuisine:italian","lat":-7.111362,"lng":-34.824042},{"id":"3014288872","name":"Banco do Brasil","tags":"amenity:bank,atm:yes,brand:Banco do Brasil,brand:wikidata:Q610817,brand:wikipedia:en:Banco do Brasil","lat":-7.1281189,"lng":-34.8689261},{"id":"3036281279","name":"Nonna Anaia","tags":"amenity:restaurant,cuisine:pizza","lat":-7.1095163,"lng":-34.8244975},{"id":"3168629423","name":"Mercadinho Bonopreço","tags":"shop:supermarket","lat":-7.1990702,"lng":-34.8615128},{"id":"3273492678","name":"Farmaflora","tags":"addr:city:João Pessoa,addr:street:Avenida Nego,amenity:pharmacy","lat":-7.1143545,"lng":-34.8247193},{"id":"3287985383","name":"Avião do Aeroclube","tags":"historic:aircraft,tourism:attraction","lat":-7.0929973,"lng":-34.8421812},{"id":"3299325869","name":"Bar do Lula","tags":"addr:housenumber:512,addr:street:Rua Francisco Claudino Pereira,addr:suburb:Manaíra,amenity:bar","lat":-7.1014024,"lng":-34.8387103},{"id":"3301687961","name":"CLIM","tags":"addr:city:João Pessoa,addr:street:Avenida Presidente Epitácio Pessoa,amenity:hospital,operator:Maternidade","lat":-7.1199009,"lng":-34.869393},{"id":"3307943493","tags":"shop:convenience","lat":-7.1192273,"lng":-34.8334462},{"id":"3351835440","name":"Carrefour","tags":"amenity:parking,capacity:150,parking:garage","lat":-7.1466637,"lng":-34.8491544},{"id":"3358374082","name":"Biblioteca Juarez da Gama Batista","tags":"addr:city:João Pessoa,addr:street:Avenida Abdias Gomes de Almeida,amenity:library,opening_hours:07:00-19:00,operator:Funesc - Fundação Espaço Cultural José Lins do Rego,phone:+55 83 32116264,website:http://www.funesc.pb.gov.br/cultura/index.php?option=com_content&view=article&id=61&Itemid=2,wheelchair:yes","lat":-7.1220025,"lng":-34.8438507},{"id":"3358435966","name":"Museu José Lins do Rego","tags":"addr:city:João Pessoa,addr:street:Avenida Abdias Gomes de Almeida,operator:Funesc - Fundação Espaço Cultural José Lins do Rego,phone:+55 83 32116270,tourism:museum,website:http://www.funesc.pb.gov.br/cultura/index.php?option=com_content&view=article&id=67&Itemid=74,wheelchair:yes","lat":-7.1219785,"lng":-34.8424774},{"id":"3358452135","name":"Santander","tags":"addr:city:João Pessoa,addr:street:Avenida Abdias Gomes de Almeida,amenity:bank,atm:yes,brand:Santander,brand:wikidata:Q5835668,brand:wikipedia:en:Santander Bank,opening_hours:10:00-16:00,operator:Santander,website:https://www.santander.com.br/","lat":-7.1217629,"lng":-34.8421368},{"id":"3358460339","name":"Banco do Brasil","tags":"addr:city:João Pessoa,addr:street:Avenida Abdias Gomes de Almeida,amenity:bank,atm:yes,brand:Banco do Brasil,brand:wikidata:Q610817,brand:wikipedia:en:Banco do Brasil,opening_hours:10:00-16:00,operator:Banco do Brasil,website:https://www.bb.com.br/","lat":-7.1217656,"lng":-34.842464},{"id":"3358496776","name":"Praça do Povo","tags":"addr:city:João Pessoa,addr:street:Avenida Abdias Gomes de Almeida,landuse:recreation_ground,leisure:park,operator:Funesc - Fundação Espaço Cultural José Lins do Rego,wheelchair:yes","lat":-7.1222181,"lng":-34.843164},{"id":"3358496777","name":"Correios","tags":"addr:city:João Pessoa,addr:street:Avenida Abdias Gomes de Almeida,amenity:post_office,brand:Correios,brand:wikidata:Q3375004,brand:wikipedia:en:Correios,website:https://www.correios.com.br/","lat":-7.1217683,"lng":-34.8433196},{"id":"3358787123","name":"Hemocentro da Paraíba","tags":"addr:city:João Pessoa,addr:housenumber:1119,addr:postcode:58013-420,addr:street:Avenida Dom Pedro II,addr:suburb:Centro,amenity:hospital","lat":-7.1275197,"lng":-34.8706583},{"id":"3358917435","name":"Pinto no Balde Restaurante","tags":"addr:city:João Pessoa,addr:street:Rua Wandick Pinto Filgueiras,amenity:restaurant,capacity:20,cuisine:chicken,delivery:yes,smoking:outside,takeaway:yes","lat":-7.1218776,"lng":-34.8410145},{"id":"3364648826","name":"Mercearia","tags":"addr:city:João Pessoa,addr:street:Avenida Abdias Gomes de Almeida,shop:convenience","lat":-7.1215598,"lng":-34.8430686},{"id":"3364648827","name":"Espaço do Sabor Restaurante","tags":"addr:city:João Pessoa,addr:street:Avenida Abdias Gomes de Almeida,amenity:restaurant,capacity:20,cuisine:regional,delivery:no,phone:+55 83 99962913,takeaway:no","lat":-7.1215588,"lng":-34.8431951},{"id":"3364648828","name":"Restaurante Nordestino","tags":"addr:city:João Pessoa,addr:street:Avenida Abdias Gomes de Almeida,amenity:restaurant,capacity:20,cuisine:regional,delivery:no,takeaway:no","lat":-7.1215608,"lng":-34.8431319},{"id":"3477771846","name":"Supermercado Tambaú","tags":"addr:city:João Pessoa,addr:street:Avenida Monteiro Lobato,shop:supermarket","lat":-7.1185329,"lng":-34.8283829},{"id":"3654699757","name":"Terminal Quadramares - Linha 203","tags":"amenity:bus_station,bus:yes,public_transport:station","lat":-7.1607674,"lng":-34.821127},{"id":"3663470323","name":"Superintendência da PRF na Paraíba","tags":"addr:city:João Pessoa,addr:housenumber:KM-23,addr:street:Rodovia Governador Antônio Mariz,addr:suburb:Cristo Redentor,amenity:police,opening_hours:Mo-Fr 08:00-17:00,phone:+55 83 3533 4705,police:traffic_police","lat":-7.1640178,"lng":-34.8624453},{"id":"3773686523","name":"4ª Delegacia de Policia","tags":"addr:city:João Pessoa,addr:street:Rua Coronel Eduardo Costa,addr:suburb:Ernesto Geisel,amenity:police,operator:Delegacia","lat":-7.177676,"lng":-34.8705885},{"id":"3773687572","name":"Escola Municipal Fenelon Câmara","tags":"addr:city:João Pessoa,addr:street:Rua Adauto Toledo,addr:suburb:Ernesto Geisel,amenity:school","lat":-7.1777328,"lng":-34.8676005},{"id":"3773703428","name":"Superbox Brasil - Geisel","tags":"addr:city:João Pessoa,addr:street:Rua Deputado Petrônio Figueiredo,addr:suburb:Ernesto Geisel,shop:supermarket","lat":-7.177001,"lng":-34.8689625},{"id":"3824855716","name":"Supermercado Classe A","tags":"shop:supermarket","lat":-7.1286052,"lng":-34.8269667},{"id":"3824855717","name":"Pátio Altiplano","tags":"shop:mall","lat":-7.1310258,"lng":-34.8254727},{"id":"3824855721","tags":"amenity:restaurant","lat":-7.1136334,"lng":-34.8235685},{"id":"3849747257","name":"Foot praia","tags":"addr:street:Av. João Maurício,amenity:restaurant,phone:30450039","lat":-7.1035659,"lng":-34.830366},{"id":"3927229533","name":"Banco do Brasil","tags":"amenity:bank,brand:Banco do Brasil,brand:wikidata:Q610817,brand:wikipedia:en:Banco do Brasil","lat":-7.126836,"lng":-34.8795364},{"id":"3950854317","name":"Terminal de Ônibus do Val Paraíso","tags":"addr:city:João Pessoa,addr:postcode:58036-440,amenity:bus_station,bus:yes,public_transport:station","lat":-7.0810837,"lng":-34.8460186},{"id":"3957339780","name":"Pbpharma Farmácia e Manipulção","tags":"addr:city:João Pessoa,addr:street:Rua Frutuoso Barbosa,addr:suburb:Centro,amenity:pharmacy","lat":-7.1182072,"lng":-34.8825583},{"id":"3957350882","name":"Drogasil - Epitácio Pessoa","tags":"addr:city:João Pessoa,addr:street:Avenida Presidente Epitácio Pessoa,addr:suburb:Miramar,amenity:pharmacy","lat":-7.1193496,"lng":-34.8362495},{"id":"4013630211","tags":"amenity:atm,currency:BRL:yes,drive_through:no","lat":-7.1188571,"lng":-34.891363},{"id":"4084724789","name":"Bar do Contorno","tags":"amenity:bar,smoking:outside","lat":-7.1366528,"lng":-34.85107},{"id":"4130823651","name":"Aldeias Infantis SOS do Brasil","tags":"addr:city:João Pessoa,addr:street:Avenida Hilton Souto Maior,addr:suburb:Mangabeira,amenity:childcare","lat":-7.1624051,"lng":-34.8340935},{"id":"4317663619","name":"ONG Guajiru - Tartarugas Urbanas","tags":"leisure:park,website:https://www.facebook.com/tartarugasurbanas","lat":-7.0597613,"lng":-34.842462},{"id":"4317672791","name":"Unimed","tags":"amenity:hospital,healthcare:hospital","lat":-7.1301354,"lng":-34.8563156},{"id":"4370470189","name":"ll conveniência","tags":"name:pt:ll conveniência,shop:convenience","lat":-7.1870564,"lng":-34.8464557},{"id":"4379851392","tags":"amenity:restaurant,cuisine:brazilian;burger","lat":-7.1146518,"lng":-34.8227631},{"id":"4379872890","tags":"amenity:cafe,cuisine:ice_cream,name:en:Ice Cream - Self Serve","lat":-7.1115934,"lng":-34.8234006},{"id":"4381393991","tags":"shop:supermarket","lat":-7.1118791,"lng":-34.823319},{"id":"4393707489","name":"Appetito Trattoria","tags":"addr:housenumber:35,addr:street:Rua Osório Paes 35,amenity:restaurant,name:pt:Appetito Trattoria,opening_hours:Mo-Su 12:00-15:00","lat":-7.1118319,"lng":-34.8242973},{"id":"4398402597","name":"Privilege Music Bar","tags":"amenity:bar,internet_access:wlan","lat":-7.152206,"lng":-34.838496},{"id":"4398402599","name":"Yazigi","tags":"amenity:school","lat":-7.1523871,"lng":-34.8385962},{"id":"4398402601","name":"BeMais Supermercados","tags":"shop:supermarket","lat":-7.154894,"lng":-34.8379496},{"id":"4398402602","name":"Pizzaria do Paulista","tags":"amenity:restaurant,cuisine:pizza","lat":-7.151965,"lng":-34.8387642},{"id":"4398402603","name":"Todo Dia","tags":"shop:supermarket","lat":-7.1538137,"lng":-34.8382124},{"id":"4398402605","name":"Colégio Século","tags":"amenity:school","lat":-7.1524403,"lng":-34.8383727},{"id":"4406293304","name":"Mercadinho São Jorge","tags":"shop:supermarket","lat":-7.1667196,"lng":-34.8304261},{"id":"4432696619","tags":"name:pt:NASA Nordeste Artefatos,shop:supermarket","lat":-7.1927174,"lng":-34.9028756},{"id":"4434443590","name":"Maison Filipeia","tags":"addr:street:Rua Orlando Falcone de Oliveira,amenity:restaurant,opening_hours:Mo-Sa 08:00-17:30,phone:+55 83 9 8826-7046,website:http://www.maisonfilipeia.com.br","lat":-7.151271,"lng":-34.8160575},{"id":"4436923351","name":"Escola Municipal de ensino Fundamental Hugo Moura","tags":"addr:city:João Pessoa,addr:street:Avenida Fagundes Varela,addr:suburb:Padre Zé,amenity:school","lat":-7.1061072,"lng":-34.869055},{"id":"4449486284","name":"Pizzaria Veneza","tags":"amenity:restaurant,cuisine:pizza","lat":-7.150565,"lng":-34.8400656},{"id":"4449503702","name":"Acadêmia da Saúde","tags":"leisure:sports_centre","lat":-7.1478285,"lng":-34.8435471},{"id":"4466141691","tags":"addr:housenumber:77,amenity:school","lat":-7.1798016,"lng":-34.8433},{"id":"4473804926","name":"Kital Temaki","tags":"amenity:restaurant,cuisine:japanese","lat":-7.1518911,"lng":-34.8388562},{"id":"4473888798","tags":"access:customers,amenity:parking,parking:surface","lat":-7.1523962,"lng":-34.838955},{"id":"4473888799","tags":"amenity:parking,parking:surface","lat":-7.1525521,"lng":-34.8388588},{"id":"4473988549","tags":"access:customers,amenity:parking,parking:surface","lat":-7.1538314,"lng":-34.8384444},{"id":"4474015302","tags":"amenity:parking,parking:surface","lat":-7.1539496,"lng":-34.8384397},{"id":"4474447389","name":"Oi Pizzaria","tags":"addr:street:Rua Genival de Oliveira,amenity:restaurant,name:pt:Oi Pizzaria","lat":-7.1687882,"lng":-34.8537395},{"id":"4474447489","name":"Bemais","tags":"name:pt:Bemais,shop:supermarket","lat":-7.163196,"lng":-34.8481048},{"id":"4508713089","name":"Igreja N.Sra.das Neves","tags":"name:pt:Igreja N.Sra.das Neves,tourism:attraction","lat":-7.1945598,"lng":-34.8483565},{"id":"4509948923","name":"Drogasil","tags":"amenity:pharmacy,brand:Drogasil,brand:wikidata:Q5308185,brand:wikipedia:pt:Drogasil,healthcare:pharmacy,wheelchair:yes","lat":-7.1535851,"lng":-34.8383337},{"id":"4514531893","name":"Itaú","tags":"addr:city:João Pessoa,addr:housenumber:43,addr:postcode:58013-131,addr:street:Parque Solon de Lucena,addr:suburb:Centro,amenity:bank,atm:yes,phone:0800 970 4828","lat":-7.1198654,"lng":-34.8817341},{"id":"4519240574","name":"Casa do Cupim e Casa da China","tags":"amenity:restaurant","lat":-7.1647607,"lng":-34.8386475},{"id":"4520987255","name":"Igreja Batista","tags":"amenity:place_of_worship,building:church,denomination:baptist,religion:christian","lat":-7.1528787,"lng":-34.8382966},{"id":"4521081655","tags":"access:customers,amenity:parking","lat":-7.1488539,"lng":-34.842016},{"id":"4521090905","tags":"amenity:parking","lat":-7.1489996,"lng":-34.8416881},{"id":"4521090908","tags":"amenity:parking","lat":-7.1491174,"lng":-34.8415775},{"id":"4521944680","name":"BEMAIS Supermercados","tags":"shop:supermarket","lat":-7.148483,"lng":-34.843879},{"id":"4521948843","name":"Carrefour","tags":"brand:Carrefour,brand:wikidata:Q217599,brand:wikipedia:fr:Carrefour (enseigne),shop:supermarket","lat":-7.1469128,"lng":-34.8493561},{"id":"4547438247","name":"Barraco Democrático","tags":"amenity:bar","lat":-7.1475708,"lng":-34.8424735},{"id":"4547445573","name":"Caixa Econômica Federal","tags":"addr:street:Rua Bancário Sergio Guerra,amenity:bank,brand:Caixa Econômica Federal,brand:wikidata:Q835283,brand:wikipedia:pt:Caixa Econômica Federal","lat":-7.149369,"lng":-34.8413231},{"id":"4547454076","name":"Santander","tags":"amenity:bank,brand:Santander,brand:wikidata:Q5835668,brand:wikipedia:en:Santander Bank,website:https://www.santander.com.br/","lat":-7.1367962,"lng":-34.844719},{"id":"4550004971","name":"Boteco da Cerveja","tags":"addr:street:Rua Hercílio Alves de Sousa,amenity:bar,internet_access:wlan","lat":-7.1494223,"lng":-34.8409324},{"id":"4551385283","name":"Escola Municipal Lions Tambaú","tags":"amenity:school","lat":-7.1512664,"lng":-34.8398344},{"id":"4551385284","name":"Pizzaria D'Nápoles","tags":"amenity:restaurant,cuisine:pizza,internet_access:yes,takeaway:yes","lat":-7.1583702,"lng":-34.8383082},{"id":"4555555293","name":"Banco do Brasil","tags":"addr:street:Rua Walfredo Macedo Brandão,amenity:bank,brand:Banco do Brasil,brand:wikidata:Q610817,brand:wikipedia:en:Banco do Brasil,name:pt:Banco do Brasil","lat":-7.1588275,"lng":-34.8382686},{"id":"4558685161","name":"Boteco da Fava","tags":"addr:street:Rua Irineu Pinto,amenity:restaurant,opening_hours:Mo-Sa 09:00-14:00","lat":-7.1205332,"lng":-34.8876991},{"id":"4565074107","name":"Bellaliz","tags":"addr:housenumber:60,addr:street:Rua Cônego Nicodemos Neves,name:pt:Bellaliz,shop:beauty","lat":-7.1193101,"lng":-34.8623903},{"id":"4565808590","name":"CEF","tags":"amenity:bank,name:pt:CEF","lat":-7.0852188,"lng":-34.8449732},{"id":"4587976961","name":"Macaxeira Sul","tags":"amenity:restaurant","lat":-7.1490419,"lng":-34.8437889},{"id":"4593410584","name":"Banco do Brasil","tags":"amenity:bank,atm:yes,brand:Banco do Brasil,brand:wikidata:Q610817,brand:wikipedia:en:Banco do Brasil,level:0","lat":-7.1644913,"lng":-34.8387109},{"id":"4593773889","name":"Redepharma","tags":"amenity:pharmacy,healthcare:pharmacy","lat":-7.1637433,"lng":-34.8385992},{"id":"4593831509","name":"BeMais Supermercados","tags":"shop:supermarket","lat":-7.1708711,"lng":-34.8392786},{"id":"4593831510","name":"Pague Menos","tags":"amenity:pharmacy,brand:Pague Menos,brand:wikidata:Q7124466,brand:wikipedia:pt:Pague Menos,healthcare:pharmacy","lat":-7.1702816,"lng":-34.8390091},{"id":"4593838692","tags":"amenity:parking","lat":-7.1708531,"lng":-34.8392116},{"id":"4593838693","tags":"amenity:parking","lat":-7.1708983,"lng":-34.8390479},{"id":"4593838694","tags":"amenity:parking","lat":-7.1710846,"lng":-34.8389675},{"id":"4593839868","name":"Restaurante Popular","tags":"amenity:restaurant","lat":-7.1700341,"lng":-34.8417074},{"id":"4594516303","tags":"amenity:restaurant","lat":-7.1176473,"lng":-34.8838909},{"id":"4716858168","name":"Sakē Temakeria","tags":"addr:street:avenida Flamboyant,amenity:restaurant","lat":-7.1494302,"lng":-34.8431225},{"id":"4721452959","tags":"amenity:restaurant","lat":-7.1409366,"lng":-34.8475626},{"id":"4723391881","name":"Arte da Pizza","tags":"addr:street:Rua Bancário Sérgio Guerra,amenity:restaurant","lat":-7.1500457,"lng":-34.8411556},{"id":"4727950985","name":"Banco do Brasil","tags":"amenity:bank,atm:yes,brand:Banco do Brasil,brand:wikidata:Q610817,brand:wikipedia:en:Banco do Brasil,description:Agência 1619,drive_through:no","lat":-7.1373852,"lng":-34.8471036},{"id":"4727950986","name":"Agência de Correios","tags":"amenity:post_office","lat":-7.137424,"lng":-34.8472424},{"id":"4773711691","name":"Drogarias Globo","tags":"addr:city:João Pessoa,addr:street:Avenida Valdemar Naziazeno,addr:suburb:Ernesto Geisel,amenity:pharmacy,dispensing:yes,healthcare:pharmacy","lat":-7.1769309,"lng":-34.8740282},{"id":"4790807678","name":"Farmácia Maia","tags":"amenity:pharmacy,healthcare:pharmacy","lat":-7.1526621,"lng":-34.8384889},{"id":"4790808362","name":"Extrafarma","tags":"addr:street:Rua Francisco Timóteo de Souza,amenity:pharmacy,brand:Extrafarma,brand:wikidata:Q20055480,brand:wikipedia:pt:Extrafarma,healthcare:pharmacy","lat":-7.1510111,"lng":-34.8399749},{"id":"4812641118","name":"Drogaria Diniz","tags":"addr:city:João Pessoa,addr:street:Avenida Valdemar Naziazeno,addr:suburb:Ernesto Geisel,amenity:pharmacy,dispensing:yes,healthcare:pharmacy","lat":-7.1793232,"lng":-34.8738053},{"id":"4812641120","name":"Farmácia Francy","tags":"addr:city:João Pessoa,addr:street:Avenida Valdemar Naziazeno,addr:suburb:Ernesto Geisel,amenity:pharmacy,dispensing:yes,healthcare:pharmacy","lat":-7.1795806,"lng":-34.873568},{"id":"4812641321","name":"Farmária Permanente","tags":"addr:city:João Pessoa,addr:street:Avenida Valdemar Naziazeno,addr:suburb:Ernesto Geisel,amenity:pharmacy,dispensing:yes,healthcare:pharmacy","lat":-7.178433,"lng":-34.873859},{"id":"4812641322","name":"Pague Menos","tags":"addr:city:João Pessoa,addr:street:Avenida Valdemar Naziazeno,addr:suburb:Ernesto Geisel,amenity:pharmacy,brand:Pague Menos,brand:wikidata:Q7124466,brand:wikipedia:pt:Pague Menos,dispensing:yes,healthcare:pharmacy","lat":-7.1779635,"lng":-34.8736313},{"id":"4812641323","name":"Veneza Pizzaria","tags":"addr:city:João Pessoa,addr:street:Avenida Valdemar Naziazeno,addr:suburb:Ernesto Geisel,amenity:restaurant,cuisine:pizza","lat":-7.1777105,"lng":-34.8736812},{"id":"4812641324","name":"JPI Idiomas","tags":"amenity:school,website:http://www.jpinet.com.br/","lat":-7.1780876,"lng":-34.8736307},{"id":"4812666670","name":"Academia Corpo e Vida","tags":"leisure:fitness_centre","lat":-7.1760304,"lng":-34.8737527},{"id":"4849140925","name":"Casa dos criadores 1","tags":"addr:city:João Pessoa,addr:housenumber:306,addr:postcode:58025-000,addr:street:Avenida General Bento da Gama,addr:suburb:Torre,opening_hours:Mo-Sa 08:00-18:00,phone:+55 83 3225-1848,shop:pet","lat":-7.1205563,"lng":-34.8675364},{"id":"4849163325","name":"Animais em pessoa - Dr. Giuliano","tags":"addr:street:Avenida Arthur Monteiro de Paiva,shop:pet","lat":-7.0607422,"lng":-34.8424633},{"id":"4849173421","name":"Petshop Hobby Bichos 1","tags":"addr:street:Avenida Presidente Epitácio Pessoa,shop:pet","lat":-7.1193914,"lng":-34.8330504},{"id":"4879111323","name":"Auditório","tags":"amenity:school","lat":-7.1585464,"lng":-34.8525046},{"id":"4879111324","tags":"amenity:restaurant","lat":-7.1584864,"lng":-34.852672},{"id":"4886483763","name":"Livraria do IBGE","tags":"amenity:library","lat":-7.1207893,"lng":-34.8856499},{"id":"4889865525","name":"Supermercado Latorre","tags":"addr:city:João Pessoa,addr:housenumber:610,addr:postcode:58040-330,addr:street:Avenida Barão de Mamanguape,addr:suburb:Torre,phone:+55 83 3244-8878,shop:supermarket","lat":-7.1246925,"lng":-34.8636309},{"id":"4902171524","name":"Opção","tags":"amenity:restaurant,name:pt:Opção","lat":-7.1200506,"lng":-34.886398},{"id":"4927111127","name":"Capitão Farinha","tags":"addr:city:João Pessoa,addr:street:Avenida Benjamin Constant,amenity:restaurant,cuisine:pizza","lat":-7.1310031,"lng":-34.8773189},{"id":"4967032758","name":"Crossfit Beira Rio","tags":"leisure:fitness_centre,opening_hours:Mo-Sa 06:00-21:00,sport:crossfit","lat":-7.1249373,"lng":-34.8434955},{"id":"4985994329","name":"Boi Bumbar","tags":"addr:housenumber:246,addr:postcode:58039-160,addr:street:Avenida Izidro Gomes,amenity:restaurant,cuisine:fish;regional;grill;seafood;mediterranean;local;pasta;italian;brazilian,opening_hours:Mo-Fr 11:30-15:00; Sa-Su 12:00-16:00,phone:+55 83 3247-2847","lat":-7.1118287,"lng":-34.826519},{"id":"4986974431","name":"Santa Rita","tags":"light_rail:yes,operator:CBTU,public_transport:station,railway:station,station:light_rail,wikidata:Q18475783,wikipedia:pt:Estação Santa Rita (CBTU)","lat":-7.1248907,"lng":-34.9802981},{"id":"5002199521","name":"Gonzaga's","tags":"amenity:restaurant,level:1,name:pt:Gonzaga's","lat":-7.1457351,"lng":-34.9485529},{"id":"5002199522","name":"Livraria Cordel","tags":"level:1,name:pt:Livraria Cordel,shop:books","lat":-7.1459257,"lng":-34.9483961},{"id":"5067886255","name":"Parangolé Bar","tags":"addr:city:João Pessoa,amenity:bar","lat":-7.1535413,"lng":-34.8412476},{"id":"5067898209","name":"Villa Universitaria","tags":"amenity:bar","lat":-7.1560593,"lng":-34.8528897},{"id":"5067912383","name":"Colegio Top","tags":"addr:street:Rua Inácio Ramos Andrade,amenity:school","lat":-7.1536026,"lng":-34.8389822},{"id":"5137094754","name":"BARBOSA DRINK'S","tags":"addr:postcode:58040080,addr:street:Rua Carlos Gomes,amenity:bar,email:fco.bg7@hotmail.com,opening_hours:Mo-Su 08:00-20:00,phone:+55 83 9 8868-7805,website:http://www.barbosadrinks.eev.com","lat":-7.1226103,"lng":-34.8570535},{"id":"5159218824","name":"Café 17","tags":"amenity:restaurant,cuisine:brazilian;coffee_shop,internet_access:wlan","lat":-7.1162455,"lng":-34.8842743},{"id":"5169296857","name":"Cruzeiro","tags":"historic:monument,tourism:attraction","lat":-7.1150896,"lng":-34.8833219},{"id":"5169296859","name":"Augusto dos Anjos","tags":"historic:memorial,memorial:statue,tourism:attraction","lat":-7.1155568,"lng":-34.8833183},{"id":"5169296860","name":"Academia Paraibana de Letras","tags":"tourism:museum","lat":-7.116028,"lng":-34.8833205},{"id":"5239719387","name":"Bradesco","tags":"amenity:bank,brand:Bradesco,brand:wikidata:Q806181,brand:wikipedia:en:Banco Bradesco","lat":-7.1542953,"lng":-34.8387866},{"id":"5239729638","name":"Casa do Cupim e Casa da China","tags":"amenity:restaurant,cuisine:chinese","lat":-7.1474052,"lng":-34.8465566},{"id":"5273748944","name":"Cobé","tags":"public_transport:station,railway:station,ruins:yes,train:yes","lat":-7.127307,"lng":-35.1504527},{"id":"5300015221","name":"Atlântico Sul","tags":"addr:city:João Pessoa,addr:housenumber:1100,addr:postcode:58.062-284,addr:street:Rua Do Marfim Pescador,addr:suburb:Paratibe,operator:Smart,shop:supermarket","lat":-7.2035429,"lng":-34.8326315},{"id":"5307114821","name":"O Caipira","tags":"amenity:restaurant","lat":-7.203664,"lng":-35.1529356},{"id":"5307115021","name":"Paraíba Frios","tags":"shop:convenience","lat":-7.2038364,"lng":-35.1524953},{"id":"5310127322","name":"Itaú","tags":"amenity:bank","lat":-7.1201869,"lng":-34.8841652},{"id":"5312324504","name":"Mausoléu do Presidente João Pessoa","tags":"historic:tomb,tomb:mausoleum,tourism:attraction","lat":-7.1214381,"lng":-34.8845476},{"id":"5373722630","name":"São Braz","tags":"amenity:cafe,level:0","lat":-7.1616889,"lng":-34.8308865},{"id":"5373722633","name":"Leitura","tags":"alt_name:Livraria Leitura,brand:Leitura,brand:wikidata:Q6176628,brand:wikipedia:pt:Leitura (livraria),level:1,shop:books","lat":-7.1621358,"lng":-34.8308022},{"id":"5373722639","name":"Chinatown","tags":"amenity:restaurant,level:2","lat":-7.1617793,"lng":-34.8311496},{"id":"5373722641","name":"Selfit","tags":"brand:Selfit,brand:wikidata:Q100274066,leisure:fitness_centre,level:2","lat":-7.1617091,"lng":-34.8303597},{"id":"5373726229","name":"Sushi Bessa","tags":"amenity:restaurant,cuisine:japanese,level:2","lat":-7.1625408,"lng":-34.8308669},{"id":"5373726233","name":"Divino Fogão","tags":"amenity:restaurant,level:2","lat":-7.1616509,"lng":-34.8307877},{"id":"5373726235","name":"Caixa Econômica Federal","tags":"amenity:bank,branch:Aqui,brand:Caixa Econômica Federal,brand:wikidata:Q835283,brand:wikipedia:pt:Caixa Econômica Federal,level:-1","lat":-7.1620805,"lng":-34.830475},{"id":"5373731321","name":"Atlântico","tags":"amenity:restaurant,cuisine:pizza,level:2","lat":-7.1616263,"lng":-34.8309936},{"id":"5373731421","name":"Jampa Grill","tags":"amenity:restaurant","lat":-7.1155685,"lng":-34.8797897},{"id":"5373731423","name":"Casa Tudo","tags":"shop:supermarket","lat":-7.1155966,"lng":-34.8797636},{"id":"5373869675","name":"Varanda Café","tags":"amenity:cafe,level:1","lat":-7.1625693,"lng":-34.8303927},{"id":"5375807860","tags":"amenity:ferry_terminal,ferry:yes,public_transport:station","lat":-7.0348755,"lng":-34.8552508},{"id":"5375807882","tags":"amenity:ferry_terminal,ferry:yes,public_transport:station","lat":-7.0314184,"lng":-34.8718095},{"id":"5393721538","name":"Mimo Doce","tags":"amenity:restaurant","lat":-7.1155597,"lng":-34.8801208},{"id":"5393721540","name":"L'Amazônia","tags":"amenity:restaurant","lat":-7.1154989,"lng":-34.8798905},{"id":"5393727143","name":"Iang Chao","tags":"amenity:restaurant,cuisine:chinese,website:http://www.iangchao.com.br","lat":-7.1159178,"lng":-34.8800291},{"id":"5393727144","name":"Buonguostaio","tags":"amenity:restaurant","lat":-7.1157959,"lng":-34.8801719},{"id":"5393727146","name":"Happy","tags":"amenity:restaurant","lat":-7.1155266,"lng":-34.8798361},{"id":"5393727147","name":"Lava Rápido HD Ecológico","tags":"amenity:car_wash","lat":-7.1452232,"lng":-34.9488759},{"id":"5393728822","name":"Tambiá Café","tags":"amenity:cafe","lat":-7.1154961,"lng":-34.8800129},{"id":"5393728823","name":"Salsa","tags":"amenity:restaurant","lat":-7.1154883,"lng":-34.8799508},{"id":"5393754723","name":"Bonaparte","tags":"amenity:restaurant","lat":-7.1156127,"lng":-34.8801563},{"id":"5412605579","name":"Encanto verde","tags":"leisure:park","lat":-7.1793284,"lng":-34.8300347},{"id":"5412613157","name":"Encanto Verde","tags":"leisure:park","lat":-7.1797174,"lng":-34.8302898},{"id":"5412622962","name":"Encanto Verde","tags":"leisure:park","lat":-7.1794073,"lng":-34.8298164},{"id":"5412623442","name":"Encanto Verde","tags":"leisure:park","lat":-7.1798784,"lng":-34.8295911},{"id":"5412623590","name":"Encanto Verde","tags":"leisure:park","lat":-7.1791692,"lng":-34.8302992},{"id":"5412624777","name":"Encanto Verde","tags":"leisure:park","lat":-7.1796176,"lng":-34.8305004},{"id":"5419119006","name":"Praça Antônio Ribeiro Pessoa","tags":"leisure:park","lat":-7.1375886,"lng":-34.9806456},{"id":"5455312121","name":"China Feichang Hao","tags":"amenity:restaurant,cuisine:brazilian;chinese","lat":-7.1733413,"lng":-34.8742507},{"id":"5467773841","tags":"leisure:fitness_centre","lat":-7.1045997,"lng":-34.8367703},{"id":"5506841721","name":"Marbeli","tags":"addr:housenumber:1545,addr:street:Avenida Marcionila da Conceição,amenity:restaurant,internet_access:wlan,phone:+55 83 35664942","lat":-7.1229255,"lng":-34.8261492},{"id":"5530998131","name":"Mercadinho Madalena","tags":"addr:city:João Pessoa,addr:street:Rua Olívio de Moraes Magalhães,addr:suburb:Cuiá,shop:supermarket","lat":-7.183608,"lng":-34.864249},{"id":"5546267011","tags":"leisure:sports_centre","lat":-7.2060268,"lng":-34.8433719},{"id":"5550131649","name":"Escola Estadual Milton Campos","tags":"addr:city:João Pessoa,addr:street:Rua Severia Maria Vasconcelos de Carvalho,addr:suburb:Cuiá,amenity:school","lat":-7.1831355,"lng":-34.8657344},{"id":"5578799354","tags":"leisure:park","lat":-7.1346845,"lng":-34.8738798},{"id":"5638256927","name":"Banco24Horas","tags":"amenity:atm,brand:Banco24Horas,brand:wikidata:Q4854069,brand:wikipedia:pt:Banco24Horas","lat":-7.1491646,"lng":-34.8423836},{"id":"5638282849","name":"Sr. Pastel","tags":"amenity:restaurant,cuisine:sandwich","lat":-7.1507197,"lng":-34.8399506},{"id":"5649902362","name":"Macaxeira Premium","tags":"amenity:restaurant","lat":-7.1471213,"lng":-34.848492},{"id":"5649902363","name":"Farmácias Independente","tags":"amenity:pharmacy,dispensing:yes,healthcare:pharmacy","lat":-7.1467664,"lng":-34.8482381},{"id":"5649902364","name":"Pague Menos","tags":"amenity:pharmacy,brand:Pague Menos,brand:wikidata:Q7124466,brand:wikipedia:pt:Pague Menos,dispensing:yes,healthcare:pharmacy","lat":-7.1469553,"lng":-34.847717},{"id":"5649902365","name":"Farmácias BomDia","tags":"amenity:pharmacy,dispensing:yes,healthcare:pharmacy","lat":-7.1471099,"lng":-34.8472612},{"id":"5649902366","name":"Farmácia Permanente","tags":"amenity:pharmacy,dispensing:yes,healthcare:pharmacy","lat":-7.1472226,"lng":-34.8469452},{"id":"5649902367","name":"Pague Menos","tags":"amenity:pharmacy,brand:Pague Menos,brand:wikidata:Q7124466,brand:wikipedia:pt:Pague Menos,dispensing:yes,healthcare:pharmacy","lat":-7.1482014,"lng":-34.8442466},{"id":"5649902368","name":"Redepharma","tags":"amenity:pharmacy,dispensing:yes,healthcare:pharmacy","lat":-7.1477137,"lng":-34.8456752},{"id":"5752552485","tags":"leisure:fitness_centre","lat":-7.1989028,"lng":-34.8814888},{"id":"5790672055","name":"Redepharma","tags":"addr:city:João Pessoa,addr:street:Avenida Hilton Souto Maior,addr:suburb:José Américo,amenity:pharmacy,dispensing:yes,healthcare:pharmacy,website:https://www.drogariasglobo.com.br","lat":-7.1674334,"lng":-34.859294},{"id":"5939734004","name":"Drogasil","tags":"amenity:pharmacy,brand:Drogasil,brand:wikidata:Q5308185,brand:wikipedia:pt:Drogasil,healthcare:pharmacy,wheelchair:yes","lat":-7.045024,"lng":-34.8416857},{"id":"5939734297","name":"Drogarias Globo","tags":"amenity:pharmacy,healthcare:pharmacy","lat":-7.0448224,"lng":-34.8421292},{"id":"5939734298","name":"Santiago","tags":"shop:supermarket","lat":-7.0452643,"lng":-34.8423461},{"id":"5939736289","name":"Novo Oriente","tags":"amenity:restaurant,cuisine:oriental,phone:+558332484000","lat":-7.0450612,"lng":-34.842776},{"id":"5939738886","name":"Permanente","tags":"amenity:pharmacy,healthcare:pharmacy","lat":-7.0446681,"lng":-34.8425709},{"id":"5940689286","name":"Churrascaria e Lanchonete Três Gerações","tags":"amenity:restaurant","lat":-7.1675927,"lng":-34.8964836},{"id":"5957441785","name":"AGF Rodoviária João Pessoa","tags":"addr:city:João Pessoa,addr:housenumber:SN,addr:postcode:58010-150,addr:street:Rua Frqancisco Londres - Terminal Rodoviário Severino Camelo,addr:suburb:Varadouro,amenity:post_office,official_name:Agência de Correios Franqueada Rodoviária João Pessoa,opening_hours:Mo-Fr 08:00-18:00; Sa 08:00-12:00,operator:ECT,phone:+55 83 3221 9941","lat":-7.1191836,"lng":-34.8911046},{"id":"5980422485","name":"Villa Phelipea","tags":"amenity:cafe","lat":-7.1129452,"lng":-34.8887672},{"id":"5980422585","name":"J Maciel","tags":"tourism:museum","lat":-7.1130367,"lng":-34.8886918},{"id":"5983899187","name":"Deus É Fiel","tags":"amenity:restaurant,phone:+5583987202582","lat":-7.118706,"lng":-34.890182},{"id":"5983900085","name":"Ki Preço","tags":"phone:+558332224095,shop:supermarket","lat":-7.118517,"lng":-34.8901735},{"id":"6041727637","name":"Escola SESQ Centenário","tags":"amenity:school","lat":-7.1150281,"lng":-34.8468895},{"id":"6080516480","name":"Várzea Nova","tags":"light_rail:yes,public_transport:station,railway:station,station:light_rail","lat":-7.119972,"lng":-34.9555254},{"id":"6080516483","name":"Bayeux","tags":"light_rail:yes,public_transport:station,railway:station,station:light_rail","lat":-7.127485,"lng":-34.9280363},{"id":"6090183385","name":"Supermercado Arruda","tags":"addr:housenumber:154,addr:postcode:58035200,addr:street:Avenida Presidente Nilo Peçanha,email:supermercadoarruda@gmail.com,opening_hours:Mo-Sa 06:00-07:00, 13:00-20:00; Su 07:00-07:00, 13:00-13:00,phone:+55 83 3245-1888,shop:supermarket,website:https://www.supermercadoarruda.com.br/","lat":-7.0669246,"lng":-34.8411916},{"id":"6122457532","name":"TERMINAL - HEITEL SANTIAGO","tags":"amenity:bus_station,bus:yes,internet_access:no,operator:TR TRANSPORTES,public_transport:station","lat":-7.1672127,"lng":-34.9553807},{"id":"6123822686","name":"Bradesco","tags":"amenity:bank,brand:Bradesco,brand:wikidata:Q806181,brand:wikipedia:en:Banco Bradesco","lat":-7.1171499,"lng":-34.887691},{"id":"6130846986","name":"NAU","tags":"amenity:restaurant","lat":-7.1107712,"lng":-34.8290651},{"id":"6133001886","name":"Porto Madero","tags":"amenity:restaurant","lat":-7.1304601,"lng":-34.8235785},{"id":"6143093786","name":"Bar da Poeira","tags":"amenity:bar","lat":-7.0331258,"lng":-34.8496323},{"id":"6227570792","tags":"amenity:parking","lat":-7.084039,"lng":-34.8368013},{"id":"6227570793","tags":"amenity:parking","lat":-7.0847143,"lng":-34.8380115},{"id":"6227570794","tags":"amenity:parking","lat":-7.0847082,"lng":-34.8376408},{"id":"6227570795","tags":"amenity:parking","lat":-7.085052,"lng":-34.838523},{"id":"6227570796","tags":"amenity:parking","lat":-7.0860224,"lng":-34.8391841},{"id":"6227570797","tags":"amenity:parking","lat":-7.0864962,"lng":-34.8387737},{"id":"6227570798","tags":"amenity:parking","lat":-7.0851681,"lng":-34.8373063},{"id":"6227570837","tags":"amenity:parking","lat":-7.0861305,"lng":-34.8382411},{"id":"6460170446","name":"Restaurante Sertanejo","tags":"addr:city:João Pessoa,addr:street:Rua Deputado Odon Bezerra,amenity:restaurant,cuisine:regional,outdoor_seating:no","lat":-7.1150009,"lng":-34.8799544},{"id":"6484568385","name":"Shell Select","tags":"shop:convenience","lat":-7.1631793,"lng":-34.9010786},{"id":"6495150344","name":"Renascer","tags":"light_rail:yes,platforms:1,public_transport:station,railway:station,station:light_rail","lat":-7.075201,"lng":-34.8552816},{"id":"6551976575","name":"Só Brancelhas","tags":"level:1,shop:beauty","lat":-7.162053,"lng":-34.8301511},{"id":"6551976583","name":"Flor di Latte","tags":"amenity:cafe,level:1","lat":-7.1625134,"lng":-34.8307988},{"id":"6551976584","name":"Delta Café","tags":"amenity:cafe,level:1","lat":-7.1618481,"lng":-34.830603},{"id":"6551976591","name":"Anayara Makeup","tags":"level:1,shop:beauty","lat":-7.1619798,"lng":-34.8302235},{"id":"6551976603","name":"Sicredi","tags":"amenity:atm,brand:Sicredi,brand:wikidata:Q3483060,brand:wikipedia:pt:Sistema de Crédito Cooperativo,level:0,operator:Sicredi,operator:wikidata:Q3483060,operator:wikipedia:pt:Sistema de Crédito Cooperativo","lat":-7.1615407,"lng":-34.8305132},{"id":"6553782070","name":"Banco24Horas","tags":"amenity:atm,brand:Banco24Horas,brand:wikidata:Q4854069,brand:wikipedia:pt:Banco24Horas,level:-1","lat":-7.1620497,"lng":-34.8307351},{"id":"6578631188","tags":"amenity:police","lat":-7.1180156,"lng":-34.889873},{"id":"6682973486","name":"Barril 21","tags":"amenity:restaurant,phone:+5583981162882","lat":-7.060459,"lng":-34.8425116},{"id":"6790723757","name":"Mercadinho Jacaré","tags":"shop:supermarket","lat":-7.0361543,"lng":-34.8545577},{"id":"6790723758","name":"Escola Estadual de Ensino Fundamental Augusto Severo","tags":"amenity:school,school:primary","lat":-7.0360119,"lng":-34.8540226},{"id":"6790723775","name":"Escola Municipal Vereador Pedro Américo da Silva","tags":"amenity:school","lat":-7.0366151,"lng":-34.8506752},{"id":"6848969654","name":"ESCOLA MUNICIPAL DAVID TRINDAD","tags":"amenity:school","lat":-7.1755322,"lng":-34.8416978},{"id":"6848969655","name":"HED GYM ACADEMIA","tags":"leisure:fitness_centre","lat":-7.1762926,"lng":-34.8405803},{"id":"6848969667","tags":"leisure:fitness_centre","lat":-7.1744389,"lng":-34.8444708},{"id":"6848969683","tags":"leisure:fitness_centre","lat":-7.1728845,"lng":-34.8438989},{"id":"6893128242","name":"Museu do espaço cultural","tags":"tourism:museum","lat":-7.1225702,"lng":-34.8436073},{"id":"6893426147","name":"Bemais","tags":"shop:supermarket","lat":-7.1106179,"lng":-34.8267916},{"id":"6893478587","name":"Bemais Supermercado","tags":"addr:housenumber:368,addr:postcode:58039180,addr:street:Avenida Senador Ruy Carneiro,opening_hours:Mo-Sa 07:00-24:00; Su 07:00-21:00,shop:supermarket","lat":-7.1109669,"lng":-34.8273546},{"id":"6967380132","name":"UPA Valentina","tags":"amenity:hospital,healthcare:hospital","lat":-7.198543,"lng":-34.8462102},{"id":"7030415411","name":"MERCADO MUNICIPAL DE TIBIRI II","tags":"operator:PREFEITURA MUNICIPAL DE SANTA RITA,shop:supermarket","lat":-7.1513034,"lng":-34.9657252},{"id":"7030431828","name":"UPA - UNIDADE DE PRONTO ATENDIMENTO DE TIBIRI II","tags":"amenity:hospital,emergency:yes,healthcare:hospital,healthcare:speciality:general,operator:GOVERNO DO ESTADO DA PARAÍBA,operator:type:public,wheelchair:yes","lat":-7.1533604,"lng":-34.9691082},{"id":"7039264275","name":"Paraíba Rações","tags":"addr:street:Avenida Mar Vermelho,amenity:pharmacy,brand:Extrafarma,brand:wikidata:Q20055480,brand:wikipedia:pt:Extrafarma,healthcare:pharmacy,shop:pet","lat":-7.0438809,"lng":-34.8454356},{"id":"7045379833","name":"Bradesco","tags":"amenity:bank,atm:yes,brand:Bradesco,brand:wikidata:Q806181,brand:wikipedia:en:Banco Bradesco","lat":-7.1519418,"lng":-34.8727969},{"id":"7045379834","name":"Farmácia Vida Nova","tags":"addr:city:João Pessoa,addr:housenumber:826,addr:postcode:58070-390,addr:street:Rua Romeu Rangel,addr:suburb:Varjão,amenity:pharmacy,dispensing:yes,healthcare:pharmacy","lat":-7.150165,"lng":-34.8739359},{"id":"7045379873","name":"Farmácia Iemanjá","tags":"addr:city:João Pessoa,addr:housenumber:999,addr:postcode:58070-000,addr:street:Avenida 2 de Fevereiro,addr:suburb:Varjão,amenity:pharmacy,dispensing:yes,healthcare:pharmacy","lat":-7.1499696,"lng":-34.8734438},{"id":"7047766108","name":"Varejão dos Medicamentos","tags":"amenity:pharmacy,dispensing:yes,healthcare:pharmacy","lat":-7.1521783,"lng":-34.872728},{"id":"7065006433","name":"Livardo Alves","tags":"historic:memorial,memorial:statue,tourism:attraction","lat":-7.1198538,"lng":-34.8836745},{"id":"7065006436","name":"Álvaro Machado","tags":"historic:memorial,memorial:statue,tourism:attraction","lat":-7.1161276,"lng":-34.8826955},{"id":"7065006442","name":"Augusto dos Anjos","tags":"historic:memorial,memorial:statue,tourism:attraction","lat":-7.1182771,"lng":-34.8868952},{"id":"7065006443","name":"Manuel José de Lima","tags":"historic:memorial,memorial:statue,tourism:attraction","lat":-7.1192749,"lng":-34.8850374},{"id":"7070145989","name":"Aeródromo Estância Ouro Verde","tags":"aeroway:aerodrome","lat":-7.0485619,"lng":-34.9111712},{"id":"7087395293","name":"Boteco Seu Elias","tags":"amenity:bar","lat":-7.1460301,"lng":-34.8485119},{"id":"7157074912","name":"Jackson do Pandeiro","tags":"historic:memorial,memorial:statue,tourism:attraction","lat":-7.1177904,"lng":-34.8831166},{"id":"7167386075","name":"Metropolitan Shopping Empresarial","tags":"addr:city:João Pessoa,addr:housenumber:1200,addr:street:Júlia Freire,phone:+55 83 3243-0661,shop:mall","lat":-7.1213692,"lng":-34.8550193},{"id":"7206343276","name":"Praça do Espaço Cultural","tags":"landuse:recreation_ground,leisure:park","lat":-7.122237,"lng":-34.8413159},{"id":"7241928362","name":"Carrefour","tags":"amenity:parking,capacity:150,parking:garage","lat":-7.1473268,"lng":-34.8496532},{"id":"7270744984","name":"Fly Café","tags":"amenity:cafe,level:0","lat":-7.1456496,"lng":-34.9484029},{"id":"7270759087","tags":"amenity:atm,drive_through:no","lat":-7.1456251,"lng":-34.9481599},{"id":"7270759088","tags":"amenity:atm,drive_through:no","lat":-7.1456394,"lng":-34.9481534},{"id":"7275676134","name":"Davi Farma","tags":"amenity:pharmacy,dispensing:yes,healthcare:pharmacy","lat":-7.1794574,"lng":-34.8738511},{"id":"7275676135","name":"Varejão dos Medicamentos","tags":"amenity:pharmacy,dispensing:yes,healthcare:pharmacy","lat":-7.1795785,"lng":-34.8738289},{"id":"7275676136","name":"Bicho Mania","tags":"shop:pet","lat":-7.1802512,"lng":-34.873816},{"id":"7275676137","name":"Evidence Fitness Academia","tags":"leisure:fitness_centre","lat":-7.1809772,"lng":-34.8735429},{"id":"7275676138","name":"Vale Verde Supermercado","tags":"shop:supermarket","lat":-7.1847321,"lng":-34.8722871},{"id":"7275676139","name":"UPS Geisel - Unidade de Policiamento Solidário","tags":"amenity:police","lat":-7.1853059,"lng":-34.8738323},{"id":"7275728769","name":"Praça Drogarias Globo","tags":"leisure:park","lat":-7.1767178,"lng":-34.8740552},{"id":"7275728774","name":"Escola Cenecista João Régis Amorim","tags":"amenity:school","lat":-7.1777499,"lng":-34.8671464},{"id":"7276082418","name":"Escola Municipal José Eugênio Lins de Albuquerque","tags":"amenity:school","lat":-7.1812479,"lng":-34.8715108},{"id":"7277909524","name":"Bradesco","tags":"amenity:bank,atm:yes,brand:Bradesco,brand:wikidata:Q806181,brand:wikipedia:en:Banco Bradesco","lat":-7.1792117,"lng":-34.8733664},{"id":"7277909531","name":"Terminal 5100 Circular","tags":"amenity:bus_station,bus:yes,public_transport:station","lat":-7.180503,"lng":-34.865761},{"id":"7277909532","name":"Terminal 1510 - 5110","tags":"amenity:bus_station,bus:yes,public_transport:station","lat":-7.1797564,"lng":-34.8711888},{"id":"7277909537","tags":"amenity:atm,cash_in:no","lat":-7.1796925,"lng":-34.8735822},{"id":"7277909538","tags":"amenity:atm,cash_in:no","lat":-7.1794946,"lng":-34.8738039},{"id":"7278499327","name":"Escola Estadual Epitácio Pessoa","tags":"amenity:school","lat":-7.1153711,"lng":-34.8774866},{"id":"7330640979","name":"Terminal 502-202-106","tags":"amenity:bus_station,bus:yes,public_transport:station","lat":-7.1763767,"lng":-34.8667538},{"id":"7346793430","name":"Torre di Pizza","tags":"addr:city:João Pessoa,addr:housenumber:870,addr:street:Avenida Caetano Figueiras,addr:suburb:Torre,amenity:restaurant,cuisine:pizza;italian,delivery:yes,description:Pizzaria Torre di Pizza, é a melhor pizzaria da cidade. única na região a oferecer pizzas feitas diariamente. \nTelefone para entregas em domicílio : 83 988047270 (WhatsApp). Ligue já e peça a sua !,opening_hours:Tu-Su18:00 - 23:00,phone:+55 83 3566-2315","lat":-7.127873,"lng":-34.8639573},{"id":"7365476831","name":"Nobel","tags":"amenity:library","lat":-7.0973753,"lng":-34.8343594},{"id":"7365476832","name":"Americanas","tags":"shop:supermarket","lat":-7.0976694,"lng":-34.8343554},{"id":"7365476834","name":"Pizza Hut","tags":"amenity:restaurant,brand:Pizza Hut,brand:wikidata:Q191615,brand:wikipedia:en:Pizza Hut,cuisine:pizza","lat":-7.0975829,"lng":-34.8334582},{"id":"7369434940","name":"Casa Nordeste","tags":"amenity:restaurant","lat":-7.0393502,"lng":-34.8551244},{"id":"7372965585","tags":"amenity:bar","lat":-7.1234468,"lng":-34.8237996},{"id":"7372965589","tags":"amenity:bar","lat":-7.1228506,"lng":-34.8238147},{"id":"7372965601","tags":"amenity:bar","lat":-7.0761281,"lng":-34.8299365},{"id":"7389837826","name":"Porto do Capim","tags":"amenity:ferry_terminal,ferry:yes,public_transport:station","lat":-7.1121765,"lng":-34.8901024},{"id":"7550049983","name":"Empadinhas Barnabé","tags":"amenity:restaurant","lat":-7.0947009,"lng":-34.8495037},{"id":"7550049984","name":"Vaga de Blue Ivy","tags":"leisure:park","lat":-7.0931527,"lng":-34.8503281},{"id":"7550086241","name":"Manaçai","tags":"amenity:restaurant","lat":-7.0946442,"lng":-34.8491599},{"id":"7550088115","name":"Playboy das coxinhas","tags":"amenity:restaurant","lat":-7.0926755,"lng":-34.8505212},{"id":"7651074406","name":"Complexo Esportivo do Conjunto Ernesto Geisel","tags":"leisure:park","lat":-7.1775473,"lng":-34.870219},{"id":"7781733798","tags":"amenity:restaurant","lat":-7.1189768,"lng":-34.8910774},{"id":"7781733801","tags":"amenity:restaurant","lat":-7.1178084,"lng":-34.8907891},{"id":"7781733802","tags":"amenity:cafe","lat":-7.1181291,"lng":-34.890891},{"id":"7996106671","tags":"amenity:school","lat":-7.1419195,"lng":-35.1412849},{"id":"8010892685","name":"Sicredi Creduni","tags":"amenity:bank","lat":-7.1321463,"lng":-34.8455905},{"id":"8010892785","name":"Jiu-jitsu","tags":"leisure:fitness_centre","lat":-7.1428346,"lng":-34.8445537},{"id":"8066089108","tags":"amenity:restaurant","lat":-7.1428417,"lng":-34.9104164},{"id":"8066089109","tags":"amenity:police","lat":-7.1438815,"lng":-34.9103034},{"id":"8066089110","tags":"leisure:park","lat":-7.1412875,"lng":-34.9123958},{"id":"8066089111","tags":"amenity:school","lat":-7.1408249,"lng":-34.9126965},{"id":"8066089113","tags":"amenity:childcare","lat":-7.1378191,"lng":-34.9144701},{"id":"8066089114","tags":"leisure:sports_centre,sport:swimming","lat":-7.1374714,"lng":-34.913805},{"id":"8066089115","tags":"amenity:school","lat":-7.1371697,"lng":-34.9140858},{"id":"8066089116","tags":"amenity:school","lat":-7.136728,"lng":-34.9141789},{"id":"8066089118","tags":"shop:supermarket","lat":-7.1361182,"lng":-34.914482},{"id":"8066089126","tags":"shop:convenience","lat":-7.1357672,"lng":-34.9141749},{"id":"8066089132","tags":"shop:convenience","lat":-7.1337287,"lng":-34.9150586},{"id":"8117521092","name":"Leny Silva Estética Personalizada","tags":"addr:city:João Pessoa,addr:housenumber:1405,addr:postcode:58085-000,addr:street:Avenida Cruz das Armas,addr:suburb:Cruz das Armas,beauty:nails,shop:beauty","lat":-7.1446119,"lng":-34.8912906},{"id":"8147967268","tags":"amenity:restaurant,cuisine:pizza","lat":-7.1746,"lng":-34.8442155},{"id":"8222714505","name":"Panela's Di Barro Restaurante","tags":"addr:city:João Pessoa,addr:housenumber:159,addr:postcode:58035200,addr:street:Avenida Presidente Nilo Peçanha,addr:suburb:Bessa,amenity:restaurant,cuisine:regional,opening_hours:10:00-16:00,phone:+5583988571133","lat":-7.0675873,"lng":-34.841249},{"id":"8238969306","name":"Banco Santander","tags":"addr:street:Avenida Presidente Epitácio Pessoa,amenity:bank,brand:Banco Santander,brand:en:Santander Bank,brand:es:Banco Santander,brand:wikidata:Q6496310,brand:wikipedia:es:Banco Santander,name:en:Santander Bank,name:es:Banco Santander,official_name:Santander Group","lat":-7.1194821,"lng":-34.8538343},{"id":"8238969307","name":"Drogasil","tags":"addr:city:João Pessoa,addr:housenumber:1883,addr:postcode:58030-001,addr:street:Avenida Presidente Epitácio Pessoa,addr:suburb:Bairro dos Estados,amenity:pharmacy,brand:Drogasil,brand:wikidata:Q5308185,brand:wikipedia:pt:Drogasil,dispensing:yes,healthcare:pharmacy,opening_hours:Mo-Su 08:00-22:00,phone:+5583982114153,wheelchair:yes","lat":-7.1194228,"lng":-34.8535163},{"id":"8245614615","name":"Farmácia de Manipulação","tags":"amenity:pharmacy,healthcare:pharmacy","lat":-7.1349114,"lng":-34.8815885},{"id":"8245614616","name":"Farmácia Mamanguape","tags":"amenity:pharmacy,healthcare:pharmacy","lat":-7.137499,"lng":-34.8876295},{"id":"8245623218","name":"Farmácia Central","tags":"amenity:pharmacy,healthcare:pharmacy","lat":-7.1389262,"lng":-34.8882515},{"id":"8245623219","name":"Farmácia Frei Norberto","tags":"amenity:pharmacy,healthcare:pharmacy","lat":-7.1392996,"lng":-34.8888213},{"id":"8245623220","name":"Rede Mais Farma","tags":"amenity:pharmacy,healthcare:pharmacy","lat":-7.1397159,"lng":-34.8886921},{"id":"8245623221","name":"Pague Menos","tags":"amenity:pharmacy,brand:Pague Menos,brand:wikidata:Q7124466,brand:wikipedia:pt:Pague Menos,dispensing:yes,healthcare:pharmacy","lat":-7.1402019,"lng":-34.8894374},{"id":"8245623222","name":"Pague Menos","tags":"amenity:pharmacy,brand:Pague Menos,brand:wikidata:Q7124466,brand:wikipedia:pt:Pague Menos,dispensing:yes,healthcare:pharmacy","lat":-7.1486855,"lng":-34.8930517},{"id":"8245623223","name":"Diniz Farma","tags":"amenity:pharmacy,dispensing:yes,healthcare:pharmacy","lat":-7.1515173,"lng":-34.8888917},{"id":"8245623224","tags":"amenity:pharmacy,dispensing:yes,healthcare:pharmacy","lat":-7.1577203,"lng":-34.896345},{"id":"8245623227","name":"Varejão dos Medicamentos","tags":"amenity:pharmacy,healthcare:pharmacy","lat":-7.1581005,"lng":-34.8963449},{"id":"8245623228","name":"Farmácias FTB","tags":"amenity:pharmacy,healthcare:pharmacy","lat":-7.1580432,"lng":-34.896341},{"id":"8245623230","name":"Supermercado Santo André","tags":"shop:supermarket","lat":-7.1503132,"lng":-34.891358},{"id":"8246305017","name":"Rede Mais Farma","tags":"amenity:pharmacy,healthcare:pharmacy","lat":-7.1389352,"lng":-34.8886622},{"id":"8441492885","name":"Jun Sakamoto","tags":"addr:city:João Pessoa,addr:housenumber:805,addr:street:Avenida Governador Flávio Ribeiro Coutinho,addr:suburb:Manaíra,amenity:restaurant,cuisine:japanese,opening_hours:Mo-Su 10:00-21:00,phone:+55 83 3142 0963,website:https://instagram.com/junsakamotobrasil","lat":-7.0989185,"lng":-34.8446054},{"id":"8445394353","name":"Colégio Motiva Oriental","tags":"amenity:school,website:https://colegiomotiva.com.br","lat":-7.1393151,"lng":-34.8215226},{"id":"8750947373","name":"Centro Pastoral Educativo  Padre Mazza","tags":"addr:city:João Pessoa,addr:housenumber:1508,addr:postcode:58090660,addr:street:Rua Compositor Noel Rosa,amenity:school,amenity_1:monastery,monastery:type:monastery,office:educational_institution,operator:Istituto della Carità del Sacro Cuore – Suore di Don Nicola Mazza,religion:christian,website:https://www.suoredonmazza.org/contatti/","lat":-7.135975,"lng":-34.9104308},{"id":"8908197586","name":"Farmácia Redepharma","tags":"addr:street:Avenida Mar Vermelho,shop:chemist","lat":-7.0450644,"lng":-34.8426005},{"id":"8908245421","name":"Supermercado Menor Preço","tags":"addr:street:Avenida Mar Vermelho,shop:supermarket","lat":-7.0440346,"lng":-34.8448722},{"id":"8997159967","tags":"leisure:park","lat":-7.1515147,"lng":-34.9648728},{"id":"9140767974","name":"EMEF Índio Piragibe","tags":"amenity:school","lat":-7.1339587,"lng":-34.9864712},{"id":"9244157083","name":"Posto de Saúde- Ribeira de Cima","tags":"amenity:hospital,healthcare:hospital,operator:type:public","lat":-7.0323731,"lng":-34.8720217},{"id":"9253188463","name":"Jump Go Trampolim Park","tags":"addr:city:Cabedelo,addr:housenumber:355,addr:postcode:58102-380,addr:street:Rua Creuza Josefa Morato,addr:suburb:Intermares,leisure:park,opening_hours:We-Su 16:00-18:00","lat":-7.0543639,"lng":-34.8502247},{"id":"9256106467","name":"Escola Cidadã Integral Irineu Pinto","tags":"addr:city:Bayeux,addr:street:Joao XXIII,addr:suburb:Sesi,amenity:school","lat":-7.1236754,"lng":-34.9163949},{"id":"9579226895","name":"Polícia Federal do Brasil","tags":"amenity:police,email:migracao.srpb@pf.gov.br,operator:Polícia Federal do Brasil,operator:en:Federal Police of Brazil,operator:wikidata:Q2289697,operator:wikipedia:pt:Polícia Federal do Brasil,phone:+55 83 3565 8841","lat":-7.1460302,"lng":-34.9489279},{"id":"9609851189","name":"Bella Pizza","tags":"addr:city:João Pessoa,addr:postcode:58073-415,addr:street:Rua Agostinho Fonseca Neto,addr:suburb:Água Fria,amenity:restaurant,cuisine:pizza,opening_hours:Mo-Su 18:00-23:00,phone:+55 83 3231-1552","lat":-7.1694871,"lng":-34.8608003}]