[{"id":"1042067252","name":"Aeródromo Pedro Simões Pimenta","tags":"aeroway:aerodrome","lat":-6.4858383,"lng":-36.1370905},{"id":"8822355855","name":"JS Rações","tags":"addr:city:Cuité,addr:postcode:58175-000,shop:pet","lat":-6.4805744,"lng":-36.1617574},{"id":"8912255750","name":"Rede UnioFarma","tags":"amenity:pharmacy","lat":-6.4854355,"lng":-36.1544388},{"id":"8912269695","name":"Caixa Aqui","tags":"amenity:bank,atm:no,brand:Caixa Econômica Federal,brand:wikidata:Q835283,brand:wikipedia:pt:Caixa Econômica Federal,drive_through:no","lat":-6.4836505,"lng":-36.1580121},{"id":"9915830909","name":"Lava a Jato São José","tags":"amenity:car_wash","lat":-6.4790366,"lng":-36.1676896}]