[{"id":"1042067252","name":"Aeródromo Pedro Simões Pimenta","tags":"aeroway:aerodrome","lat":-6.4858383,"lng":-36.1370905},{"id":"8822355855","name":"JS Rações","tags":"addr:city:Cuité,addr:postcode:58175-000,shop:pet","lat":-6.4805744,"lng":-36.1617574},{"id":"8912255750","name":"Rede UnioFarma","tags":"amenity:pharmacy","lat":-6.4854355,"lng":-36.1544388},{"id":"8912269695","name":"Caixa Aqui","tags":"amenity:bank,atm:no,brand:Caixa Econômica Federal,brand:wikidata:Q835283,brand:wikipedia:pt:Caixa Econômica Federal,drive_through:no","lat":-6.4836505,"lng":-36.1580121},{"id":"9915830909","name":"Lava a Jato São José","tags":"amenity:car_wash","lat":-6.4790366,"lng":-36.1676896},{"id":"9971153609","name":"Cairanas Bar","tags":"amenity:bar","lat":-6.4357226,"lng":-36.1580819},{"id":"9971189364","name":"Bar do Liu","tags":"amenity:bar","lat":-6.4141917,"lng":-36.1779156},{"id":"9971201876","name":"Escola Manoel Domingos","tags":"abandonity:building:school,amenity:school","lat":-6.4261024,"lng":-36.1432209},{"id":"9971203613","name":"Grupo Escolar Manoel Paulo de Maria","tags":"abandoned:building:school,amenity:school","lat":-6.4145014,"lng":-36.1643987},{"id":"9972902706","name":"Bar do Souza","tags":"amenity:bar","lat":-6.4889326,"lng":-36.1583812},{"id":"9978625628","tags":"amenity:restaurant","lat":-6.4874746,"lng":-36.1574538},{"id":"9980659180","name":"Bar do Fuba","tags":"amenity:bar","lat":-6.4799331,"lng":-36.1628931},{"id":"9980665907","name":"Mercadinho de Gui","tags":"shop:convenience","lat":-6.4793358,"lng":-36.1638866}]