[{"id":"9200907199","name":"Em Emilio Murad","tags":"amenity:school","lat":-4.9163925,"lng":-44.2196665},{"id":"9200914135","name":"EM José Domingos Araujo","tags":"amenity:school","lat":-4.873036,"lng":-44.0466518},{"id":"9200936148","name":"EM Professora Tania Maria","tags":"amenity:school","lat":-4.8796583,"lng":-44.1351094},{"id":"9223797363","name":"UEM Antônio José Serra Figueiredo","tags":"amenity:school","lat":-4.812905,"lng":-44.2570187},{"id":"9223909553","name":"EM São Pedro","tags":"amenity:school","lat":-4.7519769,"lng":-44.1758551}]