[{"id":"6821336944","name":"aantiga estação de trem","tags":"tourism:attraction","lat":-4.2618973,"lng":-43.949583},{"id":"9034645493","name":"EM 7 de Setembro","tags":"amenity:school","lat":-4.2519382,"lng":-44.2484303},{"id":"9041276582","name":"EM NADIR MARTINS C SOARES - ANEXO II - NOGUEIRA","tags":"amenity:school","lat":-4.2749775,"lng":-44.1360109},{"id":"9101486883","name":"UE Dica Pereira","tags":"amenity:school","lat":-4.2725448,"lng":-43.9540927},{"id":"9200684636","name":"EM 7 de Setembro - Anexo I - Jiquiri","tags":"amenity:school","lat":-4.2484744,"lng":-44.2072947},{"id":"9200869193","name":"Em São Raimundo","tags":"amenity:school","lat":-4.3282524,"lng":-44.2945704},{"id":"9200874836","name":"Em São João","tags":"amenity:school","lat":-4.3132663,"lng":-44.2816655},{"id":"9200900084","name":"Em Juarez Nunes","tags":"amenity:school","lat":-4.346316,"lng":-44.2776503},{"id":"9231298578","name":"EM 7 de Setembro","tags":"amenity:school","lat":-4.2412134,"lng":-44.2761777},{"id":"9235516793","name":"EM Nossa Senhora Guadalupe","tags":"amenity:school","lat":-4.3527177,"lng":-43.9574884},{"id":"9235521974","name":"Escola Municipal São José de Pinhpo","tags":"amenity:school,operator:ESCOLA MUNICIPAL SAO JOSE DE PINHO","lat":-4.3685264,"lng":-43.9706446}]