[{"id":"6821294944","name":"prainha","tags":"tourism:attraction","lat":-4.2578135,"lng":-43.9437851},{"id":"6821294945","name":"praia do rio itapecuru","tags":"tourism:attraction","lat":-4.2586093,"lng":-43.9436704},{"id":"9032706973","name":"UE Paulino doss Santos","tags":"amenity:school","lat":-4.2477414,"lng":-43.9269085},{"id":"9034838607","name":"UE Adriano Campelo","tags":"amenity:school","lat":-4.2522645,"lng":-43.9395525},{"id":"9035443285","name":"UE José Maria Alvim","tags":"amenity:school","lat":-4.2439057,"lng":-43.9379512},{"id":"9035479417","name":"EM Luís Pereira Barros","tags":"amenity:school","lat":-4.322874,"lng":-43.6123551},{"id":"9037856219","name":"EM Maria José Quinzeiro","tags":"amenity:school,operator:EM MARIA JOSE QUINZEIRO","lat":-4.3834829,"lng":-43.8920023},{"id":"9040875170","name":"Cef Lauro Pereira","tags":"amenity:school","lat":-4.256666,"lng":-43.938721},{"id":"9051907334","name":"Ue Humberto De Campos","tags":"amenity:school","lat":-4.229341,"lng":-43.6510326},{"id":"9101456345","name":"EM Filomena Catarina Moreira","tags":"amenity:school","lat":-4.3019451,"lng":-43.7164195},{"id":"9117833101","name":"Ue Faustina Araujo","tags":"amenity:school","lat":-4.2591642,"lng":-43.9424224},{"id":"9117838759","name":"Cef Aurea Alvim","tags":"amenity:school","lat":-4.2545127,"lng":-43.937176},{"id":"9117839125","name":"Cei Leda Tajra","tags":"amenity:school","lat":-4.2552991,"lng":-43.9371948},{"id":"9117841700","name":"Ue Roberto Robson","tags":"amenity:school","lat":-4.2188833,"lng":-43.8097309},{"id":"9117849041","name":"Ue Maranhao Sobrinho","tags":"amenity:school","lat":-4.2571528,"lng":-43.9399709},{"id":"9117855042","name":"Ue Goncalo De Abreu","tags":"amenity:school","lat":-4.2563129,"lng":-43.8640188},{"id":"9165008016","name":"EM Maria Alves da Paz","tags":"amenity:school","lat":-4.2927836,"lng":-43.5983838},{"id":"9165056166","name":"Escola Municipal Araujo Sousa","tags":"amenity:school","lat":-4.3249597,"lng":-43.6362433},{"id":"9165065604","name":"EM José Lino de Sousa","tags":"amenity:school","lat":-4.3041171,"lng":-43.6293162},{"id":"9165071830","name":"EM São Benedito","tags":"amenity:school","lat":-4.3498594,"lng":-43.6754558},{"id":"9165077517","name":"EM Santa Filomena","tags":"amenity:school","lat":-4.3602949,"lng":-43.6914613},{"id":"9165084094","name":"EM Marcelino Mendes","tags":"amenity:school","lat":-4.3031863,"lng":-43.68088},{"id":"9165090865","name":"Ue Horacio Maciel","tags":"amenity:school","lat":-4.2208088,"lng":-43.6156852},{"id":"9235542987","name":"EM São Francisco","tags":"amenity:school","lat":-4.3503428,"lng":-43.9148144},{"id":"9235546777","name":"Ue Pedro Cipriano","tags":"amenity:school","lat":-4.3443038,"lng":-43.8317706}]