[{"id":"1042079332","name":"Aeródromo Fazenda Canabrava","tags":"aeroway:aerodrome","lat":-5.5911112,"lng":-43.3177795},{"id":"8536501322","name":"EM José Patrocínio da Silva Latitude","tags":"addr:city:Parnarama,addr:postcode:65640-000,amenity:school","lat":-5.5303109,"lng":-43.4563279},{"id":"8537089766","name":"EM Francisco Morais de Azevedo","tags":"addr:city:Parnarama,addr:postcode:65640-000,amenity:school","lat":-5.5956318,"lng":-43.5862632},{"id":"8567478078","name":"UE Adelino Alfredo de Oliveira","tags":"addr:city:Matões,addr:postcode:65645-000,amenity:school","lat":-5.4497251,"lng":-43.4548938},{"id":"8567800054","name":"UE Desidério","tags":"addr:city:Matões,addr:postcode:65645-000,amenity:school","lat":-5.5098056,"lng":-43.3751088},{"id":"8567813819","name":"EM Raimundo Loureiro dos Santos","tags":"addr:city:Matões,addr:postcode:65645-000,amenity:school","lat":-5.4750569,"lng":-43.3093455}]