[{"id":"8546951122","name":"Escola Municipal Raimundo Teresa","tags":"addr:city:Matões,addr:postcode:65645-000,amenity:school","lat":-5.337731,"lng":-43.583983},{"id":"8567474704","name":"UE Sebastião Ferreira De Almada","tags":"addr:city:Matões,addr:postcode:65645-000,amenity:school","lat":-5.3468743,"lng":-43.4757667},{"id":"8567489723","name":"EM Senador Alexandre Costa","tags":"addr:city:Matões,addr:postcode:65645-000,amenity:school","lat":-5.2952853,"lng":-43.448768},{"id":"8567495107","name":"Escola Municipal Maria Vidal","tags":"addr:city:Matões,addr:postcode:65645-000,amenity:school","lat":-5.3906469,"lng":-43.5751087},{"id":"8567507659","name":"EM Izau Gomes","tags":"addr:city:Matões,addr:postcode:65645-000,amenity:school","lat":-5.3270023,"lng":-43.5906224},{"id":"8567733009","name":"Unidade Escolar Regina Brito Coutinho","tags":"addr:city:Matões,addr:postcode:65645-000,amenity:school","lat":-5.3474268,"lng":-43.45583},{"id":"8567771872","name":"UE Raimundo Santiago Sobrinho","tags":"addr:city:Matões,addr:postcode:65645-000,amenity:school","lat":-5.293122,"lng":-43.2899452},{"id":"8567815150","name":"UE José Pereira dos Santos","tags":"addr:city:Matões,addr:postcode:65645-000,amenity:school","lat":-5.3406869,"lng":-43.3220175}]