[{"id":"8537136705","name":"EM Antônia Bezerra Gonçalves","tags":"addr:city:Parnarama,addr:postcode:65640-000,amenity:school","lat":-5.6228646,"lng":-43.1645866},{"id":"8546967543","name":"UE Padre Delfino","tags":"addr:city:Matões,addr:postcode:65645-000,addr:street:Rua Picarreira,addr:suburb:Mangueira,amenity:school,phone:+55 99 3576 1495","lat":-5.5203559,"lng":-43.1923396},{"id":"8566866288","name":"UE Presidente Costa e Silva","tags":"addr:city:Matões,addr:postcode:65645-000,addr:street:Rua Nova,addr:suburb:Centro,amenity:school,phone:+55 99 3576 1280","lat":-5.5191521,"lng":-43.2029632},{"id":"8567479951","name":"UE Rodrigo de Oliveira Anexo I","tags":"addr:city:Matões,addr:postcode:65645-000,addr:street:Rua Raimundo Sarnento,addr:suburb:Matadouro,amenity:school","lat":-5.5296686,"lng":-43.2095855},{"id":"8567493287","name":"Creche Tia Eunice Portela Barros","tags":"addr:city:Matões,addr:postcode:65645-000,addr:street:Rua da Mangueira,amenity:school","lat":-5.519948,"lng":-43.1933077},{"id":"8567714091","name":"UE Rodrigo de Oliveira Anexo II","tags":"addr:city:Matões,addr:postcode:65645-000,addr:street:Rua Ditador Castelo Branco,addr:suburb:Centro,amenity:school","lat":-5.5220209,"lng":-43.1997347},{"id":"8567721236","name":"UE José Sarney","tags":"addr:city:Matões,addr:postcode:65645-000,amenity:school","lat":-5.4498806,"lng":-43.1455205},{"id":"8567721237","name":"IEMA - Instituto Estadual de Educação Ciência e Tecnologia do Maranhão","tags":"addr:city:Matões,addr:postcode:65645-000,addr:street:Rodovia MA-262,addr:suburb:Residencial Nova Matões,amenity:university,phone:+55 99 9 9985 0075","lat":-5.5438521,"lng":-43.1976588},{"id":"8567729617","name":"Creche Tia Suely","tags":"addr:city:Matões,addr:postcode:65645-000,addr:street:Rua Antenor Pereira Brito,addr:suburb:Matadouro,amenity:school","lat":-5.5237254,"lng":-43.2049226},{"id":"8567752944","name":"Escola de Educação Especial Professora Eliene Pereira","tags":"addr:city:Matões,addr:postcode:65645-000,addr:street:Rua Benedito Leite,addr:suburb:Centro,amenity:school,phone:+55 99 3576 1202","lat":-5.5224332,"lng":-43.2009021},{"id":"8567754792","name":"Instituto de Ensino Múltiplo","tags":"addr:city:Matões,addr:housenumber:2094,addr:postcode:65645-000,addr:street:Rua Santos Dumont,addr:suburb:Centro,amenity:school","lat":-5.5217937,"lng":-43.2061367},{"id":"8567769617","name":"Escola Verinalva Ferreira de Castro Me","tags":"addr:city:Matões,addr:postcode:65645-000,addr:street:Rua Ditador Castelo Branco,addr:suburb:Centro,amenity:school","lat":-5.5218451,"lng":-43.1997325},{"id":"9493775337","name":"Unid Esc Paulo Cesar Vilarinho Soares","tags":"amenity:school","lat":-5.6139411,"lng":-43.02725},{"id":"9493797448","name":"Unid Esc Amadeu C Borges","tags":"amenity:school","lat":-5.557714,"lng":-43.0047892}]