[{"id":"1985136082","name":"Central de Flagrantes","tags":"amenity:police","lat":-5.0953937,"lng":-42.8032318},{"id":"2401424789","name":"Carvalho Supermercado","tags":"opening_hours:Mo-Su 7:00-22:00,shop:supermarket","lat":-5.0684886,"lng":-42.7839053},{"id":"2401425130","name":"Pão de Açúcar","tags":"brand:Pão de Açúcar,brand:wikidata:Q3411543,brand:wikipedia:pt:Pão de Açúcar (supermercado brasileiro),shop:supermarket","lat":-5.0695444,"lng":-42.7836207},{"id":"2401499613","name":"Frango Leste","tags":"amenity:restaurant,cuisine:regional","lat":-5.0622421,"lng":-42.7841065},{"id":"2768073293","name":"Donna Get","tags":"amenity:restaurant","lat":-5.0622281,"lng":-42.7943747},{"id":"2795896072","name":"Almoxarifado SEFAZ","tags":"shop:books","lat":-5.0691807,"lng":-42.8118193},{"id":"4121292899","name":"Hospital São Marcos","tags":"addr:city:Teresina,addr:street:Rua Olavo Bilac,addr:suburb:Centro,amenity:hospital,emergency:yes,healthcare:hospital,healthcare:speciality:general,website:https://www.saomarcos.org.br/","lat":-5.0901506,"lng":-42.8024465},{"id":"4232531193","name":"SUPERMERCADO MAJOR","tags":"shop:supermarket","lat":-5.0678447,"lng":-42.8119632},{"id":"4247781515","tags":"addr:city:Teresina,amenity:bus_station,bus:yes,public_transport:station","lat":-5.0701995,"lng":-42.7732722},{"id":"4247781516","tags":"addr:city:Teresina,amenity:bus_station,bus:yes,public_transport:station","lat":-5.0699751,"lng":-42.7776737},{"id":"4247781517","tags":"addr:city:Teresina,amenity:bus_station,bus:yes,public_transport:station","lat":-5.0699884,"lng":-42.7800287},{"id":"4247781519","tags":"addr:city:Teresina,amenity:bus_station,bus:yes,public_transport:station","lat":-5.0701682,"lng":-42.7835987},{"id":"4247781520","tags":"addr:city:Teresina,amenity:bus_station,bus:yes,public_transport:station","lat":-5.0677362,"lng":-42.7882229},{"id":"4256311400","name":"Banco do Brasil","tags":"amenity:bank,brand:Banco do Brasil,brand:wikidata:Q610817,brand:wikipedia:en:Banco do Brasil","lat":-5.0490558,"lng":-42.8155582},{"id":"4259922176","name":"Terminal da Cidade Leste","tags":"addr:city:Teresina,amenity:bus_station","lat":-5.0379162,"lng":-42.7422391},{"id":"4261151024","name":"Espaço Beleza","tags":"shop:beauty","lat":-5.0714795,"lng":-42.8278044},{"id":"4341309768","tags":"amenity:bus_station,bus:yes,public_transport:station","lat":-5.0975154,"lng":-42.7526485},{"id":"4341309769","tags":"amenity:bus_station,bus:yes,public_transport:station","lat":-5.0975848,"lng":-42.7526511},{"id":"4345519294","tags":"amenity:bus_station,bus:yes,public_transport:station","lat":-5.0897863,"lng":-42.7611721},{"id":"4345519295","tags":"amenity:bus_station,bus:yes,public_transport:station","lat":-5.0896979,"lng":-42.7611045},{"id":"4345519296","tags":"addr:city:Teresina,addr:postcode:64046-700,addr:street:Avenida dos Espedicionários,addr:suburb:São João,amenity:bus_station,bus:yes,public_transport:station","lat":-5.0884675,"lng":-42.7632627},{"id":"4345519297","tags":"amenity:bus_station,bus:yes,public_transport:station","lat":-5.0883695,"lng":-42.7631886},{"id":"4345519301","tags":"amenity:bus_station,bus:yes,public_transport:station","lat":-5.097262,"lng":-42.7492786},{"id":"4345519302","tags":"amenity:bus_station","lat":-5.0972139,"lng":-42.7410335},{"id":"4345519303","tags":"amenity:bus_station","lat":-5.0971872,"lng":-42.7409638},{"id":"4345519304","tags":"amenity:bus_station","lat":-5.0973909,"lng":-42.7399781},{"id":"4345519307","tags":"amenity:bus_station","lat":-5.0966134,"lng":-42.7377947},{"id":"4345519339","tags":"amenity:bus_station,bus:yes,public_transport:station","lat":-5.0973161,"lng":-42.7490466},{"id":"4345519340","tags":"amenity:bus_station","lat":-5.0946905,"lng":-42.7415673},{"id":"4345519341","tags":"amenity:bus_station","lat":-5.0947548,"lng":-42.7416246},{"id":"4345519342","tags":"amenity:bus_station","lat":-5.0948849,"lng":-42.7416799},{"id":"4345519343","tags":"amenity:bus_station","lat":-5.0948969,"lng":-42.7417081},{"id":"4345519410","tags":"amenity:bus_station,bus:yes,public_transport:station","lat":-5.051778,"lng":-42.7902172},{"id":"4345519418","tags":"amenity:bus_station,bus:yes,public_transport:station","lat":-5.0637355,"lng":-42.7891899},{"id":"4345519419","tags":"amenity:bus_station,bus:yes,public_transport:station","lat":-5.0699553,"lng":-42.7865104},{"id":"4345519420","tags":"amenity:bus_station,bus:yes,public_transport:station","lat":-5.0700528,"lng":-42.7873311},{"id":"4370180389","name":"Ponte Estaiada Mestre João Isidoro França","tags":"addr:street:Avenida Raul Lopes,name:pt:Ponte Estaiada Mestre João Isidoro França,tourism:attraction","lat":-5.0697478,"lng":-42.8019921},{"id":"4598677495","name":"PRF - Policia Rodoviária Federal","tags":"amenity:police,opening_hours:24/7,operator:Polícia Rodoviária Federal,operator:wikidata:Q1158853,operator:wikipedia:pt:Polícia Rodoviária Federal,phone:+55 86 3231 2545,police:traffic_police","lat":-5.0566012,"lng":-42.6841422},{"id":"4956027665","tags":"amenity:bus_station","lat":-5.0974229,"lng":-42.7288208},{"id":"5029900289","name":"Banco do Brasil","tags":"amenity:bank,atm:yes,brand:Banco do Brasil,brand:wikidata:Q610817,brand:wikipedia:en:Banco do Brasil","lat":-5.0617968,"lng":-42.7962033},{"id":"5029900290","name":"Santander","tags":"amenity:bank,brand:Santander,brand:wikidata:Q5835668,brand:wikipedia:en:Santander Bank,drive_through:yes","lat":-5.0615403,"lng":-42.7961872},{"id":"5182656623","name":"Maná Pizzaria e Churrascaria","tags":"addr:street:Rua Crisântemos,amenity:restaurant,internet_access:wlan","lat":-5.0716199,"lng":-42.7669449},{"id":"5305124125","name":"Carvalho","tags":"shop:supermarket","lat":-5.0486898,"lng":-42.8151452},{"id":"5553307543","tags":"leisure:fitness_centre","lat":-5.0698763,"lng":-42.7857347},{"id":"5631461990","name":"Drogaria Lene","tags":"addr:street:Avenida Zequinha Freire,amenity:pharmacy,dispensing:yes,healthcare:pharmacy","lat":-5.0409858,"lng":-42.7478434},{"id":"5631462006","name":"Padaria & Pizzaria Provare","tags":"addr:street:Avenida Zequinha Freire,amenity:restaurant,cuisine:pizza,delivery:no,opening_hours:06:00-22:00","lat":-5.0414327,"lng":-42.7476471},{"id":"5635168382","name":"Picanharia & Pizzaria Rezende","tags":"addr:street:Avenida Zequinha Freire,amenity:restaurant,cuisine:pizza;regional;steak_house,delivery:yes,opening_hours:Tu-Sa 17:30-24:00, Su 11:00-23:00,takeaway:yes","lat":-5.0447959,"lng":-42.747995},{"id":"5635168383","name":"Abelha de Ouro","tags":"amenity:restaurant,cuisine:pizza;regional;steak_house","lat":-5.0449757,"lng":-42.7477543},{"id":"5635168385","name":"Farmácia Unifarm","tags":"addr:street:Avenida Zequinha Freire,amenity:pharmacy,dispensing:no,drive_through:no,healthcare:pharmacy,opening_hours:Mo-Su 07:00-22:00,payment:cash:yes,payment:credit_cards:yes,payment:debit_cards:yes","lat":-5.0452754,"lng":-42.7480622},{"id":"5635168386","name":"Comercial O Riba","tags":"addr:street:Avenida Zequinha Freire,shop:supermarket","lat":-5.0432253,"lng":-42.7479614},{"id":"5635168395","name":"Volante Super","tags":"addr:street:Avenida Zequinha Freire,opening_hours:Mo-Sa 08:00-19:30,opening_hours:covid19:restricted,payment:cash:yes,payment:credit_cards:yes,payment:debit_cards:yes,shop:supermarket,stroller:limited","lat":-5.0423041,"lng":-42.7476911},{"id":"5635168396","name":"Drogaria Gattai","tags":"addr:street:Avenida Zequinha Freire,amenity:pharmacy,dispensing:yes,drive_through:no,healthcare:pharmacy","lat":-5.0425883,"lng":-42.7476821},{"id":"5635168401","name":"Casa do Bolo","tags":"addr:street:Avenida Zequinha Freire,amenity:cafe","lat":-5.042069,"lng":-42.7478834},{"id":"5636348169","tags":"addr:street:Avenida Zequinha Freire,amenity:restaurant","lat":-5.0451775,"lng":-42.7480169},{"id":"5636348170","name":"Peixada do Etevaldo","tags":"amenity:restaurant,cuisine:regional","lat":-5.0449464,"lng":-42.7476156},{"id":"5636348172","name":"Branco24Horas","tags":"amenity:atm,brand:Banco24Horas,brand:wikidata:Q4854069,brand:wikipedia:pt:Banco24Horas,currency:BRL:yes,level:3","lat":-5.0913736,"lng":-42.8188927},{"id":"5636348173","name":"Branco24Horas","tags":"amenity:atm,brand:Banco24Horas,brand:wikidata:Q4854069,brand:wikipedia:pt:Banco24Horas,currency:BRL:yes,drive_through:no,level:3","lat":-5.0914598,"lng":-42.8190217},{"id":"5636348174","name":"Caixa Econômica Federal","tags":"addr:city:Teresina,addr:housenumber:1349,addr:postcode:64000-917,addr:street:Rua Areolino de Abreu,addr:suburb:Centro,amenity:bank,atm:yes,brand:Caixa Econômica Federal,brand:wikidata:Q835283,brand:wikipedia:pt:Caixa Econômica Federal,opening_hours:Mo-Fr 10:00-16:00","lat":-5.0881431,"lng":-42.8142316},{"id":"5636348175","name":"Itaú","tags":"addr:street:Rua Areolino de Abreu,amenity:bank,atm:yes,brand:Itaú Unibanco,brand:wikidata:Q1424293,brand:wikipedia:pt:Itaú Unibanco","lat":-5.0889984,"lng":-42.815894},{"id":"5636348189","name":"Caixa Econômica Federal","tags":"addr:city:Teresina,addr:housenumber:797,addr:postcode:64001-300,addr:street:Avenida José dos Santos e Silva,addr:suburb:Centro,amenity:bank,atm:yes,brand:Caixa Econômica Federal,brand:wikidata:Q835283,brand:wikipedia:pt:Caixa Econômica Federal,drive_through:no,operator:Caixa Econômica Federal,wheelchair:limited","lat":-5.0965296,"lng":-42.8153594},{"id":"5636348192","name":"Universidade Anhanguera","tags":"addr:city:Teresina,addr:street:Rua Rui Barbosa,addr:suburb:Centro,amenity:university","lat":-5.0964941,"lng":-42.8133729},{"id":"5636348193","name":"Colégio Certo","tags":"addr:street:Rua Rui Barbosa,amenity:school","lat":-5.0965678,"lng":-42.8133211},{"id":"5636348208","name":"Barroso Supermercado","tags":"addr:city:Teresina,addr:street:Rua Félix Pacheco,shop:supermarket","lat":-5.0942818,"lng":-42.8150142},{"id":"5636348212","name":"Deguste Refeições","tags":"addr:city:Teresina,addr:street:Rua Desembargador Pires de Castro,addr:suburb:Centro,amenity:restaurant,cuisine:regional,outdoor_seating:no,takeaway:yes","lat":-5.0856745,"lng":-42.806605},{"id":"5638720446","name":"Pague Menos","tags":"addr:city:Teresina,addr:street:Avenida Zequinha Freire,amenity:pharmacy,brand:Pague Menos,brand:wikidata:Q7124466,brand:wikipedia:pt:Pague Menos,dispensing:yes,drive_through:no,healthcare:pharmacy","lat":-5.0561227,"lng":-42.7484896},{"id":"5638720447","name":"Pizzaria Biel","tags":"addr:city:Teresina,addr:street:Avenida Antonieta Burlamaqui,amenity:restaurant,cuisine:pizza;regional","lat":-5.056182,"lng":-42.7482067},{"id":"5638749509","name":"Caixa Econômica Federal","tags":"addr:city:Teresina,addr:street:Avenida Frei Serafim,addr:suburb:Centro,amenity:bank,atm:yes,branch:Autoatendimento,brand:Caixa Econômica Federal,brand:wikidata:Q835283,brand:wikipedia:pt:Caixa Econômica Federal,drive_through:no","lat":-5.0897457,"lng":-42.8106031},{"id":"5638749510","name":"Correios - Shopping da Cidade","tags":"addr:city:Teresina,addr:suburb:Centro,amenity:post_office,level:3,operator:Correios,operator:wikidata:Q3375004,operator:wikipedia:en:Correios","lat":-5.0912345,"lng":-42.8191863},{"id":"5646488207","tags":"addr:city:Teresina,addr:street:Avenida Zequinha Freire,beauty:aesthetic,payment:cash:yes,shop:beauty","lat":-5.0410919,"lng":-42.7476218},{"id":"5646488209","name":"Mercearia Dona Mazé","tags":"addr:city:Teresina,addr:street:Avenida Zequinha Freire,opening_hours:Mo-Su 06:30-20:00,payment:cash:yes,shop:convenience","lat":-5.0406799,"lng":-42.7475966},{"id":"5646488213","name":"Crispim Super","tags":"addr:city:Teresina,addr:street:Rua 11,addr:suburb:Vila Bandeirante,payment:cash:yes,payment:credit_cards:yes,payment:debit_cards:yes,shop:supermarket","lat":-5.0410146,"lng":-42.7503181},{"id":"5646488214","tags":"amenity:atm,currency:BRL:yes,drive_through:no,operator:Banco24Horas","lat":-5.0410446,"lng":-42.750473},{"id":"5708535040","name":"Botica - Farmácia de Manipulação","tags":"addr:city:Teresina,addr:housenumber:2450,addr:postcode:64000-020,addr:street:Avenida Frei Serafim,addr:suburb:Centro,amenity:pharmacy,dispensing:yes,drive_through:no,healthcare:pharmacy","lat":-5.0866405,"lng":-42.8039056},{"id":"5758830371","name":"FACID","tags":"addr:housenumber:S/N,addr:street:Avenida Maria Gonçalves,amenity:school,min_age:16,opening_hours:Mo-Fr 07:00-18:15; Sa 14:00-18:00; PH closed,operator:Particular,operator:type:private,wheelchair:yes","lat":-5.0206992,"lng":-42.7790415},{"id":"5758849892","name":"Patio Vip Leilões","tags":"access:yes,amenity:parking,capacity:2000,capacity:disabled:yes,capacity:parent:yes,capacity:women:yes,fee:Mo-Fr 09:00-18:30; Sa 09:00-17:00; PH closed,lit:Mo-Fr 09:00-12:00,13:30-18:30; Sa 09:00-17:00; PH closed,maxheight:3,parking:surface,smoothness:excellent,supervised:24/7,surface:concrete:plates","lat":-5.024271,"lng":-42.7808919},{"id":"6011340715","name":"Drogarias Globo","tags":"amenity:pharmacy,dispensing:yes,drive_through:no,healthcare:pharmacy","lat":-5.0649449,"lng":-42.7601691},{"id":"6011359561","name":"Farmácias Pague Menos","tags":"amenity:pharmacy,dispensing:yes,healthcare:pharmacy","lat":-5.0625623,"lng":-42.7942252},{"id":"6149990813","name":"Comercial Valmir","tags":"operator:Valmir,payment:cash:yes,shop:supermarket","lat":-4.9813251,"lng":-42.6466432},{"id":"6380892954","name":"Mercadinho do Dudu","tags":"addr:city:Teresina,addr:housenumber:1830,addr:postcode:64003420,addr:street:Rua Rio Grande do Norte,operator:Eduardo,payment:cash:yes,payment:coins:yes,shop:supermarket","lat":-5.0730776,"lng":-42.8171027},{"id":"6437373885","name":"Drogasil","tags":"amenity:pharmacy,brand:Drogasil,brand:wikidata:Q5308185,brand:wikipedia:pt:Drogasil,dispensing:yes,healthcare:pharmacy,wheelchair:yes","lat":-5.069946,"lng":-42.7828538},{"id":"6491614795","tags":"access:private,amenity:parking,parking:surface","lat":-5.0901024,"lng":-42.8200577},{"id":"6491614797","tags":"access:private,amenity:parking,fee:yes,parking:surface","lat":-5.0909544,"lng":-42.8195893},{"id":"6491614804","name":"Casa dos Criadores - Petshop","tags":"addr:city:Teresina,addr:street:Avenida Maranhão,addr:suburb:Centro,shop:pet","lat":-5.0941739,"lng":-42.8176678},{"id":"6491614816","name":"Armazem Carvalho","tags":"addr:city:Teresina,addr:postcode:64001-260,addr:street:Avenida Maranhão,addr:suburb:Centro Sul,phone:+55 86 2107-3399,shop:supermarket","lat":-5.0961121,"lng":-42.8164113},{"id":"6516594705","name":"Self Service - Encanto do Sabor","tags":"addr:city:Teresina,addr:postcode:64001-290,addr:street:Rua Arlindo Nogueira,addr:suburb:Centro,amenity:restaurant,cuisine:coffee_shop;steak_house,description:Self Service com comidas variadas de café, almoço e janta.#geoprocessamentoifpi","lat":-5.092473,"lng":-42.8081528},{"id":"6516594739","name":"São Ponciano","tags":"addr:city:Teresina,addr:housenumber:746,addr:postcode:64001-290,addr:street:Rua Arlindo Nogueira,addr:suburb:Centro,beauty:nails,description:Centro de Saúde e Estética.#geoprocessamentoifpi,phone:+558632239646,shop:beauty","lat":-5.095969,"lng":-42.8064127},{"id":"6516642554","name":"Livraria e Papelaria","tags":"addr:city:Teresina,addr:postcode:64000-040,addr:street:Rua Arlindo Nogueira,addr:suburb:Centro,description:#geoprocessamentoifpi,shop:books","lat":-5.0876406,"lng":-42.8105011},{"id":"6516642556","tags":"amenity:parking,description:#geoprocessamentoifpi,operator:Estacionamento Bokão,surface:ground","lat":-5.0874035,"lng":-42.8105975},{"id":"6521677501","name":"Drogaria Maranhão","tags":"addr:city:Teresina,addr:street:Rua Coelho de Resende,addr:suburb:Centro,amenity:pharmacy,dispensing:yes,healthcare:pharmacy","lat":-5.0815385,"lng":-42.8098136},{"id":"6524965739","name":"ESCOLA SANTA HELENA","tags":"addr:city:Teresina,addr:postcode:64000360,addr:street:Rua Clodoaldo Freitas,addr:suburb:CENTRO,amenity:school","lat":-5.0834002,"lng":-42.8160698},{"id":"6524965740","name":"Espetinho do Raimundo","tags":"addr:city:Teresina,addr:postcode:64000360,addr:street:Rua Clodoaldo Freitas,addr:suburb:CENTRO,amenity:restaurant","lat":-5.083508,"lng":-42.8162814},{"id":"6524965746","name":"OZAIRA MASCIEL BELEZA","tags":"addr:city:Teresina,addr:postcode:64000360,addr:street:Rua Clodoaldo Freitas,addr:suburb:Centro,shop:beauty","lat":-5.0841758,"lng":-42.8177479},{"id":"6524965747","name":"Mercearia","tags":"addr:city:Teresina,addr:postcode:64000360,addr:street:Rua Clodoaldo Freitas,addr:suburb:Centro,shop:convenience","lat":-5.0842259,"lng":-42.8179518},{"id":"6528317580","name":"Inovafarma","tags":"addr:city:Teresina,addr:postcode:64000360,addr:street:Rua Clodoaldo Freitas,addr:suburb:Centro,amenity:pharmacy,dispensing:yes,healthcare:pharmacy","lat":-5.0862721,"lng":-42.8216426},{"id":"6530029797","name":"Farmácias Pague Menos","tags":"addr:city:Teresina,addr:housenumber:325,addr:postcode:64000-370,addr:street:Rua Coelho de Resende,addr:suburb:Centro,amenity:pharmacy,dispensing:yes,healthcare:pharmacy","lat":-5.0855904,"lng":-42.8077631},{"id":"6534531584","name":"Restaurante e Hamburgueria Caseirão","tags":"addr:city:Mocambinho 1,addr:housenumber:35,addr:street:Quadra Sete,amenity:restaurant,cuisine:burger;regional;sandwich,internet_access:wlan,phone:+55 86 994198127","lat":-5.0230166,"lng":-42.8120359},{"id":"6537105593","name":"Drogaria Salute","tags":"addr:postcode:6401280,addr:street:Rua Tersandro Paz,addr:suburb:Centro Sul,amenity:pharmacy,dispensing:yes,healthcare:pharmacy","lat":-5.0925663,"lng":-42.8025914},{"id":"6537105594","name":"Elementary","tags":"addr:city:Teresina,addr:postcode:6401280,addr:street:Rua Tersandro Paz,addr:suburb:Centro Sul,amenity:pharmacy,dispensing:yes,healthcare:pharmacy","lat":-5.0927212,"lng":-42.8027701},{"id":"6537105598","name":"Restaurante da Boneca","tags":"addr:city:Teresina,addr:postcode:64001-370,addr:street:Rua Tersandro Paz,addr:suburb:Centro-Sul,amenity:restaurant","lat":-5.0933988,"lng":-42.8042831},{"id":"6537105599","name":"Drogaria Saúde e Vida","tags":"addr:city:Teresina,addr:postcode:64001-290,addr:street:Rua Tersandro Paz,addr:suburb:Centro,amenity:pharmacy,dispensing:yes,healthcare:pharmacy","lat":-5.093806,"lng":-42.8050634},{"id":"6537142997","name":"Sinopse Kids","tags":"addr:city:Teresina,addr:postcode:64000-040,addr:street:Rua Álvaro Mendes,addr:suburb:Centro,amenity:school","lat":-5.0893982,"lng":-42.811471},{"id":"6537142998","name":"Total","tags":"addr:city:Teresina,addr:postcode:64000-040,addr:street:Rua Álvaro Mendes,addr:suburb:Centro,brand:Total,brand:wikidata:Q154037,brand:wikipedia:fr:Total (entreprise),shop:convenience","lat":-5.089505,"lng":-42.8116252},{"id":"6537142999","name":"Prepara Cursos","tags":"addr:city:Teresina,addr:postcode:64000-040,addr:street:Rua Álvaro Mendes,addr:suburb:Centro,amenity:school","lat":-5.0895398,"lng":-42.8117164},{"id":"6537143000","name":"Sabor de Casa","tags":"addr:city:Teresina,addr:postcode:64000-040,addr:street:Rua Álvaro Mendes,addr:suburb:Centro,amenity:restaurant","lat":-5.0901061,"lng":-42.8127598},{"id":"6537143001","name":"Brasil","tags":"amenity:restaurant","lat":-5.0902277,"lng":-42.8129529},{"id":"6537378554","tags":"amenity:parking","lat":-5.0867554,"lng":-42.8070136},{"id":"6537378568","name":"Drogarias Globo","tags":"addr:city:Teresina,addr:postcode:64001-370,addr:street:Rua Coelho de Resende,addr:suburb:Centro,amenity:pharmacy,dispensing:yes,healthcare:pharmacy,phone:+55 86 99822 0800","lat":-5.0891007,"lng":-42.806089},{"id":"6537378581","name":"Modelo Restaurante e Panificadora","tags":"addr:city:Teresina,addr:housenumber:250,addr:postcode:64001-350,addr:street:Rua Coelho de Resende,addr:suburb:Centro,amenity:restaurant,phone:+55 86 3223 9159","lat":-5.0901707,"lng":-42.8055981},{"id":"6537378586","name":"Ultra Popular","tags":"addr:city:Teresina,addr:postcode:64001-370,addr:street:Rua Coelho de Resende,addr:suburb:Centro,amenity:pharmacy,dispensing:yes,healthcare:pharmacy","lat":-5.0907143,"lng":-42.8053151},{"id":"6537378587","name":"Drogaria Santa Fé","tags":"addr:city:Teresina,addr:postcode:64001-370,addr:street:Rua Coelho de Resende,addr:suburb:Centro,amenity:pharmacy,dispensing:yes,healthcare:pharmacy","lat":-5.0906309,"lng":-42.8051636},{"id":"6537378588","name":"Light Meals Rotisserie","tags":"addr:city:Teresina,addr:housenumber:318,addr:postcode:64001-370,addr:street:Rua Coelho de Resende,addr:suburb:Centro,amenity:restaurant","lat":-5.0909321,"lng":-42.8052642},{"id":"6537378594","name":"Churrascão self-service","tags":"addr:city:Teresina,addr:housenumber:483,addr:postcode:64001-370,addr:street:Rua Coelho de Resende,addr:suburb:Centro Sul,amenity:restaurant","lat":-5.0919553,"lng":-42.8045749},{"id":"6537378595","tags":"amenity:parking","lat":-5.0922519,"lng":-42.8044193},{"id":"6537583566","name":"ITACOR","tags":"addr:city:Teresina,addr:housenumber:831,addr:postcode:64001-370,addr:street:Rua Coelho de Resende,addr:suburb:Centro-Sul,amenity:hospital,healthcare:hospital,phone:+55 86 2106 7800","lat":-5.0945511,"lng":-42.8033284},{"id":"6546402835","name":"Extrafarma","tags":"addr:city:Teresina,addr:housenumber:279,addr:street:Rua Governador Raimundo Artur de Vasconcelos,addr:suburb:Centro,amenity:pharmacy,brand:Extrafarma,brand:wikidata:Q20055480,brand:wikipedia:pt:Extrafarma,dispensing:yes,healthcare:pharmacy,operator:Particular","lat":-5.0873114,"lng":-42.8039571},{"id":"6546422081","name":"Drogaria Humana","tags":"addr:city:Teresina,addr:housenumber:279,addr:postcode:64000-450,addr:street:Rua Governador Raimundo Artur de Vasconcelos,addr:suburb:Centro,amenity:pharmacy,dispensing:yes,healthcare:pharmacy,operator:Particular","lat":-5.089512,"lng":-42.8029592},{"id":"6546444369","name":"Empresa de cooreios do Brasil","tags":"addr:city:Teresina,addr:housenumber:670,addr:postcode:64001-450,addr:street:Rua Governador Raimundo Artur de Vasconcelos,addr:suburb:Centro,amenity:post_office,operator:Governo federal","lat":-5.0925001,"lng":-42.8016849},{"id":"6547548426","name":"Restaurante do Mercado Central","tags":"addr:city:Teresina,addr:postcode:64001-090,addr:street:Rua Lisandro Nogueira,addr:suburb:CENTRO,amenity:restaurant","lat":-5.0897305,"lng":-42.818942},{"id":"6547639116","name":"Farcia de manioulação Equilibrio","tags":"addr:city:Teresina,addr:housenumber:1239,addr:street:Rua Lisandro Nogueira,addr:suburb:Centro,amenity:pharmacy,dispensing:yes,healthcare:pharmacy,operator:Particular","lat":-5.087791,"lng":-42.8154058},{"id":"6547799252","name":"Correios","tags":"addr:city:Teresina,addr:housenumber:1530,addr:postcode:64000-200,addr:street:Rua Lisandro Nogueira,addr:suburb:Centro,amenity:post_office,brand:Correios,brand:wikidata:Q3375004,brand:wikipedia:en:Correios,government:correspondencias,phone:+55 86 3221 3214","lat":-5.0866463,"lng":-42.8131919},{"id":"6548532739","name":"Centro Municipal de Educação Infantil Teresa Cristina","tags":"addr:city:Teresina,addr:housenumber:1642,addr:postcode:64000-280,addr:street:Rua Benjamin Constant,addr:suburb:Centro,amenity:school,operator:Prefeitura de Teresina,phone:+55 86 3215 7930","lat":-5.0847121,"lng":-42.8131404},{"id":"6548532744","name":"Diocesano - Educação Infantil","tags":"addr:city:Teresina,addr:housenumber:699,addr:postcode:64000-280,addr:street:Rua Benjamin Constant,addr:suburb:Centro,amenity:school,phone:+55 86 3221 4444","lat":-5.0882999,"lng":-42.8207117},{"id":"6548630211","name":"Banco do Nordeste","tags":"amenity:bank,brand:Banco do Nordeste,brand:wikidata:Q4854137,brand:wikipedia:en:Banco do Nordeste","lat":-5.0882055,"lng":-42.8177818},{"id":"6548630217","name":"LS Farma","tags":"addr:city:Teresina,addr:housenumber:452,addr:postcode:64000-090,addr:street:Rua Rui Barbosa,addr:suburb:Centro,amenity:pharmacy,dispensing:yes,healthcare:pharmacy,phone:+55 86 3029 2211","lat":-5.0889006,"lng":-42.8172259},{"id":"6548630220","name":"Extrafarma","tags":"addr:city:Teresina,addr:housenumber:982,addr:postcode:64000-060,addr:street:Rua Rui Barbosa,addr:suburb:Centro,amenity:pharmacy,brand:Extrafarma,brand:wikidata:Q20055480,brand:wikipedia:pt:Extrafarma,dispensing:yes,healthcare:pharmacy,phone:+55 86 99474 0524","lat":-5.0918572,"lng":-42.8159068},{"id":"6548630226","name":"Drogarias Globo","tags":"addr:city:Teresina,addr:postcode:64001-090,addr:street:Rua Rui Barbosa,addr:suburb:Centro,amenity:pharmacy,dispensing:yes,healthcare:pharmacy","lat":-5.0925251,"lng":-42.8155876},{"id":"6548674173","name":"Churrascaria Pannela's","tags":"addr:city:Teresina,addr:housenumber:1010,addr:postcode:64001-090,addr:street:Rua Rui Barbosa,addr:suburb:Centro,amenity:restaurant,phone:+55 86 3221 6390","lat":-5.0959533,"lng":-42.8136299},{"id":"6549848954","name":"Saborear Self Service","tags":"addr:city:Teresina,addr:housenumber:1220,addr:postcode:64000-120,addr:street:Rua Eliseu Martins,addr:suburb:Centro,amenity:restaurant,phone:+55 86 3222 4307","lat":-5.0895097,"lng":-42.8149459},{"id":"6549871406","name":"Livraria Universitária","tags":"addr:city:Teresina,addr:housenumber:1272,addr:postcode:64000-120,addr:street:Rua Eliseu Martins,addr:suburb:Centro,phone:+55 86 3223 8673,shop:books","lat":-5.0892225,"lng":-42.8143788},{"id":"6549883939","name":"Espeto na Brasa","tags":"addr:city:Teresina,addr:housenumber:1281,addr:postcode:64000-120,addr:street:Rua Eliseu Martins,addr:suburb:Centro,amenity:restaurant,phone:+55 86 3226 1383","lat":-5.089101,"lng":-42.8144164},{"id":"6549917408","name":"Artesani - Farmácia de Manipulação","tags":"addr:city:Teresina,addr:postcode:64001-210,addr:street:Rua 7 de Setembro,addr:suburb:Centro,amenity:pharmacy,dispensing:yes,healthcare:pharmacy,phone:+55 86 3221 8576","lat":-5.0927089,"lng":-42.8113044},{"id":"6549917414","name":"Educandario Santa Maria Goretti","tags":"addr:city:Teresina,addr:housenumber:1386,addr:postcode:64001-360,addr:street:Rua 7 de Setembro,addr:suburb:Centro,amenity:school,phone:+55 86 3217 1388","lat":-5.0962074,"lng":-42.8098688},{"id":"6550118077","name":"Extrafarma","tags":"amenity:pharmacy,brand:Extrafarma,brand:wikidata:Q20055480,brand:wikipedia:pt:Extrafarma,dispensing:yes,healthcare:pharmacy","lat":-5.0680639,"lng":-42.7834673},{"id":"6550118078","name":"Drograrias Globo","tags":"amenity:pharmacy,dispensing:yes,healthcare:pharmacy","lat":-5.0711372,"lng":-42.7826287},{"id":"6550118080","name":"Eugênio Fortes","tags":"addr:city:Teresina,addr:suburb:Fátima,leisure:fitness_centre","lat":-5.0669089,"lng":-42.7845116},{"id":"6550118081","name":"Restaurante Malaguetta","tags":"air_conditioning:yes,amenity:restaurant,cuisine:regional,phone:+55 86 3216-3961,wheelchair:yes","lat":-5.068076,"lng":-42.7830009},{"id":"6553217172","name":"Diocesano","tags":"addr:city:Teresina,addr:postcode:64001-210,addr:street:Rua 13 de Maio,addr:suburb:Centro,amenity:school","lat":-5.0951462,"lng":-42.8116406},{"id":"6553217175","name":"Maroça","tags":"addr:city:Teresina,addr:postcode:64000-040,addr:street:Rua Álvaro Mendes,addr:suburb:Centro,amenity:restaurant","lat":-5.0877869,"lng":-42.8081062},{"id":"6553217176","name":"Cei","tags":"addr:city:Teresina,addr:postcode:64002-470,addr:street:Rua Álvaro Mendes,addr:suburb:Centro,amenity:school","lat":-5.0874044,"lng":-42.8075155},{"id":"6553217177","name":"Alô Farmácia","tags":"addr:city:Teresina,addr:postcode:64001-370,addr:street:Rua Álvaro Mendes,addr:suburb:Centro,amenity:pharmacy,dispensing:yes,healthcare:pharmacy","lat":-5.0867314,"lng":-42.8059154},{"id":"6553217179","name":"Oxente","tags":"addr:city:Teresina,addr:postcode:64002-470,addr:street:Rua Álvaro Mendes,addr:suburb:Centro,amenity:restaurant","lat":-5.0875412,"lng":-42.807425},{"id":"6553217180","name":"Educandario Santa Maria","tags":"addr:city:Teresina,addr:postcode:64000-040,addr:street:Rua Álvaro Mendes,addr:suburb:Centro,amenity:school","lat":-5.0877807,"lng":-42.8078967},{"id":"6554205824","tags":"amenity:parking,operator:Metropolitan Hotel","lat":-5.0898572,"lng":-42.8096532},{"id":"6555728602","name":"Centro de Convivência e Fortalecimento de Vinculos","tags":"amenity:school","lat":-5.0836787,"lng":-42.8208256},{"id":"6555728614","tags":"addr:city:Teresina,addr:postcode:64000-400,addr:street:Rua Jonatas Batista,addr:suburb:Centro,shop:beauty","lat":-5.0810473,"lng":-42.815964},{"id":"6555728623","name":"Escola Superior de Magistrura","tags":"addr:city:Teresina,addr:postcode:64018-030,addr:street:Rua João Cabral,addr:suburb:Centro Norte,amenity:school","lat":-5.0843037,"lng":-42.8223506},{"id":"6555728624","name":"Farma Lucas","tags":"addr:city:Teresina,addr:postcode:64018-030,addr:street:Rua João Cabral,addr:suburb:Centro,amenity:pharmacy,dispensing:yes,healthcare:pharmacy","lat":-5.0847524,"lng":-42.822062},{"id":"6555728625","name":"Piraja Restaurante","tags":"addr:city:Teresina,addr:postcode:64018-030,addr:street:Rua João Cabral,addr:suburb:Centro,amenity:restaurant","lat":-5.0848938,"lng":-42.8219693},{"id":"6555728632","name":"Colegio Diocesano - Infantil","tags":"addr:city:Teresina,addr:postcode:64018-030,addr:street:Rua João Cabral,addr:suburb:Centro,amenity:school","lat":-5.0875747,"lng":-42.820644},{"id":"6555728635","name":"Mel Decorações","tags":"addr:city:Teresina,addr:postcode:64018-030,addr:street:Rua João Cabral,addr:suburb:Centro,shop:beauty","lat":-5.0878536,"lng":-42.8203962},{"id":"6555728656","name":"Mel Natural Produtos de Beleza","tags":"addr:city:Teresina,addr:postcode:64001-030,addr:street:Rua João Cabral,addr:suburb:Centro,organic:only,shop:supermarket","lat":-5.094713,"lng":-42.8165471},{"id":"6555728658","name":"NOVA FORMA","tags":"addr:city:Teresina,addr:postcode:64001-030,addr:street:Rua João Cabral,addr:suburb:Centro,amenity:pharmacy,dispensing:yes,healthcare:pharmacy","lat":-5.0949844,"lng":-42.816428},{"id":"6555728659","name":"A.M. Farma","tags":"addr:city:Teresina,addr:postcode:64001-160,addr:street:Rua Félix Pacheco,addr:suburb:Centro,amenity:pharmacy,dispensing:yes,healthcare:pharmacy","lat":-5.0951504,"lng":-42.8163857},{"id":"6555728662","name":"Natufarma","tags":"addr:city:Teresina,addr:postcode:64001-030,addr:street:Rua João Cabral,addr:suburb:Centro,amenity:pharmacy,dispensing:yes,healthcare:pharmacy","lat":-5.0954482,"lng":-42.8162508},{"id":"6556121023","name":"Livraria & Papelaria Piauiense","tags":"addr:city:Teresina,addr:housenumber:1932,addr:postcode:64001-020,addr:street:Avenida Frei Serafim,addr:suburb:Centro Sul,opening_hours:Mo-Fr 08:00-18:00; Sa 09:00-13:00,phone:+55 86 3223-7994,shop:books,website:https://www.livrariapiauiense.com.br/","lat":-5.0890519,"lng":-42.8078746},{"id":"6556968905","name":"Pintos","tags":"addr:city:Teresina,addr:housenumber:2170,addr:postcode:64001-020,addr:street:Avenida Frei Serafim,addr:suburb:Centro Sul,opening_hours:Mo-Fr 08:00-18:00; Sa 08:30-13:30,phone:+55 86 2107-4040,shop:convenience,website:https://www.pintos.com.br/","lat":-5.0881305,"lng":-42.8060579},{"id":"6557049342","name":"Curso Gilberto Campelo","tags":"addr:city:Teresina,addr:housenumber:2077,addr:postcode:64000-020,addr:street:Avenida Frei Serafim,addr:suburb:Centro Norte,amenity:school,phone:+55 86 3085-2848,website:https://gilbertocampelo.com.br/","lat":-5.0880772,"lng":-42.806833},{"id":"6557049348","tags":"amenity:parking","lat":-5.0884204,"lng":-42.8073701},{"id":"6557049349","name":"Colégio Objetivo 2","tags":"addr:city:Teresina,addr:housenumber:1989,addr:postcode:64000-020,addr:street:Avenida Frei Serafim,addr:suburb:Centro Norte,amenity:school,phone:+55 86 3304-2534,website:https://objetivoteresina.com.br/","lat":-5.0885079,"lng":-42.8075465},{"id":"6557049355","name":"Colégio Objetivo","tags":"addr:city:Teresina,addr:housenumber:1867,addr:postcode:64000-020,addr:street:Avenida Frei Serafim,addr:suburb:Centro Norte,amenity:school,phone:+55 86 3221-4272,website:https://objetivoteresina.com.br/","lat":-5.0889119,"lng":-42.8085869},{"id":"6558445378","name":"Olívio J. Fonseca & Cia LTDA.","tags":"addr:city:Teresina,addr:postcode:64000-390,addr:street:Rua Desembargador Pires de Castro,addr:suburb:Centro Norte,phone:+55 86 3087-2050,shop:convenience,website:http://oliviojfonseca.com.br/","lat":-5.0816279,"lng":-42.808836},{"id":"6558445380","name":"Farmafórmula Farmácia de Manipulação","tags":"addr:city:Teresina,addr:housenumber:722,addr:postcode:64000-390,addr:street:Rua Desembargador Pires de Castro,addr:suburb:Centro Norte,amenity:pharmacy,dispensing:yes,healthcare:pharmacy,phone:+55 86 3221-4334,website:https://farmaformula.com.br/","lat":-5.0817847,"lng":-42.8086112},{"id":"6558468836","name":"NEO HARDCORE ACADEMIA","tags":"addr:city:Teresina,addr:housenumber:687,addr:postcode:64001-230,addr:street:Rua 24 de Janeiro,addr:suburb:Centro-Sul,leisure:fitness_centre","lat":-5.096332,"lng":-42.8086733},{"id":"6558468838","name":"SALÃO DE BELEZA PLENA","tags":"addr:street:Rua 24 de Janeiro,addr:suburb:Centro-Sul,beauty:CABELO_E_MAQUIAGEM_PROFISSIONAIS,shop:beauty","lat":-5.0962451,"lng":-42.8087232},{"id":"6559068217","name":"Deguste Refeições","tags":"addr:city:Teresina,addr:housenumber:250,addr:postcode:64000-390,addr:street:Rua Desembargador Pires de Castro,addr:suburb:Centro Norte,amenity:restaurant,opening_hours:Mo-Fr 11:00-15:00,phone:+55 86 3221-8683","lat":-5.0857255,"lng":-42.806684},{"id":"6559068223","name":"Elementary Farmácia de Manipulação","tags":"addr:city:Teresina,addr:housenumber:165,addr:postcode:64000-390,addr:street:Rua Desembargador Pires de Castro,addr:suburb:Centro Norte,amenity:pharmacy,dispensing:yes,healthcare:pharmacy,opening_hours:Mo-Fr 07:00-18:00; Sa 07:00-12:00,phone:+55 86 3221-2013,website:https://business.google.com/website/elementary","lat":-5.0862743,"lng":-42.8064266},{"id":"6559068224","name":"Botica - Farmácia de Manipulação","tags":"addr:city:Teresina,addr:housenumber:124,addr:postcode:64000-390,addr:street:Rua Desembargador Pires de Castro,addr:suburb:Centro Norte,amenity:pharmacy,dispensing:yes,healthcare:pharmacy,opening_hours:Mo-Fr 07:30-18:00; Sa 07:30-12:00,phone:+55 86 3221-3204,website:https://farmaciabotica.com.br/","lat":-5.0864733,"lng":-42.8063234},{"id":"6561783117","name":"Farmácia Equilíbrio","tags":"addr:city:Teresina,addr:housenumber:49,addr:postcode:64001-390,addr:street:Rua Desembargador Pires de Castro,addr:suburb:Centro Sul,amenity:pharmacy,dispensing:yes,healthcare:pharmacy,opening_hours:Mo-Fr 07:30-18:30; Sa 08:00-13:00,phone:+55 86 2106-5900,website:https://equilibriofarma.com.br/","lat":-5.088127,"lng":-42.8054205},{"id":"6561929585","name":"CONCRETTA - Escola da Construção e Profissões","tags":"addr:city:Teresina,addr:housenumber:145,addr:postcode:64001-390,addr:street:Rua Desembargador Pires de Castro,addr:suburb:Centro Sul,amenity:school,phone:+55 86 3222-6737","lat":-5.0889084,"lng":-42.8051309},{"id":"6561929590","name":"Drogarias Globo","tags":"addr:city:Teresina,addr:housenumber:201,addr:postcode:64001-390,addr:street:Rua Desembargador Pires de Castro,addr:suburb:Centro Sul,amenity:pharmacy,dispensing:yes,healthcare:pharmacy,opening_hours:Mo-Fr 07:00-21:00; Sa 07:00-15:00,phone:+55 86 3303-4296,website:http://www.drogariasglobo.com.br/","lat":-5.0895674,"lng":-42.8048467},{"id":"6561929592","name":"Smell Studio de Beleza","tags":"addr:city:Teresina,addr:postcode:64001-390,addr:street:Rua Desembargador Pires de Castro,addr:suburb:Centro Sul,shop:beauty","lat":-5.0897237,"lng":-42.8047515},{"id":"6561932305","name":"Estetica Sara Linhares","tags":"addr:city:Teresina,addr:housenumber:797,addr:postcode:64001-390,addr:street:Rua Desembargador Pires de Castro,addr:suburb:Centro Sul,phone:+55 86 3085-3150,shop:beauty","lat":-5.0941777,"lng":-42.8026841},{"id":"6561959732","name":"Caixa Econômica Federal","tags":"addr:city:Teresina,addr:postcode:64000360,addr:street:Rua Riachuelo,addr:suburb:Centro,amenity:bank,brand:Caixa Econômica Federal,brand:wikidata:Q835283,brand:wikipedia:pt:Caixa Econômica Federal","lat":-5.0862643,"lng":-42.8204004},{"id":"6561959734","tags":"access:private,addr:city:Teresina,addr:postcode:64000360,addr:street:Rua Riachuelo,addr:suburb:Centro,amenity:parking,description:#geoprocessamentoIFPI,operator:Garagem,parking:surface","lat":-5.0869118,"lng":-42.8200544},{"id":"6561959744","tags":"access:yes,amenity:parking,description:#geoprocessamentoIFPI,parking:surface","lat":-5.0883641,"lng":-42.8192796},{"id":"6561985192","tags":"amenity:parking,description:#geoprocessamentoIFPI,operator:Estacionamento Rotativo","lat":-5.093802,"lng":-42.8165452},{"id":"6561985196","name":"Ana Luiza","tags":"addr:city:Teresina,addr:street:Rua Riachuelo,addr:suburb:Centro,amenity:school,description:#geoprocessamentoIFPI","lat":-5.0945837,"lng":-42.8160692},{"id":"6561985202","name":"CEU Grupo Educacional","tags":"addr:city:Teresina,addr:street:Rua Riachuelo,addr:suburb:Centro,amenity:school,description:#geoprocessamentoIFPI","lat":-5.0958223,"lng":-42.8155054},{"id":"6563455857","tags":"amenity:parking,operator:vila maguificat","lat":-5.0830244,"lng":-42.8169418},{"id":"6563455879","tags":"amenity:parking,capacity:20,operator:estacionmento rotativo","lat":-5.0860113,"lng":-42.8154648},{"id":"6563455881","name":"biofarma","tags":"amenity:pharmacy,dispensing:yes,healthcare:pharmacy","lat":-5.0860787,"lng":-42.8153749},{"id":"6563501787","tags":"amenity:parking,operator:estacionamento","lat":-5.086509,"lng":-42.8151601},{"id":"6563501792","tags":"amenity:parking,operator:estacionmento rotativo","lat":-5.0870742,"lng":-42.8148636},{"id":"6563501793","tags":"amenity:parking,operator:estacionamento rotativo","lat":-5.0871959,"lng":-42.8148813},{"id":"6563501796","tags":"amenity:parking,operator:estacionamento","lat":-5.0876797,"lng":-42.8146407},{"id":"6563501801","name":"hiper cred","tags":"amenity:bank","lat":-5.0880393,"lng":-42.8143699},{"id":"6563501805","tags":"amenity:atm,operator:agucide caixa","lat":-5.0881794,"lng":-42.814292},{"id":"6563501806","tags":"amenity:atm,operator:cred pi","lat":-5.0883821,"lng":-42.8142407},{"id":"6563501813","name":"MN credito","tags":"amenity:bank","lat":-5.0886509,"lng":-42.814093},{"id":"6563501824","name":"Droga Lopes","tags":"amenity:pharmacy,dispensing:yes,healthcare:pharmacy","lat":-5.0896329,"lng":-42.8135364},{"id":"6563501835","name":"livraria universitaria","tags":"shop:books","lat":-5.0904457,"lng":-42.8131124},{"id":"6563729945","tags":"access:yes,amenity:parking,description:#geoprocessamentoIFPI,operator:Estacionamento Rotativo","lat":-5.0850929,"lng":-42.8045846},{"id":"6563919209","tags":"amenity:parking,operator:estacionamento","lat":-5.0907301,"lng":-42.8129981},{"id":"6563919213","name":"Drogaria Fastimo","tags":"amenity:pharmacy,dispensing:yes,healthcare:pharmacy","lat":-5.0908265,"lng":-42.8130305},{"id":"6563919217","tags":"amenity:parking,parking:sheds","lat":-5.0917378,"lng":-42.8124905},{"id":"6563919220","name":"carquebola","tags":"amenity:restaurant","lat":-5.0928175,"lng":-42.8120491},{"id":"6563919252","name":"bernades cabelos","tags":"shop:beauty","lat":-5.096146,"lng":-42.8103818},{"id":"6564158693","name":"Trailer Sabor Brasil Restaurante","tags":"addr:city:Teresina,addr:street:Rua 19 de Novembro,addr:suburb:Centro,amenity:restaurant,cuisine:sandwich;regional;chicken,description:#geoprocessamentoIFPI,phone:+55 86 3223 7003","lat":-5.086366,"lng":-42.8039778},{"id":"6564158698","tags":"amenity:parking,description:#geoprocessamentoIFPI,operator:Cassi Estacionamento","lat":-5.0881345,"lng":-42.8027806},{"id":"6564158700","tags":"amenity:parking,description:#geoprocessamentoIFPI,operator:Estacionamento Amarelo","lat":-5.0885714,"lng":-42.8025493},{"id":"6564158704","tags":"amenity:parking,description:#geoprocessamentoIFPI,operator:Estacionamento Verde","lat":-5.0895485,"lng":-42.8020149},{"id":"6564158706","name":"Hospital Santa Maria - Exames","tags":"addr:city:Teresina,addr:street:Rua Taumaturgo de Azevedo,addr:suburb:Centro,amenity:hospital,description:#geoprocessamentoIFPI,healthcare:hospital","lat":-5.091402,"lng":-42.8023816},{"id":"6564158708","tags":"amenity:parking,operator:Estacionamento para Idoso do Ibis Hotel,parking:surface","lat":-5.0917218,"lng":-42.8031475},{"id":"6564158712","tags":"amenity:parking,operator:Estacionamento da Pensão da Naninha,phone:+55 86 3222 8617","lat":-5.0918602,"lng":-42.8034402},{"id":"6564158720","tags":"amenity:parking,description:#geoprocessamentoIFPI,operator:Estacionamento dos Pombos,parking:surface","lat":-5.0921895,"lng":-42.8042603},{"id":"6564196829","name":"Mercadinho e Papelaria Econpel","tags":"addr:city:Teresina,addr:street:Avenida Joaquim Ribeiro,addr:suburb:Centro,description:#geoprocessamentoIFPI,shop:convenience","lat":-5.0965221,"lng":-42.8034437},{"id":"6564196831","name":"Pet Point","tags":"addr:city:Teresina,addr:street:Avenida Joaquim Ribeiro,addr:suburb:Centro,description:Banho e Tosa\n\n#geoprocessamentoIFPI,phone:+55 86 3305 4417,shop:pet","lat":-5.0967599,"lng":-42.8038855},{"id":"6566811030","name":"Escola Estadual Godofredo Freire","tags":"addr:city:Teresina,addr:housenumber:s/n,addr:postcode:64018-640,addr:street:Avenida Miguel Rosa,addr:suburb:Piçarra,amenity:school","lat":-5.0957327,"lng":-42.8023707},{"id":"6566811034","name":"Bradesco","tags":"addr:city:Teresina,addr:housenumber:4016,addr:postcode:64001-490,addr:street:Avenida Miguel Rosa,addr:suburb:Centro Sul,amenity:bank,atm:yes,brand:Bradesco,brand:wikidata:Q806181,brand:wikipedia:en:Banco Bradesco,phone:+55 86 3221 8870","lat":-5.0945259,"lng":-42.801815},{"id":"6566811035","name":"Log Mais","tags":"addr:city:Teresina,addr:housenumber:s/n,addr:postcode:64001-490,addr:street:Avenida Miguel Rosa,addr:suburb:Piçarra,amenity:bank,description:Correspondente do Banco do Brasil","lat":-5.0932991,"lng":-42.8014687},{"id":"6566811043","name":"Colégio Teresina","tags":"addr:city:Teresina,addr:housenumber:3336,addr:postcode:64018-560,addr:street:Avenida Miguel Rosa,addr:suburb:Centro-Sul,amenity:school,phone:+55 86 3221 7326","lat":-5.0885207,"lng":-42.8018858},{"id":"6566811048","name":"Farmácias Pague Menos","tags":"addr:city:Teresina,addr:housenumber:3754,addr:postcode:64001-490,addr:street:Avenida Miguel Rosa,addr:suburb:Centro Sul,amenity:pharmacy,dispensing:yes,healthcare:pharmacy","lat":-5.092297,"lng":-42.8015632},{"id":"6568107455","tags":"amenity:parking,description:Estacionamento rotativo","lat":-5.0816436,"lng":-42.807816},{"id":"6568107469","name":"Sousa Cabelos","tags":"addr:street:Avenida Miguel Rosa,beauty:nails,description:Unissex\nManicure e pedicure\nAceita todos os cartões,shop:beauty","lat":-5.0808599,"lng":-42.8171035},{"id":"6568107471","name":"Drogaria Teresina","tags":"addr:city:Teresina,addr:housenumber:1190,addr:postcode:64001-490,addr:street:Avenida Miguel Rosa,addr:suburb:Centro Norte,amenity:pharmacy,dispensing:yes,healthcare:pharmacy,phone:+55 86 9 8182 3469","lat":-5.0807111,"lng":-42.8195891},{"id":"6568841967","name":"Escola São Paulo","tags":"addr:city:Teresina,addr:housenumber:4137,addr:postcode:64000-480,addr:street:Avenida Miguel Rosa,addr:suburb:Centro-Sul,amenity:school","lat":-5.0955572,"lng":-42.8020618},{"id":"6568841971","name":"Banco do Brasil","tags":"addr:city:Teresina,addr:housenumber:55,addr:street:Avenida Miguel Rosa,addr:suburb:Piçarra,amenity:bank,atm:yes,brand:Banco do Brasil,brand:wikidata:Q610817,brand:wikipedia:en:Banco do Brasil,phone:+55 86 3194 9700","lat":-5.0932542,"lng":-42.8009107},{"id":"6568841973","name":"Restaurante e Lanchonete Rio Branco","tags":"addr:city:Teresina,addr:housenumber:3765,addr:street:Avenida Miguel Rosa,addr:suburb:Centro Sul,amenity:restaurant","lat":-5.0923018,"lng":-42.80124},{"id":"6568841981","name":"Restaurante Rei do PF","tags":"addr:city:Teresina,addr:housenumber:2540,addr:postcode:64001-495,addr:street:Avenida Miguel Rosa,addr:suburb:Centro-Sul,amenity:restaurant,contact:mobile:+55 86 99441 7191","lat":-5.08722,"lng":-42.8025244},{"id":"6568841983","name":"Frei Serafim","tags":"addr:city:Teresina,addr:housenumber:2885,addr:postcode:64000-512,addr:street:Avenida Miguel Rosa,addr:suburb:Centro Sul,light_rail:yes,public_transport:station,railway:station,station:light_rail","lat":-5.0846932,"lng":-42.8038684},{"id":"6570995690","name":"Mercadinho Vitória","tags":"addr:street:Avenida Joaquim Ribeiro,opening_hours:09:00-21:00,payment:cash:yes,payment:credit_cards:yes,payment:mastercard:yes,payment:visa_debit:yes,shop:supermarket","lat":-5.0971395,"lng":-42.8044629},{"id":"6571006632","name":"Colégio CIERP","tags":"addr:city:Teresina,addr:street:Rua Barroso,addr:suburb:Centro-Sul,amenity:school","lat":-5.0971722,"lng":-42.8114026},{"id":"6571006633","name":"Viva Bem Drogaria","tags":"addr:city:Teresina,addr:street:Rua Barroso,addr:suburb:Centro-Sul,amenity:pharmacy,dispensing:yes,healthcare:pharmacy","lat":-5.097122,"lng":-42.8114287},{"id":"6571006636","name":"Carioquíssimo Restaurante e Lanchonete","tags":"amenity:restaurant","lat":-5.0968136,"lng":-42.811752},{"id":"6571006640","tags":"amenity:parking","lat":-5.0960103,"lng":-42.8119325},{"id":"6571022954","name":"Farmacia FTB","tags":"addr:city:Teresina,addr:street:Rua Barroso,addr:suburb:Centro,amenity:pharmacy,dispensing:yes,healthcare:pharmacy","lat":-5.0931339,"lng":-42.8134373},{"id":"6571022964","name":"Correios","tags":"addr:city:Teresina,addr:street:Rua Barroso,addr:suburb:Centro,amenity:post_office,brand:Correios,brand:wikidata:Q3375004,brand:wikipedia:en:Correios,operator:Correios,operator:wikidata:Q3375004,operator:wikipedia:en:Correios","lat":-5.0930536,"lng":-42.8134732},{"id":"6571022966","name":"Formula Farmacia de Manipulação","tags":"addr:city:Teresina,addr:street:Rua Barroso,addr:suburb:Centro,amenity:pharmacy,dispensing:yes,healthcare:pharmacy","lat":-5.0928582,"lng":-42.813716},{"id":"6571043565","tags":"amenity:parking","lat":-5.0975082,"lng":-42.8052469},{"id":"6571043566","name":"Huang patelaria","tags":"addr:street:Avenida Joaquim Ribeiro,amenity:restaurant,cuisine:pastel","lat":-5.0974744,"lng":-42.8052115},{"id":"6571043571","name":"Fábia Dourado","tags":"addr:city:Teresina,addr:street:Avenida Joaquim Ribeiro,addr:suburb:Centro-Sul,shop:beauty","lat":-5.0975182,"lng":-42.8053722},{"id":"6571109354","name":"Self-Service Aliança","tags":"addr:city:Teresina,addr:street:Rua Barroso,addr:suburb:Centro,amenity:restaurant","lat":-5.0923229,"lng":-42.8138522},{"id":"6571109358","name":"Come Bem","tags":"addr:city:Teresina,addr:street:Rua Barroso,addr:suburb:Centro,amenity:restaurant","lat":-5.0922094,"lng":-42.8139085},{"id":"6571109363","name":"Drogaria Santa Fé","tags":"amenity:pharmacy,dispensing:yes,healthcare:pharmacy","lat":-5.0919644,"lng":-42.8140281},{"id":"6572733912","name":"Temperos Restaurante","tags":"addr:street:Rua Ricardo Seabra,amenity:restaurant","lat":-5.0953725,"lng":-42.8029761},{"id":"6572772568","tags":"amenity:parking","lat":-5.0933709,"lng":-42.8171559},{"id":"6572772569","tags":"amenity:parking,description:Estacionamento Rotativo e Mensal","lat":-5.0932486,"lng":-42.81691},{"id":"6572772571","tags":"amenity:parking","lat":-5.0929109,"lng":-42.816457},{"id":"6572772575","name":"Edy Park","tags":"addr:city:Teresina,addr:housenumber:s/n,addr:postcode:64001-060,addr:street:Rua Senador Teodoro Pacheco,addr:suburb:Centro,amenity:parking","lat":-5.0926357,"lng":-42.8156979},{"id":"6572772576","name":"Farmácias FTB - Farmacia do Trabalhador","tags":"addr:city:Teresina,addr:housenumber:1013,addr:postcode:64001-060,addr:street:Rua Senador Teodoro Pacheco,addr:suburb:Centro,amenity:pharmacy,dispensing:yes,healthcare:pharmacy,phone:+55 86 3224 6449","lat":-5.0925307,"lng":-42.8154428},{"id":"6572812987","name":"Drogacenter","tags":"addr:city:Teresina,addr:housenumber:118,addr:postcode:64000-110,addr:street:Rua Senador Teodoro Pacheco,addr:suburb:Centro,amenity:pharmacy,dispensing:yes,healthcare:pharmacy","lat":-5.0916419,"lng":-42.8134691},{"id":"6572812988","name":"Restaurante e Panificadora Modelo","tags":"addr:city:Teresina,addr:housenumber:1212,addr:postcode:64001-060,addr:street:Rua Senador Teodoro Pacheco,addr:suburb:Centro,amenity:restaurant,phone:+55 86 3223 4460","lat":-5.0917042,"lng":-42.8135896},{"id":"6572812992","name":"Drogaria Santa Fé","tags":"addr:city:Teresina,addr:housenumber:1174,addr:postcode:64001-060,addr:street:Rua Senador Teodoro Pacheco,addr:suburb:Centro,amenity:pharmacy,dispensing:yes,healthcare:pharmacy,phone:+55 86 3221 2089","lat":-5.0918279,"lng":-42.8140531},{"id":"6572812996","name":"Drogarias Globo","tags":"addr:city:Teresina,addr:housenumber:1090,addr:postcode:64001-060,addr:street:Rua Senador Teodoro Pacheco,addr:suburb:Centro,amenity:pharmacy,dispensing:yes,healthcare:pharmacy,phone:+55 86 3305 2427","lat":-5.0921884,"lng":-42.8147501},{"id":"6572813002","name":"Pague Menos","tags":"addr:city:Teresina,addr:housenumber:1018,addr:postcode:64001-060,addr:street:Rua Senador Teodoro Pacheco,addr:suburb:Centro,amenity:pharmacy,brand:Pague Menos,brand:wikidata:Q7124466,brand:wikipedia:pt:Pague Menos,dispensing:yes,healthcare:pharmacy,phone:+55 86 3216 3140","lat":-5.092607,"lng":-42.8153764},{"id":"6572813008","tags":"amenity:parking","lat":-5.0930807,"lng":-42.8164941},{"id":"6572813010","name":"Self Service Aliança","tags":"addr:city:Teresina,addr:street:Rua Senador Teodoro Pacheco,addr:suburb:Centro,amenity:restaurant","lat":-5.0930805,"lng":-42.8165652},{"id":"6572932285","tags":"amenity:parking","lat":-5.0915454,"lng":-42.8142295},{"id":"6572932286","name":"Itaú","tags":"addr:city:Teresina,addr:street:Rua Barroso,addr:suburb:Centro,amenity:bank,brand:Itaú Unibanco,brand:wikidata:Q1424293,brand:wikipedia:pt:Itaú Unibanco","lat":-5.0913145,"lng":-42.8145834},{"id":"6572932310","tags":"amenity:parking","lat":-5.0887438,"lng":-42.8156639},{"id":"6572932316","name":"Restaurante Florida","tags":"addr:city:Teresina,addr:street:Rua Barroso,addr:suburb:Centro,amenity:restaurant","lat":-5.0883937,"lng":-42.8158541},{"id":"6572932319","tags":"access:yes,amenity:parking,fee:yes,parking:surface","lat":-5.0882228,"lng":-42.8159125},{"id":"6573430070","name":"Bradesco","tags":"addr:city:Teresina,addr:street:Rua Barroso,addr:suburb:Centro,amenity:bank,brand:Bradesco,brand:wikidata:Q806181,brand:wikipedia:en:Banco Bradesco","lat":-5.0876915,"lng":-42.8163695},{"id":"6573430071","name":"Casa do Grill","tags":"addr:city:Teresina,addr:street:Rua Barroso,addr:suburb:Centro,amenity:restaurant","lat":-5.0875611,"lng":-42.8164389},{"id":"6573430077","tags":"amenity:parking","lat":-5.0861696,"lng":-42.8169488},{"id":"6573430084","name":"Sampa Restaurante","tags":"addr:city:Teresina,addr:street:Rua Barroso,addr:suburb:Centro Norte,amenity:restaurant,phone:+55 86 99918 2209","lat":-5.085065,"lng":-42.8175104},{"id":"6573501087","name":"Advir","tags":"addr:city:Teresina,addr:street:Rua Barroso,addr:suburb:Centro Norte,amenity:school","lat":-5.0848376,"lng":-42.817621},{"id":"6573527013","name":"Colégio CPI","tags":"addr:city:Teresina,addr:street:Rua Doutor Area Leão,addr:suburb:Centro Norte,amenity:school","lat":-5.0856496,"lng":-42.8103876},{"id":"6573548798","name":"Drogaria Atlântica","tags":"addr:city:Teresina,addr:street:Rua Magalhães Filho,addr:suburb:Centro Sul,amenity:pharmacy,dispensing:yes,healthcare:pharmacy","lat":-5.0902098,"lng":-42.8062463},{"id":"6573548803","tags":"amenity:parking","lat":-5.0904856,"lng":-42.8061051},{"id":"6573548804","tags":"amenity:parking","lat":-5.0905685,"lng":-42.8060447},{"id":"6573548812","tags":"amenity:parking","lat":-5.0923562,"lng":-42.8052306},{"id":"6573548816","name":"Mulher Atual Centro de Beleza","tags":"addr:city:Teresina,addr:street:Rua Magalhães Filho,addr:suburb:Centro Sul,shop:beauty","lat":-5.0937295,"lng":-42.8047716},{"id":"6573548817","tags":"amenity:parking","lat":-5.0940978,"lng":-42.8045636},{"id":"6573548822","name":"Carminha Sabor do Nordeste","tags":"addr:city:Teresina,addr:street:Rua Magalhães Filho,addr:suburb:Centro Sul,amenity:restaurant","lat":-5.0964284,"lng":-42.8033926},{"id":"6573555091","name":"Mercearia Kristiane","tags":"addr:city:Teresina,addr:street:Rua Santa Luzia,addr:suburb:Centro,shop:convenience","lat":-5.0958935,"lng":-42.8068563},{"id":"6573555092","name":"CSCJ infantil","tags":"amenity:school","lat":-5.0878018,"lng":-42.8093923},{"id":"6573555099","name":"Rio Branco","tags":"addr:city:Teresina,addr:street:Rua Doutor Area Leão,addr:suburb:Centro,amenity:restaurant","lat":-5.0905479,"lng":-42.8081362},{"id":"6573555110","tags":"access:yes,amenity:parking,operator:Estacionamento rotativo","lat":-5.0920431,"lng":-42.807456},{"id":"6573602060","name":"Farmácia Menor Preço","tags":"addr:city:Teresina,addr:housenumber:760,addr:street:Avenida Campos Sales,addr:suburb:Centro,amenity:pharmacy,dispensing:yes,healthcare:pharmacy","lat":-5.0869577,"lng":-42.8207839},{"id":"6573602063","name":"Restaurante Comida de Casa","tags":"addr:city:Teresina,addr:street:Avenida Campos Sales,addr:suburb:Centro,amenity:restaurant,phone:+55 86 3305 0819","lat":-5.0866424,"lng":-42.8202805},{"id":"6573602065","name":"Espaço Beta Medical","tags":"addr:city:Teresina,addr:street:Avenida Campos Sales,addr:suburb:Centro,beauty:nails,shop:beauty,website:https://www.instagram.com/espacobetamedicalthe/","lat":-5.0859981,"lng":-42.8189933},{"id":"6573602070","name":"Anne Beleza","tags":"addr:city:Teresina,addr:street:Avenida Campos Sales,addr:suburb:Centro,shop:beauty","lat":-5.0849499,"lng":-42.8169007},{"id":"6573602073","name":"Brasileirinho Comida Típica Delivery","tags":"addr:city:Teresina,addr:housenumber:1300B,addr:street:Avenida Campos Sales,addr:suburb:Centro,amenity:restaurant,phone:+55 86 3223 5161,website:https://www.brasileirinhodelivery.com.br/","lat":-5.0847737,"lng":-42.816413},{"id":"6573634491","name":"Colégio Teresa D'Ávila","tags":"addr:city:Teresina,addr:housenumber:1930,addr:street:Avenida Campos Sales,addr:suburb:Centro,amenity:school,phone:+55 86 3222 7774/ 3222 5050","lat":-5.082281,"lng":-42.8113462},{"id":"6573634495","name":"Aiko Sushi","tags":"addr:city:Teresina,addr:housenumber:2094/01,addr:street:Avenida Campos Sales,addr:suburb:Centro,amenity:restaurant,cuisine:sushi","lat":-5.0816319,"lng":-42.810008},{"id":"6575287359","name":"Mercearia","tags":"addr:city:Teresina,addr:street:Rua Doutor Area Leão,addr:suburb:Centro,shop:convenience","lat":-5.0953978,"lng":-42.805722},{"id":"6575337826","name":"CEAD/UFPI","tags":"addr:city:Teresina,addr:street:Rua Olavo Bilac,addr:suburb:Centro,amenity:school","lat":-5.0953981,"lng":-42.8125879},{"id":"6575337828","tags":"access:yes,amenity:parking,parking:surface","lat":-5.0952187,"lng":-42.8122477},{"id":"6575414957","name":"Salão de Beleza dos Fios","tags":"addr:city:Teresina,addr:housenumber:433,addr:postcode:64001-230,addr:street:Rua 24 de Janeiro,addr:suburb:Centro,phone:+55 86 9 9530 8430,shop:beauty","lat":-5.0939949,"lng":-42.8097333},{"id":"6575414962","name":"FARMACIA DE DISPENSAÇÃO DE MEDICAMENTOS EXCEPCIONAIS","tags":"addr:city:Teresina,addr:housenumber:124,addr:street:Rua 24 de Janeiro,addr:suburb:Centro Norte,amenity:pharmacy,dispensing:yes,healthcare:pharmacy","lat":-5.0895546,"lng":-42.8119137},{"id":"6575414965","name":"Shekinah","tags":"addr:city:Teresina,addr:housenumber:295,addr:street:Rua 24 de Janeiro,addr:suburb:Centro,phone:+55 86 3221 2202,shop:books","lat":-5.0880624,"lng":-42.8126311},{"id":"6575414966","name":"Complexo de Delegacias Especializadas","tags":"addr:city:Teresina,addr:housenumber:500,addr:street:Rua 24 de Janeiro,addr:suburb:Centro,amenity:police,operator:SECRETARIA DE SEGURANÇA PÚBLICA DO PIAUÍ","lat":-5.0863866,"lng":-42.8134977},{"id":"6575551114","name":"RESTAURANTE CUIÉ DE PAU","tags":"addr:city:Teresina,addr:street:Rua 24 de Janeiro,addr:suburb:Centro Norte,amenity:restaurant","lat":-5.0895657,"lng":-42.812044},{"id":"6575768485","name":"70 Drinks","tags":"addr:city:Teresina,addr:street:Rua Olavo Bilac,addr:suburb:Centro,amenity:nightclub","lat":-5.0960136,"lng":-42.8137916},{"id":"6575768487","name":"Nova Aliança Livraria e Editora","tags":"addr:city:Teresina,addr:street:Rua Olavo Bilac,addr:suburb:Centro,shop:books","lat":-5.0946603,"lng":-42.8117596},{"id":"6575768490","name":"Francisca Cabelos","tags":"addr:city:Teresina,addr:street:Rua Olavo Bilac,addr:suburb:Centro,shop:beauty","lat":-5.0947999,"lng":-42.8115301},{"id":"6575768498","tags":"amenity:parking","lat":-5.0939729,"lng":-42.8102532},{"id":"6575768501","name":"Museu de Arte Sacra Dom Paulo Libório","tags":"addr:city:Teresina,addr:street:Rua Olavo Bilac,addr:suburb:Centro,tourism:museum","lat":-5.0938332,"lng":-42.8099748},{"id":"6575768503","name":"Self-service Açaí","tags":"addr:city:Teresina,addr:street:Rua Olavo Bilac,addr:suburb:Centro,amenity:restaurant","lat":-5.0936914,"lng":-42.8097003},{"id":"6575768506","tags":"amenity:parking","lat":-5.0937542,"lng":-42.8093101},{"id":"6575768516","name":"Philofarma","tags":"addr:city:Teresina,addr:street:Rua Olavo Bilac,addr:suburb:Centro,amenity:pharmacy,dispensing:yes,healthcare:pharmacy","lat":-5.0928959,"lng":-42.8077043},{"id":"6575768517","tags":"amenity:parking","lat":-5.0927417,"lng":-42.8077964},{"id":"6575768520","name":"BioFarma","tags":"addr:city:Teresina,addr:street:Rua Olavo Bilac,addr:suburb:Centro,amenity:pharmacy,dispensing:yes,healthcare:pharmacy","lat":-5.0926571,"lng":-42.8073389},{"id":"6575768521","tags":"amenity:parking","lat":-5.0923184,"lng":-42.8069001},{"id":"6575768523","name":"Escolinha e Creche Sonho Azul","tags":"addr:city:Teresina,addr:street:Rua Olavo Bilac,addr:suburb:Centro,amenity:school","lat":-5.0923195,"lng":-42.8065989},{"id":"6575768528","name":"Virginia Barros Beleza e Estética","tags":"addr:city:Teresina,addr:street:Rua Olavo Bilac,addr:suburb:Centro,shop:beauty","lat":-5.0915935,"lng":-42.8053943},{"id":"6575768533","tags":"amenity:parking","lat":-5.0914055,"lng":-42.8046062},{"id":"6575768535","name":"Gran Café","tags":"addr:city:Teresina,addr:street:Rua Olavo Bilac,addr:suburb:Centro,amenity:cafe","lat":-5.09132,"lng":-42.8044882},{"id":"6575768537","name":"Linda de Viver","tags":"addr:city:Teresina,addr:street:Rua Olavo Bilac,addr:suburb:Centro,shop:beauty","lat":-5.0911243,"lng":-42.8044042},{"id":"6575768540","name":"Alô Farmacia","tags":"addr:city:Teresina,addr:street:Rua Olavo Bilac,addr:suburb:Centro,amenity:pharmacy,dispensing:yes,healthcare:pharmacy","lat":-5.0911226,"lng":-42.8040286},{"id":"6575768545","tags":"amenity:parking","lat":-5.0907666,"lng":-42.8037269},{"id":"6577279046","name":"SESC/SENAC","tags":"amenity:school","lat":-5.0854266,"lng":-42.8180919},{"id":"6577279048","name":"Demóstenes Academia","tags":"leisure:fitness_centre","lat":-5.0848764,"lng":-42.8170146},{"id":"6577368814","name":"Academia Ricardo Paraguassú","tags":"addr:city:Teresina,addr:housenumber:1617,addr:street:Avenida Campos Sales,addr:suburb:Centro,leisure:fitness_centre","lat":-5.0833807,"lng":-42.8139259},{"id":"6577368822","name":"Sell Clinica de Saúde & Beleza","tags":"addr:city:Teresina,addr:housenumber:1859,addr:street:Avenida Campos Sales,addr:suburb:Centro,beauty:nails,phone:+55 86 3220 5234,shop:beauty","lat":-5.0825798,"lng":-42.8122573},{"id":"6577368824","name":"UNIP - Universidade Paulista","tags":"addr:city:Teresina,addr:housenumber:1895,addr:street:Avenida Campos Sales,addr:suburb:Centro,amenity:university","lat":-5.0823421,"lng":-42.8118151},{"id":"6578788379","name":"CANTINHO DO SABOR","tags":"amenity:restaurant","lat":-5.0886701,"lng":-42.8165788},{"id":"6578788384","name":"Drogarias Globo","tags":"amenity:pharmacy,dispensing:yes,healthcare:pharmacy","lat":-5.0894534,"lng":-42.8161926},{"id":"6578840887","name":"Caixa Econômica Federal","tags":"addr:city:Teresina,addr:housenumber:318,addr:postcode:64000-140,addr:street:Rua Simplício Mendes,addr:suburb:Centro,amenity:bank,atm:yes,brand:Caixa Econômica Federal,brand:wikidata:Q835283,brand:wikipedia:pt:Caixa Econômica Federal,drive_through:no","lat":-5.0898385,"lng":-42.8159604},{"id":"6578840888","name":"Teresina Self-Service e Lanches","tags":"amenity:restaurant,phone:+55 86 3222 5284","lat":-5.0899908,"lng":-42.8159077},{"id":"6578840898","name":"Toque Special","tags":"description:acessórios para pet e utensílios para casa,shop:pet","lat":-5.0916634,"lng":-42.8150601},{"id":"6578840899","name":"Self-Service Bom Bocado","tags":"amenity:restaurant","lat":-5.0918677,"lng":-42.8149531},{"id":"6578937989","name":"Livraria Margarida","tags":"shop:books","lat":-5.087981,"lng":-42.8170082},{"id":"6578938005","name":"ProntoFarma","tags":"amenity:pharmacy,description:Faz entrega,dispensing:yes,healthcare:pharmacy,phone:+55 86 3221 5152","lat":-5.0892539,"lng":-42.8163627},{"id":"6582895134","name":"São Jorge","tags":"addr:city:Teresina,addr:postcode:64000-070,addr:street:Rua Firmino Pires,addr:suburb:Centro Norte,opening_hours:Mo-Fr 08:00-18:00; Sa 08:00-12:30,phone:+55 86 3221-4829,shop:convenience","lat":-5.0918433,"lng":-42.8167537},{"id":"6582895136","tags":"amenity:parking,operator:Ministério da Fazenda","lat":-5.0916416,"lng":-42.8168342},{"id":"6582895137","name":"Gaiolândia Festas","tags":"addr:city:Teresina,addr:postcode:64000-070,addr:street:Rua Firmino Pires,addr:suburb:Centro Norte,shop:convenience","lat":-5.0896967,"lng":-42.8178682},{"id":"6582895138","name":"Assis Rações","tags":"addr:city:Teresina,addr:housenumber:436,addr:postcode:64000-070,addr:street:Rua Firmino Pires,addr:suburb:Centro Norte,opening_hours:Mo-Fr 08:00-18:00; Sa 08:00-12:00,phone:+55 86 3221-6264,shop:convenience","lat":-5.089495,"lng":-42.8179547},{"id":"6582895140","name":"DVT Variedades","tags":"addr:city:Teresina,addr:postcode:64000-070,addr:street:Rua Firmino Pires,addr:suburb:Centro Norte,shop:convenience","lat":-5.0890151,"lng":-42.818133},{"id":"6582895141","name":"Dita Bendita Variedades","tags":"addr:city:Teresina,addr:housenumber:512,addr:postcode:64000-070,addr:street:Rua Firmino Pires,addr:suburb:Centro Norte,opening_hours:Mo-Fr 08:00-18:00; Sa 08:00-13:00,phone:+55 86 (86) 3236-2292,shop:convenience","lat":-5.0889283,"lng":-42.8181914},{"id":"6582895144","name":"Oliveira Variedades","tags":"addr:city:Teresina,addr:housenumber:532,addr:postcode:64000-070,addr:street:Rua Firmino Pires,addr:suburb:Centro Norte,opening_hours:Mo-Fr 08:00-18:00; Sa 08:00-13:00,phone:+55 86 3222-2790,shop:convenience","lat":-5.0887426,"lng":-42.8183051},{"id":"6582895145","name":"Espaço Sombra Cursos Técnicos","tags":"addr:city:Teresina,addr:postcode:64000-070,addr:street:Rua Firmino Pires,addr:suburb:Centro Norte,amenity:school","lat":-5.0873457,"lng":-42.8190262},{"id":"6582895147","name":"Escola Santa Helena","tags":"addr:city:Teresina,addr:housenumber:880,addr:postcode:64000-070,addr:street:Rua Firmino Pires,addr:suburb:Centro Norte,amenity:school,website:http://www.escolasantahelena.com.br/contato","lat":-5.0859002,"lng":-42.8197639},{"id":"6584103612","name":"Galeria Center","tags":"addr:city:Teresina,addr:housenumber:1470,addr:street:Rua Desembargador Freitas,addr:suburb:Centro,shop:mall","lat":-5.0861481,"lng":-42.8140341},{"id":"6587737136","name":"Botica Farmácia de Manipulação","tags":"addr:city:Teresina,addr:housenumber:2160,addr:postcode:64001-120,addr:street:Rua Paissandu,addr:suburb:Centro Sul,amenity:pharmacy,dispensing:yes,drive_through:no,healthcare:pharmacy,opening_hours:Mo-Fr 07:00-18:00; Sa 07:00-12:00,payment:cash:yes,payment:credit_cards:yes,payment:debit_cards:yes,payment:mastercard:yes,payment:telephone_cards:yes,payment:visa:yes,phone:+55 86 3212 3204,website:https://www.farmaciabotica.com.br/","lat":-5.0887659,"lng":-42.8053753},{"id":"6587737138","name":"Ô de Casa","tags":"addr:city:Teresina,addr:postcode:64001-120,addr:street:Rua Paissandu,addr:suburb:Centro Sul,amenity:restaurant","lat":-5.0888035,"lng":-42.8056256},{"id":"6587737143","name":"Med Imagem","tags":"addr:city:Teresina,addr:postcode:64001-120,addr:street:Rua Paissandu,addr:suburb:Centro Sul,amenity:hospital,healthcare:hospital","lat":-5.0897143,"lng":-42.8076256},{"id":"6587737144","name":"Med Imagem","tags":"addr:city:Teresina,addr:postcode:64001-120,addr:street:Rua Paissandu,addr:suburb:Centro Sul,amenity:hospital,healthcare:hospital","lat":-5.089918,"lng":-42.8078355},{"id":"6587737145","name":"Med Imagem","tags":"addr:city:Teresina,addr:housenumber:1862,addr:postcode:64001-120,addr:street:Rua Paissandu,addr:suburb:Centro Sul,amenity:hospital,healthcare:hospital,phone:+55 86 3131-1234,website:https://medimagem.com.br/","lat":-5.08991,"lng":-42.808042},{"id":"6587737146","name":"Sabor Brasil","tags":"addr:city:Teresina,addr:postcode:64001-120,addr:street:Rua Paissandu,addr:suburb:Centro Sul,amenity:restaurant,opening_hours:Mo-Su 11:30-14:30,phone:+55 86 3223-7003","lat":-5.0898152,"lng":-42.8076182},{"id":"6592819183","name":"Salão Designer","tags":"addr:city:Teresina,addr:housenumber:1257,addr:postcode:64000-240,addr:street:Rua Desembargador Freitas,addr:suburb:Centro,phone:+55 (86) 3083-0193,shop:beauty","lat":-5.0868497,"lng":-42.8157002},{"id":"6597313150","tags":"amenity:parking,operator:GPark Estacionamento","lat":-5.0871148,"lng":-42.8161377},{"id":"6597313154","name":"Restaurante Boa Mesa","tags":"addr:city:Teresina,addr:housenumber:1045,addr:street:Rua Desembargador Freitas,addr:suburb:Centro,amenity:restaurant,description:(R$10,00)","lat":-5.087805,"lng":-42.8174352},{"id":"6605189190","name":"Ativa Promotora","tags":"addr:city:Teresina,addr:housenumber:990,addr:postcode:64001-120,addr:street:Rua Paisandu,addr:suburb:Centro Sul,amenity:bank,phone:+55 86 3221-3194","lat":-5.0934377,"lng":-42.8151197},{"id":"6605324231","name":"Cetesp","tags":"addr:city:Teresina,addr:housenumber:1627,addr:postcode:64001-120,addr:street:Rua Paissandu,addr:suburb:Centro Sul,amenity:school","lat":-5.0906259,"lng":-42.8093768},{"id":"6605324233","name":"Podium Concursos","tags":"addr:city:Teresina,addr:housenumber:1669,addr:postcode:64001-120,addr:street:Rua Paissandu,addr:suburb:Centro Sul,amenity:school,phone:+55 86 3304-5631,website:https://preparatoriopodium.com.br/","lat":-5.0906406,"lng":-42.8095565},{"id":"6605324234","name":"UNINTER","tags":"addr:city:Teresina,addr:postcode:64001-120,addr:street:Rua Paissandu,addr:suburb:Centro Sul,amenity:school,phone:+55 86 3305-8117,website:https://www.uninter.com/","lat":-5.0907094,"lng":-42.8095867},{"id":"6605324238","name":"Equação Certa","tags":"addr:city:Teresina,addr:housenumber:1600,addr:postcode:64001-120,addr:street:Rua Paissandu,addr:suburb:Centro Sul,amenity:school,phone:+55 86 3221-4474,website:http://equacaocerta.com.br/","lat":-5.0910231,"lng":-42.8101857},{"id":"6605324241","name":"Porco & Cia","tags":"addr:city:Teresina,addr:housenumber:1532,addr:postcode:64001-120,addr:street:Rua Paissandu,addr:suburb:Centro Sul,amenity:restaurant,opening_hours:Mo-Su 07:00-18:30,phone:+55 86 3221-3940","lat":-5.0912899,"lng":-42.8107413},{"id":"6605324242","name":"Colégio Acadêmicko's","tags":"addr:city:Teresina,addr:housenumber:1530,addr:postcode:64001-120,addr:street:Rua Paissandu,addr:suburb:Centro Sul,amenity:school,phone:+55 86 3223-0194","lat":-5.0913253,"lng":-42.8108117},{"id":"6605324245","name":"Restaurante Popular","tags":"addr:city:Teresina,addr:postcode:64001-120,addr:street:Rua Paisandu,addr:suburb:Centro Sul,amenity:restaurant,opening_hours:Mo-Fr 11:00-14:00","lat":-5.0918307,"lng":-42.8119616},{"id":"6605395317","name":"Pague Menos","tags":"addr:city:Teresina,addr:postcode:64001-120,addr:street:Rua Paisandu,addr:suburb:Centro Sul,amenity:pharmacy,brand:Pague Menos,brand:wikidata:Q7124466,brand:wikipedia:pt:Pague Menos,dispensing:yes,drive_through:yes,healthcare:pharmacy","lat":-5.0930675,"lng":-42.8143058},{"id":"6605395320","name":"Paulinas Livraria","tags":"addr:city:Teresina,addr:housenumber:1033,addr:postcode:64001-120,addr:street:Rua Paisandu,addr:suburb:Centro Sul,phone:+55 86 3221-3190,shop:books,website:https://www.paulinas.org.br/teresina/","lat":-5.0932271,"lng":-42.8148059},{"id":"6614502312","name":"R. Damásio","tags":"addr:city:Teresina,addr:housenumber:806,addr:postcode:64001-260,addr:street:Rua São Pedro,addr:suburb:Centro Sul,phone:+55 86 3131-8300,shop:supermarket","lat":-5.0955433,"lng":-42.8152692},{"id":"6614502313","name":"100% Drinks","tags":"addr:city:Teresina,addr:housenumber:905,addr:postcode:64001-260,addr:street:Rua São Pedro,addr:suburb:Centro Sul,amenity:bar,phone:+55 86 99807-6684","lat":-5.0954178,"lng":-42.8150197},{"id":"6614502327","name":"Escola Educompany","tags":"addr:city:Teresina,addr:housenumber:1344,addr:postcode:64001-260,addr:street:Rua São Pedro,addr:suburb:Centro Sul,amenity:school,phone:+55 86 3221-8206,website:http://www.educompanybrasil.com.br/fale-conosco/","lat":-5.0932165,"lng":-42.8106774},{"id":"6614502330","name":"Sicredi","tags":"addr:city:Teresina,addr:housenumber:1465,addr:postcode:64001-260,addr:street:Rua São Pedro,addr:suburb:Centro Sul,amenity:bank,brand:Sicredi,brand:wikidata:Q3483060,brand:wikipedia:pt:Sistema de Crédito Cooperativo,phone:+55 86 3089-7000,website:https://www.sicredi.com.br/site/home","lat":-5.0931201,"lng":-42.8105004},{"id":"6614502335","name":"UNINASSAU","tags":"addr:city:Teresina,addr:housenumber:965,addr:postcode:64001-260,addr:street:Rua São Pedro,addr:suburb:Centro Sul,amenity:school,phone:+55 86 3194-1800,website:https://www.uninassau.edu.br/","lat":-5.0923891,"lng":-42.8090523},{"id":"6614502336","name":"ABCD","tags":"addr:city:Teresina,addr:housenumber:1646,addr:postcode:64001-260,addr:street:Rua São Pedro,addr:suburb:Centro Sul,amenity:school,phone:+55 86 3223-5522,website:https://abcdpiaui.com.br/site/","lat":-5.0924572,"lng":-42.8089712},{"id":"6614502337","name":"UNINASSAU Odontologia","tags":"addr:city:Teresina,addr:postcode:64001-260,addr:street:Rua São Pedro,addr:suburb:Centro Sul,amenity:school","lat":-5.0923376,"lng":-42.8089276},{"id":"6614502344","name":"Salão Barbearia Carvalho","tags":"addr:city:Teresina,addr:postcode:64001-260,addr:street:Rua São Pedro,addr:suburb:Centro Sul,shop:beauty","lat":-5.091666,"lng":-42.8073053},{"id":"6614628636","name":"Botica Farmácia de Manipulação","tags":"addr:city:Teresina,addr:housenumber:2130,addr:postcode:64001-260,addr:street:Rua São Pedro,addr:suburb:Centro Sul,amenity:pharmacy,dispensing:yes,healthcare:pharmacy,phone:+55 86 3221-3204,website:https://farmaciabotica.com.br/","lat":-5.0905643,"lng":-42.8050498},{"id":"6614628639","name":"Pague Menos","tags":"addr:city:Teresina,addr:postcode:64001-260,addr:street:Rua São Pedro,addr:suburb:Centro Sul,amenity:pharmacy,brand:Pague Menos,brand:wikidata:Q7124466,brand:wikipedia:pt:Pague Menos,dispensing:yes,healthcare:pharmacy","lat":-5.0902435,"lng":-42.8046916},{"id":"6614628640","name":"Galeno","tags":"addr:city:Teresina,addr:housenumber:2235,addr:postcode:64001-260,addr:street:Rua São Pedro,addr:suburb:Centro Sul,amenity:pharmacy,dispensing:yes,healthcare:pharmacy","lat":-5.0901269,"lng":-42.8043241},{"id":"6634410433","name":"Início de estacionamento permitido","tags":"amenity:parking,parking:surface","lat":-5.0881094,"lng":-42.8126775},{"id":"6634410434","name":"Vaga para idoso;Fim do estacionamento permitido","tags":"amenity:parking","lat":-5.0876517,"lng":-42.8129171},{"id":"6634410435","name":"Estac. para idoso;Carga e descarga","tags":"amenity:parking,parking:surface","lat":-5.0864428,"lng":-42.8135323},{"id":"6634410436","name":"Estacionamento permitido","tags":"amenity:parking","lat":-5.0847289,"lng":-42.8144092},{"id":"6634410438","name":"Estacionamento para táxi","tags":"amenity:parking","lat":-5.0840321,"lng":-42.8147632},{"id":"6634410451","name":"Estac. para idoso e deficiente","tags":"amenity:parking","lat":-5.0916291,"lng":-42.8135617},{"id":"6634410455","name":"Estacionamento idoso","tags":"amenity:parking","lat":-5.0922081,"lng":-42.814701},{"id":"6634410458","name":"Início - estacionamento táxi","tags":"amenity:parking","lat":-5.0923566,"lng":-42.8149908},{"id":"6634410459","name":"Fim - estacionamento táxi","tags":"amenity:parking","lat":-5.0924878,"lng":-42.8152479},{"id":"6634410462","name":"Estacionamento para táxi","tags":"amenity:parking","lat":-5.0894993,"lng":-42.8205884},{"id":"6634592491","name":"Estac. carga e descarga","tags":"amenity:parking","lat":-5.0929801,"lng":-42.8144452},{"id":"6634592500","name":"Inicío - estacionamento táxi","tags":"amenity:parking","lat":-5.0893002,"lng":-42.8162921},{"id":"6634592501","name":"Fim - estacionamento táxi","tags":"amenity:parking","lat":-5.0890908,"lng":-42.8164034},{"id":"6634592502","name":"Estacionamento para veículos oficiais","tags":"amenity:parking","lat":-5.0889413,"lng":-42.8164774},{"id":"6634592503","name":"Estacionamento para idoso","tags":"amenity:parking","lat":-5.0878361,"lng":-42.8170543},{"id":"6634592504","name":"Estac. táxi","tags":"amenity:parking","lat":-5.0875751,"lng":-42.8171834},{"id":"6636326157","tags":"access:yes,amenity:parking,surface:asphalt","lat":-5.087358,"lng":-42.8139362},{"id":"6636326158","tags":"access:yes,amenity:parking","lat":-5.0868597,"lng":-42.814191},{"id":"6636446138","tags":"amenity:parking","lat":-5.0901248,"lng":-42.816916},{"id":"6638599529","tags":"amenity:parking,operator:VAGA ESPECIAL","lat":-5.0890861,"lng":-42.814736},{"id":"6638599530","tags":"amenity:parking,operator:VAGA PARA IDOSO","lat":-5.0891636,"lng":-42.8147185},{"id":"6638599531","tags":"amenity:parking,operator:INICIO","lat":-5.0878878,"lng":-42.8153435},{"id":"6638599532","tags":"amenity:parking,operator:FIM","lat":-5.0885063,"lng":-42.8150216},{"id":"6638599533","tags":"amenity:parking,operator:IDOSO","lat":-5.088517,"lng":-42.8150136},{"id":"6638599536","tags":"amenity:parking,operator:INICIO","lat":-5.0871069,"lng":-42.8157484},{"id":"6638599537","tags":"amenity:parking,operator:FIM","lat":-5.0876539,"lng":-42.815444},{"id":"6638599538","tags":"amenity:parking,operator:INICIO MOTO","lat":-5.0900556,"lng":-42.814247},{"id":"6638599539","tags":"amenity:parking,operator:FIM MOTO","lat":-5.0901415,"lng":-42.8141946},{"id":"6638599541","tags":"amenity:parking,operator:VAGA PARA DEFICIENTE","lat":-5.0846135,"lng":-42.8136824},{"id":"6638599542","tags":"amenity:parking,operator:VAGA PARA DEFICIENTE","lat":-5.0845988,"lng":-42.8136681},{"id":"6638599546","tags":"amenity:parking,operator:INICIO","lat":-5.092507,"lng":-42.8129996},{"id":"6638599547","tags":"amenity:parking,operator:FIM TAXI","lat":-5.0931752,"lng":-42.8126846},{"id":"6638647779","tags":"amenity:parking,operator:VAGA PARA CADEIRANTE","lat":-5.0900256,"lng":-42.8123831},{"id":"6638647784","tags":"amenity:parking,parking:lane","lat":-5.0890912,"lng":-42.8105264},{"id":"6638662040","tags":"amenity:parking,operator:INICIO,parking:surface","lat":-5.092049,"lng":-42.801485},{"id":"6638662041","tags":"amenity:parking,operator:FIM","lat":-5.0921483,"lng":-42.801714},{"id":"6638662042","tags":"amenity:parking,operator:INICIO","lat":-5.0922382,"lng":-42.8019022},{"id":"6638662043","tags":"amenity:parking,operator:FIM","lat":-5.0925233,"lng":-42.8024468},{"id":"6638668785","tags":"amenity:parking,parking:lane","lat":-5.0888287,"lng":-42.8099889},{"id":"6638668787","tags":"amenity:parking,parking:lane","lat":-5.0887308,"lng":-42.8097965},{"id":"6638668788","tags":"amenity:parking","lat":-5.0884101,"lng":-42.8091524},{"id":"6718422144","name":"Smart Fit","tags":"addr:city:Teresina,addr:housenumber:1000,addr:street:Avenida Raul Lopes,addr:suburb:Bairro dos Noivos,brand:Smart Fit,brand:wikidata:Q30930959,brand:wikipedia:pt:Smart Fit,leisure:fitness_centre,opening_hours:Mo-Fr 06:00-23:00, Sa 06:00-18:00, Mo 09:00-15:00,sport:bodybuilding;dancing;gymnastics","lat":-5.0847185,"lng":-42.7907645},{"id":"6781369131","tags":"payment:cash:yes,shop:convenience","lat":-5.0802745,"lng":-42.8042671},{"id":"6795363172","name":"comercio do pessoa","tags":"shop:supermarket","lat":-5.0878147,"lng":-42.7711268},{"id":"6795376531","name":"Comercial Cabral","tags":"addr:street:Rua Alto Longa,opening_hours:07:00-21:30,payment:cash:yes,payment:credit_cards:yes,shop:supermarket","lat":-5.0520472,"lng":-42.8169013},{"id":"6795383960","name":"escola aussistes","tags":"addr:street:Rua Gaston de Greslan,amenity:school","lat":-5.058947,"lng":-42.8287822},{"id":"6812260039","name":"R.U bar e restaurante","tags":"addr:city:teresina,addr:street:Rua Jorn Helder Feitosa,addr:suburb:ininga,amenity:restaurant","lat":-5.0538928,"lng":-42.7917123},{"id":"6818184116","name":"Carvalho","tags":"shop:supermarket","lat":-5.068528,"lng":-42.816993},{"id":"6835984897","name":"Restaurante Canoeiro","tags":"addr:postcode:64008010,addr:street:Alameda Mestre João Isidoro França,addr:suburb:Poti Velho,amenity:restaurant,cuisine:regional;pizza,opening_hours:Mo-Su 09:00-21:00","lat":-5.0428161,"lng":-42.8277681},{"id":"6926829168","name":"Drogaria Globo","tags":"addr:city:Teresina,addr:street:Rua Visconde da Parnaíba,addr:suburb:Ininga,amenity:pharmacy,brand:Drogaria Globo,brand:wikidata:Q56351623,brand:wikipedia:pt:Drogarias Globo,dispensing:yes,healthcare:pharmacy","lat":-5.0631399,"lng":-42.7944465},{"id":"6943758048","name":"Escola Popular Madre Maria Villac","tags":"addr:housenumber:4481,addr:street:Rua Santa Teresinha,amenity:school,opening_hours:Mo-Fr 07:00-21:00; Sa 07:00-13:00,phone:+55 86 3237 4863,website:http://dombarreto.g12.br/portal","lat":-5.0490355,"lng":-42.7558174},{"id":"6970477701","name":"Banco24Horas","tags":"amenity:atm,brand:Banco24Horas,brand:wikidata:Q4854069,brand:wikipedia:pt:Banco24Horas,operator:banco 24h,website:https://www.banco24horas.com.br,wheelchair:limited","lat":-5.0945105,"lng":-42.837052},{"id":"6970477702","name":"Banco24Horas","tags":"amenity:atm,brand:Banco24Horas,brand:wikidata:Q4854069,brand:wikipedia:pt:Banco24Horas,cash_in:no,currency:BRL:yes,currency:others:no,drive_through:no,network:Banco24Horas,phone:+55 800 56 2400,website:https://www.banco24horas.com.br","lat":-5.0945408,"lng":-42.8371156},{"id":"6972826085","name":"Colegio Mutiplo","tags":"addr:city:Timon,addr:housenumber:955,addr:postcode:65631-140,addr:street:Rua Jamil de Miranda Gedeon,addr:suburb:Parque Piauí I,amenity:school,operator:Privada,phone:+55 86 9 8818 4076","lat":-5.0938361,"lng":-42.8323446},{"id":"6973556963","name":"EMEF - Laranjeiras","tags":"addr:city:Timon - MA,addr:postcode:65638-899,addr:street:POVOADO LARANJEIRAS, ZONA RURAL.,amenity:school,operator:Municipal,operator:type:public","lat":-5.0210731,"lng":-42.8516884},{"id":"6973924503","name":"EMEF - São Francisco de Asís","tags":"addr:city:Timon - MA,addr:postcode:65638-899,addr:street:POVOADO SAO MIGUEL, ZONA RURAL,amenity:school,operator:Municipal,operator:type:public,phone:+55 86 994182629","lat":-5.0342967,"lng":-42.8691279},{"id":"6974099010","name":"EMEF - Benedito Silvestre","tags":"addr:city:Timon MA,addr:postcode:65636-860,addr:street:Rua Quatro,addr:suburb:Conjunto Boa Vista,amenity:school,operator:Municipal,operator:type:public","lat":-5.0853575,"lng":-42.8511482},{"id":"6974239727","name":"Tia Rufina","tags":"addr:city:Timon - MA,addr:postcode:65636-470,addr:street:Rua Dezoito,addr:suburb:Parque Piaui II,amenity:school","lat":-5.0941128,"lng":-42.8478731},{"id":"6974239728","name":"EMEF - Tia Conrada","tags":"amenity:school,operator:municipal,operator:type:public","lat":-5.0824644,"lng":-42.8416074},{"id":"6974322631","name":"EMEF - Justiniano Guedes Vasconcelos","tags":"addr:city:Timon,addr:postcode:65638-899,amenity:school,operator:municipal,operator:type:public,phone:+55 86 988883106","lat":-4.9724813,"lng":-42.8703356},{"id":"6974322634","name":"EMEF - Machado de Assis","tags":"addr:city:Timon,addr:postcode:65638-899,amenity:school","lat":-5.0564814,"lng":-42.8767195},{"id":"6974678603","name":"EMEF - Tomaz de Area Leão Filho","tags":"addr:city:Timon,addr:postcode:65638-899,amenity:school,operator:municipal,operator:type:public","lat":-5.0364402,"lng":-42.8491315},{"id":"6974678604","name":"Centro de Ensino Anna Bernades","tags":"addr:postcode:65630-340,addr:street:Rua Marcos Batista da Silva,addr:suburb:Parque Piaui,amenity:school,operator:estadual,operator:type:public,phone:+55 86 988217697","lat":-5.0943749,"lng":-42.8474929},{"id":"6974678606","name":"EMEF - João Azevedo","tags":"addr:city:Timon,addr:postcode:-5.0004536 -42.8637018,amenity:school,operator:municipal,operator:type:public","lat":-5.000499,"lng":-42.8636446},{"id":"6974678617","name":"EMEF Norberto Moreira Lima","tags":"amenity:school,operator:municipal,operator:type:public,phone:+55 86 32125823","lat":-5.0603773,"lng":-42.8426771},{"id":"6978550143","name":"Drogaria Castro","tags":"addr:city:Timon,addr:housenumber:946,addr:street:Avenida Teresina,addr:suburb:Parque Piaui,amenity:pharmacy,dispensing:yes,healthcare:pharmacy,operator:Drogaria Castro,payment:cash:yes,payment:credit_cards:yes,payment:debit_cards:yes","lat":-5.0948115,"lng":-42.837517},{"id":"6979626374","name":"Bradesco","tags":"addr:city:Teresina,addr:housenumber:4016,addr:postcode:64001-490,addr:street:Avenida Miguel Rosa,addr:suburb:Centro-Sul,air_conditioning:yes,amenity:bank,atm:yes,brand:Bradesco,brand:wikidata:Q806181,brand:wikipedia:en:Banco Bradesco,email:3848.gerencia@bradesco.com.br,phone:+55 86 3221 8870,website:https://banco.bradesco","lat":-5.090715,"lng":-42.8015975},{"id":"6979626375","name":"Bradesco","tags":"addr:city:Teresina,addr:housenumber:1111,addr:street:Avenida João XXIII,addr:suburb:Jóquei,air_conditioning:yes,amenity:bank,atm:yes,brand:Bradesco,brand:wikidata:Q806181,brand:wikipedia:en:Banco Bradesco,email:2120.gerencia@bradesco.com.br,phone:+55 86 3089 2350,website:https://banco.bradesco/","lat":-5.0798521,"lng":-42.7883895},{"id":"6982414536","name":"Banco do Brasil","tags":"addr:city:Timon,addr:postcode:65631-240,addr:street:Avenida Francisco Carlos Jansen,addr:suburb:Parque Piauí I,amenity:bank,brand:Banco do Brasil,brand:wikidata:Q610817,brand:wikipedia:en:Banco do Brasil","lat":-5.0907369,"lng":-42.831933},{"id":"6982414537","name":"Pague Menos","tags":"addr:city:Timon,addr:housenumber:270,addr:postcode:65631-391,addr:street:Avenida Presidente Médici,addr:suburb:Parque Piauí I,amenity:pharmacy,brand:Pague Menos,brand:wikidata:Q7124466,brand:wikipedia:pt:Pague Menos,dispensing:yes,healthcare:pharmacy,opening_hours:Mo-Su 09:00-21:00,payment:cash:yes,payment:credit_cards:yes,payment:debit_cards:yes,phone:+55 98 3212 1540,website:https://www.paguemenos.com.br/","lat":-5.0911399,"lng":-42.8343752},{"id":"6982661607","name":"Stúdio Modelo","tags":"addr:city:Timon,addr:housenumber:1034A,addr:postcode:65631-391,addr:street:Avenida Presidente Médici,addr:suburb:Parque Piauí I,shop:beauty","lat":-5.0971393,"lng":-42.8312774},{"id":"6982661608","name":"Sicoob","tags":"addr:city:Timon,addr:housenumber:1040,addr:postcode:65631-391,addr:street:Avenida Presidente Médici,addr:suburb:Parque Piauí I,amenity:bank,brand:Sicoob,brand:wikidata:Q28679754,brand:wikipedia:pt:Sistema de Cooperativas de Crédito do Brasil","lat":-5.0972078,"lng":-42.8312399},{"id":"6983456362","name":"Ultra Popular","tags":"addr:city:Timon,addr:postcode:65631-390,addr:street:Avenida Presidente Médici,addr:suburb:Parque Piauí I,amenity:pharmacy,dispensing:yes,email:redefabio@drogariasultrapopular.com.br,healthcare:pharmacy,operator:HIPER FARMA LTDA,website:https://www.drogariasultrapopular.com.br","lat":-5.0911359,"lng":-42.8340353},{"id":"6983486456","name":"Drogarias Globo","tags":"addr:city:Timon,addr:housenumber:310,addr:postcode:65631-391,addr:street:Avenida Presidente Médici,addr:suburb:Parque Piauí I,amenity:pharmacy,dispensing:yes,drive_through:no,healthcare:pharmacy,website:https://www.drogariasglobo.com.br/,wikidata:Q56351623,wikipedia:pt:Drogarias Globo","lat":-5.0912731,"lng":-42.8342727},{"id":"6983487638","name":"Drogaria Hortelina","tags":"addr:city:Timon,addr:postcode:65631-390,addr:street:Avenida Presidente Médici,addr:suburb:Parque Piauí I,amenity:pharmacy,dispensing:yes,healthcare:pharmacy","lat":-5.0920065,"lng":-42.8335657},{"id":"6987396071","name":"EMEF - Darcy Ribeiro","tags":"addr:street:Beco Quatro,amenity:school,operator:Municipal,operator:type:public","lat":-5.0963361,"lng":-42.8540752},{"id":"6987396075","name":"EMEF - Antônia Diva Rodrigues dos Santos","tags":"amenity:school","lat":-5.0890726,"lng":-42.844816},{"id":"6987610099","name":"EMEF - São Francisoco","tags":"addr:city:Timon,addr:housenumber:293,addr:postcode:65630-970,addr:street:Rua Oito,addr:suburb:Conjunto,amenity:school,phone:+55 86 98834 4962","lat":-5.0842743,"lng":-42.8489291},{"id":"6987729533","name":"EMEI - Professora Maria Gloria Barros","tags":"addr:city:Timon,addr:postcode:65638-899,amenity:school","lat":-5.045056,"lng":-42.8479588},{"id":"6987729534","name":"EMEF - Minnie","tags":"addr:city:Timon,addr:housenumber:455,addr:postcode:65636-860,addr:street:Beco Vinte e Dois,addr:suburb:Bela vista,amenity:school","lat":-5.0917526,"lng":-42.8534842},{"id":"6987983095","name":"Colégio Augusto Batista","tags":"addr:city:Timon,addr:housenumber:479,addr:postcode:65631-210,addr:street:Avenida Jaime Rios,addr:suburb:Parque Piauí I,amenity:school,operator:type:private,phone:+55 86 3117 1400","lat":-5.0947606,"lng":-42.8271772},{"id":"6987983097","name":"EMEF - Lápis Azul","tags":"addr:city:Timon,addr:housenumber:158,addr:postcode:65639-000,addr:street:Travessa Quinze,addr:suburb:Bela Vista,amenity:school","lat":-5.0912573,"lng":-42.8465378},{"id":"6987983098","name":"EMEF - Professor Hermenegildo da Silva Osorio","tags":"addr:city:Timon,addr:postcode:65637-090,addr:street:Rua Dez,addr:suburb:Marimar,amenity:school","lat":-5.0853456,"lng":-42.8571619},{"id":"6987983101","name":"Colégio Glaucia Costa","tags":"addr:city:Timon,addr:housenumber:625,addr:postcode:65631-140,addr:street:Rua Jamil de Miranda Gedeon,addr:suburb:Parque Piauí I,amenity:school","lat":-5.0923044,"lng":-42.8291904},{"id":"6987983102","name":"EMEF - Maroa Vilo de Amoeim Campelo","tags":"addr:city:Timon,addr:postcode:65636-750,addr:street:Rua Quatorze,addr:suburb:Vila Parnaiba,amenity:school","lat":-5.0808594,"lng":-42.8473447},{"id":"6987983108","name":"Escola Lima da Silveira","tags":"addr:city:Timon,addr:housenumber:2151,addr:postcode:65639-000,addr:street:Rua Três,addr:suburb:Loteamento Boa Vista,amenity:school,phone:+55 86 3317 9397","lat":-5.0872299,"lng":-42.8520231},{"id":"6988143218","name":"EMEF - Lauro Rodrigues de Sampaio","tags":"addr:city:Timon,addr:postcode:65636-860,addr:street:Travessa 21,addr:suburb:Bela Vista,amenity:school","lat":-5.0915019,"lng":-42.8484285},{"id":"6988143219","name":"EMEF - Jericó","tags":"addr:city:Timon,addr:housenumber:430,addr:postcode:65636-844,addr:street:Rua Quatorze,addr:suburb:São Francisco,amenity:school","lat":-5.0837091,"lng":-42.8466645},{"id":"6988143220","tags":"addr:city:Timon,addr:postcode:65636-884,addr:street:Avenida Principal,addr:suburb:Novo Tempo,amenity:school","lat":-5.0725191,"lng":-42.87998},{"id":"6988143221","name":"EMEI - Francisca Macedo de Araujo","tags":"addr:city:Timon,addr:housenumber:21,addr:postcode:65638-225,addr:street:Beco Vinte e Um,addr:suburb:Boa Vista,amenity:school","lat":-5.0930587,"lng":-42.8527279},{"id":"6989647686","name":"EMEF - Estevam Belo","tags":"addr:city:Timon,addr:postcode:65636-859,addr:street:Rua Treze,addr:suburb:Novo Tempo,amenity:school","lat":-5.0772111,"lng":-42.8795207},{"id":"6989647687","name":"Instituto Renascer","tags":"addr:city:Timon,addr:housenumber:885,addr:postcode:65636-535,addr:street:Rua Antonio Rodrigues Machado,addr:suburb:Paruqe Piauí,amenity:school,operator:privada,operator:type:private,phone:+55 86 3212 4902","lat":-5.0899815,"lng":-42.8398315},{"id":"6989647688","name":"Colégio Shekinah","tags":"addr:city:Timon,addr:housenumber:1250,addr:postcode:65638-295,addr:street:Rua Henrique Pereira de Sousa,amenity:school,operator:Desconhecido,operator:type:private","lat":-5.0903257,"lng":-42.837468},{"id":"6989647692","name":"EMEI - Elda Maria Alves Moreira","tags":"addr:city:Timon,addr:postcode:65637-090,addr:street:Rua Dez,addr:suburb:Marimar,amenity:school","lat":-5.0856083,"lng":-42.8572332},{"id":"6989647694","name":"Centro Educacional Ana Machado","tags":"addr:city:Timon,addr:housenumber:580,addr:postcode:65631-060,addr:street:Rua Doutor João Lula,addr:suburb:Parque Piauí I,amenity:school,phone:+55 99 3212 1618","lat":-5.0947941,"lng":-42.82658},{"id":"6989647696","name":"Creche Escola Primeiros Passos","tags":"addr:city:Timon,addr:housenumber:268,addr:postcode:65630-120,addr:street:Avenida Getúlio Vargas,addr:suburb:Centro,amenity:childcare,phone:+55 86 3212 5304","lat":-5.0975193,"lng":-42.8232296},{"id":"6990023650","name":"Centro de Ensino Robson Parentes Noleto Silva","tags":"addr:city:Timon,addr:postcode:65636-859,addr:street:Rua Treze,addr:suburb:Novo Tempo,amenity:school","lat":-5.0767897,"lng":-42.8803277},{"id":"6990023657","name":"EMEF - Alice Mendes","tags":"addr:city:Marimar,addr:postcode:65637-120,amenity:school","lat":-5.0812213,"lng":-42.8574464},{"id":"6990023669","name":"Casa Familiar Rural Tamandua de Timon","tags":"amenity:school","lat":-4.9709537,"lng":-42.8707625},{"id":"6990037840","name":"Colégio Mais","tags":"addr:city:Timon,addr:housenumber:99,addr:postcode:65631-200,addr:street:Avenida Teresina,addr:suburb:Parque Piauí I,amenity:school,phone:+55 99 3212 5534","lat":-5.0914539,"lng":-42.8303028},{"id":"7021618924","name":"La Boca","tags":"amenity:restaurant","lat":-5.0645993,"lng":-42.7630272},{"id":"7021625747","name":"Peixada da paz","tags":"amenity:restaurant","lat":-5.0532509,"lng":-42.8382735},{"id":"7021629751","name":"Pague Menos","tags":"amenity:pharmacy,brand:Pague Menos,brand:wikidata:Q7124466,brand:wikipedia:pt:Pague Menos,healthcare:pharmacy","lat":-5.064874,"lng":-42.784665},{"id":"7021637105","name":"Rambeer","tags":"amenity:bar","lat":-5.0642822,"lng":-42.7941305},{"id":"7021657004","name":"Drogasil","tags":"amenity:pharmacy,brand:Drogasil,brand:wikidata:Q5308185,brand:wikipedia:pt:Drogasil,healthcare:pharmacy,wheelchair:yes","lat":-5.0634606,"lng":-42.7940727},{"id":"7021657005","name":"Globo","tags":"amenity:pharmacy,healthcare:pharmacy","lat":-5.0644944,"lng":-42.7843374},{"id":"7021659525","name":"Bierbrau","tags":"amenity:bar","lat":-5.0633124,"lng":-42.7843637},{"id":"7021659526","name":"Flutuante","tags":"amenity:restaurant,opening_hours:Mo-Su 09:00-19:00","lat":-5.0348908,"lng":-42.8390387},{"id":"7021666480","name":"Pague Menos","tags":"amenity:pharmacy,brand:Pague Menos,brand:wikidata:Q7124466,brand:wikipedia:pt:Pague Menos,healthcare:pharmacy","lat":-5.0702897,"lng":-42.784691},{"id":"7021667783","name":"Bar dois Irmãos","tags":"amenity:bar","lat":-5.05042,"lng":-42.8382179},{"id":"7021668366","name":"São João","tags":"amenity:restaurant","lat":-5.0645417,"lng":-42.7937732},{"id":"7021668367","name":"Parilla","tags":"amenity:restaurant","lat":-5.0703769,"lng":-42.7751053},{"id":"7021671446","name":"Sushing","tags":"amenity:restaurant","lat":-5.0642333,"lng":-42.7845617},{"id":"7021674267","name":"Arena's","tags":"amenity:bar","lat":-5.0384922,"lng":-42.8385883},{"id":"7021680477","name":"Espaço da Dea","tags":"amenity:nightclub","lat":-5.047964,"lng":-42.8384336},{"id":"7021680678","name":"Velho Jack","tags":"amenity:bar","lat":-5.0736691,"lng":-42.7989056},{"id":"7021681843","name":"Pague Menos","tags":"amenity:pharmacy,brand:Pague Menos,brand:wikidata:Q7124466,brand:wikipedia:pt:Pague Menos,healthcare:pharmacy","lat":-5.0754391,"lng":-42.7870927},{"id":"7021682237","name":"Colégio Nova Geração","tags":"amenity:school","lat":-5.0769548,"lng":-42.8210607},{"id":"7021682680","name":"Coco Bambu","tags":"amenity:restaurant","lat":-5.0697401,"lng":-42.788165},{"id":"7021684092","name":"Resenha","tags":"amenity:restaurant","lat":-5.0744109,"lng":-42.7831793},{"id":"7021684899","name":"Buteco da Loura","tags":"amenity:bar","lat":-5.05029,"lng":-42.8385381},{"id":"7021685791","name":"Dom Diego","tags":"amenity:restaurant","lat":-5.0637097,"lng":-42.7928776},{"id":"7021688819","name":"Caixa Econômica Federal","tags":"amenity:bank,brand:Caixa Econômica Federal,brand:wikidata:Q835283,brand:wikipedia:pt:Caixa Econômica Federal","lat":-5.0732227,"lng":-42.7721856},{"id":"7021689199","name":"Paraíba","tags":"shop:supermarket","lat":-5.0649841,"lng":-42.7610207},{"id":"7021690684","name":"Sushirus","tags":"amenity:restaurant","lat":-5.0635456,"lng":-42.7844086},{"id":"7021691760","name":"Marcus","tags":"amenity:restaurant","lat":-5.080682,"lng":-42.7721633},{"id":"7021692069","name":"Forneria","tags":"amenity:restaurant","lat":-5.0645118,"lng":-42.7940591},{"id":"7021692590","name":"Chopizza","tags":"amenity:restaurant","lat":-5.0743608,"lng":-42.7847895},{"id":"7021693354","name":"Del Toro","tags":"amenity:restaurant","lat":-5.0643471,"lng":-42.7884294},{"id":"7038150112","name":"Biblioteca Uninovafapi","tags":"amenity:library","lat":-5.0685123,"lng":-42.7476523},{"id":"7077878786","name":"Carmen Cheff","tags":"addr:housenumber:245,addr:street:Rua Angélica,amenity:restaurant","lat":-5.0783035,"lng":-42.7911481},{"id":"7105878279","name":"Akmos Timon","tags":"addr:city:Timon,addr:housenumber:643,addr:street:Avenida Teresina,addr:suburb:Parque Piauí,shop:chemist","lat":-5.0937976,"lng":-42.8349405},{"id":"7124327888","name":"Banco24Horas","tags":"amenity:atm,brand:Banco24Horas,brand:wikidata:Q4854069,brand:wikipedia:pt:Banco24Horas,check_date:2022-01-28","lat":-5.0901424,"lng":-42.8344503},{"id":"7124327890","name":"W Fitness","tags":"addr:city:Timon,addr:street:Rua Jamil de Miranda Gedeon,addr:suburb:Parque Piauí,leisure:fitness_centre,phone:+55 99 3212 4005","lat":-5.0947597,"lng":-42.8340583},{"id":"7149422630","tags":"addr:housenumber:1606,amenity:car_wash","lat":-5.0953457,"lng":-42.8370087},{"id":"7149947110","name":"Farmácia Básica","tags":"addr:city:Timon,addr:housenumber:SN,addr:street:Avenida Teresina,addr:suburb:Parque Piaui,amenity:pharmacy,dispensing:yes,drive_through:no,healthcare:pharmacy,operator:Pefreitura de Timon","lat":-5.0956069,"lng":-42.8385335},{"id":"7150016964","name":"Guarita da Ponte Metálica","tags":"addr:city:Timon,addr:housenumber:s/n,addr:street:Avenida Francisco Carlos Jansen,addr:suburb:Guarita,amenity:police","lat":-5.0890447,"lng":-42.8265113},{"id":"7150016965","name":"Pizzaria Tropical","tags":"addr:city:Timon,addr:housenumber:925,addr:postcode:65606-310,addr:street:Avenida Francisco Vitorino da Assunção,addr:suburb:Parque Piauí,amenity:restaurant,cuisine:pizza,delivery:yes,outdoor_seating:yes,phone:+55 86 3212 5010,takeaway:yes,website:http://www.pizzariatropical.com","lat":-5.0945937,"lng":-42.8391467},{"id":"7150038854","name":"Cantão do Chef","tags":"amenity:restaurant,cuisine:pizza","lat":-5.0965101,"lng":-42.8399882},{"id":"7151595807","name":"Frigideira’s","tags":"addr:city:Timon,addr:housenumber:853,addr:postcode:65631-205,addr:street:Avenida Francisco Carlos Jansen,addr:suburb:Parque Piauí I,amenity:restaurant,contact:facebook:https://www.facebook.com/Frigideiras-Restaurante-e-Churrascaria-1590538797877692/?ref=py_c,cuisine:regional;steak_house,delivery:yes,payment:cash:yes,payment:credit_cards:yes,payment:debit_cards:yeshttps://www.facebook.com/Frigideiras-Restaurante-e-Churrascaria-1590538797877692/?ref=py_c,phone:+55 99 3317 9391,takeaway:yes","lat":-5.0911409,"lng":-42.8320678},{"id":"7151595808","name":"Self-Service Clock’s","tags":"addr:city:Timon,addr:housenumber:607,addr:postcode:65631-240,addr:street:Avenida Francisco Carlos Jansen,addr:suburb:Parque Piauí I,amenity:restaurant,cuisine:regional","lat":-5.0908414,"lng":-42.8298839},{"id":"7156811232","name":"Bare Lavajato","tags":"addr:city:Timon,addr:housenumber:841,addr:postcode:65631-240,addr:street:Avenida Francisco Carlos Jansen,addr:suburb:Parque Piauí I,amenity:car_wash","lat":-5.0912139,"lng":-42.8318451},{"id":"7156811234","name":"NutriBox","tags":"leisure:fitness_centre","lat":-5.0961448,"lng":-42.8401088},{"id":"7158900963","name":"Pacheco’s Cabelos","tags":"shop:beauty","lat":-5.0952907,"lng":-42.8384703},{"id":"7158904168","name":"Mundo Pet","tags":"shop:pet","lat":-5.0949079,"lng":-42.8377012},{"id":"7159044051","tags":"amenity:parking","lat":-5.0908796,"lng":-42.8318961},{"id":"7159044056","tags":"access:customers,amenity:parking,fee:no,parking:surface","lat":-5.0912081,"lng":-42.8314474},{"id":"7159264992","name":"Drogaria Duarte","tags":"addr:city:Timon,addr:housenumber:S/N,addr:street:Avenida Teresina,addr:suburb:Parque Piauí,amenity:pharmacy,dispensing:yes,drive_through:no,healthcare:pharmacy,phone:+55 99 3212 4808,wheelchair:yes","lat":-5.0944284,"lng":-42.8367533},{"id":"7159404563","tags":"amenity:parking","lat":-5.0937996,"lng":-42.8287896},{"id":"7159404568","tags":"amenity:parking","lat":-5.0939443,"lng":-42.8287737},{"id":"7161462833","name":"Feitosa","tags":"addr:housenumber:733,amenity:parking,parking:carports","lat":-5.0846516,"lng":-42.8145205},{"id":"7161462837","tags":"access:private,amenity:parking,operator:Institudo Dom Barreto,supervised:yes","lat":-5.0844795,"lng":-42.8146024},{"id":"7161478547","tags":"access:yes,amenity:parking,fee:yes,parking:surface","lat":-5.0778785,"lng":-42.802846},{"id":"7161499109","tags":"amenity:parking","lat":-5.0872809,"lng":-42.8028406},{"id":"7161499110","tags":"amenity:parking","lat":-5.0868817,"lng":-42.8030308},{"id":"7161509425","tags":"amenity:parking","lat":-5.0923772,"lng":-42.8175643},{"id":"7161509426","tags":"amenity:parking","lat":-5.0870618,"lng":-42.8101349},{"id":"7161509430","tags":"amenity:parking","lat":-5.0929823,"lng":-42.817616},{"id":"7161520299","tags":"amenity:parking","lat":-5.0933169,"lng":-42.8164217},{"id":"7161553052","tags":"amenity:parking","lat":-5.0887274,"lng":-42.819512},{"id":"7161553053","tags":"amenity:parking","lat":-5.0891942,"lng":-42.8142229},{"id":"7161553054","tags":"amenity:parking","lat":-5.0889362,"lng":-42.8143405},{"id":"7161553055","tags":"amenity:parking","lat":-5.0928859,"lng":-42.8159254},{"id":"7161560595","tags":"amenity:parking","lat":-5.0867016,"lng":-42.8050856},{"id":"7161706123","name":"Aiko Pizza","tags":"addr:city:Teresina,addr:suburb:Centro,amenity:restaurant,cuisine:pizza","lat":-5.0816065,"lng":-42.8099534},{"id":"7161731870","tags":"amenity:parking","lat":-5.0900171,"lng":-42.819808},{"id":"7162199780","tags":"amenity:parking","lat":-5.0883371,"lng":-42.8179955},{"id":"7164205354","tags":"amenity:parking","lat":-5.080266,"lng":-42.8000549},{"id":"7164367533","tags":"amenity:parking","lat":-5.0852002,"lng":-42.8036082},{"id":"7164378855","tags":"amenity:parking","lat":-5.0863321,"lng":-42.8016318},{"id":"7164378859","name":"caixa 24h","tags":"amenity:atm,currency:others:no,operator:Caixa 24h","lat":-5.0863682,"lng":-42.8015126},{"id":"7164378861","name":"caixa 24h","tags":"amenity:atm,currency:others:no,operator:Caixa 24h","lat":-5.0863791,"lng":-42.801537},{"id":"7164378863","tags":"amenity:parking","lat":-5.0865205,"lng":-42.8013767},{"id":"7164771478","tags":"amenity:parking","lat":-5.0866313,"lng":-42.8112349},{"id":"7164771479","tags":"amenity:parking","lat":-5.0884504,"lng":-42.8148801},{"id":"7164771481","tags":"amenity:parking","lat":-5.0886523,"lng":-42.8151536},{"id":"7164773785","tags":"amenity:parking","lat":-5.0882419,"lng":-42.8099042},{"id":"7164773788","tags":"amenity:parking","lat":-5.0890772,"lng":-42.8160793},{"id":"7172663014","name":"Rodeio","tags":"addr:city:Timon,addr:postcode:65630-120,addr:street:Avenida Piauí,addr:suburb:Centro,amenity:restaurant,cuisine:steak_house,email:rodeiotimon@gmail.com,outdoor_seating:yes,phone:+55 86 3212 7178,website:https://m.facebook.com/rodeiotimon/","lat":-5.0941462,"lng":-42.8220834},{"id":"7172913818","name":"Colégio Cristo Rei","tags":"addr:street:Rua José Inácio da Costa Filho,addr:suburb:Parque Piauí,amenity:school,operator:Privado","lat":-5.0964229,"lng":-42.8333749},{"id":"7177429634","name":"Nova Navona","tags":"addr:city:Timon,addr:housenumber:137,addr:postcode:65631-210,addr:street:Avenida Jaime Rios,addr:suburb:Parque Piauí I,amenity:restaurant,cuisine:pizza,phone:+55 86 3212 9840","lat":-5.0921585,"lng":-42.8285427},{"id":"7177651882","name":"R Carvalho Supermercado","tags":"addr:street:Avenida Francisco Carlos Jansen,operator:Grupo R Carvalho,shop:supermarket","lat":-5.0871337,"lng":-42.8372221},