[{"id":"8258507458","name":"E.M. Conselheiro Saraiva","tags":"amenity:school,phone:+55 86 3238 1022","lat":-4.8924893,"lng":-42.8781687},{"id":"8258564841","name":"E. M. Fazenda Soares","tags":"amenity:school,phone:+55 86 3234 8392","lat":-4.9150798,"lng":-42.8131093},{"id":"9495571989","name":"Escola Municipal Senhor Carvalho","tags":"amenity:school","lat":-4.7627249,"lng":-42.580158},{"id":"9495588068","name":"Ceti Ferdinand Freitas","tags":"amenity:school","lat":-4.7488441,"lng":-42.5785701},{"id":"9495602629","name":"Escolinha Municipal Mae Biluca","tags":"amenity:school","lat":-4.7655475,"lng":-42.5774194},{"id":"9496465278","name":"Escola Municipal Francisco Rodrigues Do Nascimento","tags":"amenity:school","lat":-4.8853147,"lng":-42.6105451},{"id":"9496474771","name":"Instituto Educacional Vespasiano De Carvalho","tags":"addr:city:José de Freitas,addr:housenumber:354,addr:postcode:64110-000,addr:street:Avenida Américo Celestino,addr:suburb:Centro,amenity:school","lat":-4.7589052,"lng":-42.5728489},{"id":"9496479915","name":"Escola Municipal Jacob De Freitas","tags":"amenity:school","lat":-4.8343535,"lng":-42.7108164},{"id":"9496485818","name":"Escola Municipal Padre Sampaio","tags":"amenity:school","lat":-4.7579857,"lng":-42.5710197}]