[{"id":"9035063745","name":"Centro Educacional Sao Francisco","tags":"addr:city:São Mateus do Maranhão,addr:postcode:65470-000,addr:street:Rua Benu Lago,addr:suburb:Centro,amenity:school","lat":-4.0349423,"lng":-44.4684036},{"id":"9041468274","name":"Ue Mun Francisco Soares De Sousa","tags":"amenity:school","lat":-3.9567306,"lng":-44.4050096},{"id":"9041473048","name":"Ui Municipal Raimunda Sousa Falcão","tags":"amenity:school","lat":-3.9566557,"lng":-44.4473992},{"id":"9041473053","name":"Ue Mun Irma Aurora","tags":"amenity:school","lat":-3.9875447,"lng":-44.4466321},{"id":"9041482539","name":"EM ESPIRITO SANTO - ANEXO I - MARIA JOSE ALVES ANDRADE","tags":"amenity:school","lat":-3.924374,"lng":-44.3589829},{"id":"9041489216","name":"EM ESPIRITO SANTO - ANEXO IV- JOAO MARTINS","tags":"amenity:school","lat":-3.8969266,"lng":-44.305336},{"id":"9041496184","name":"EM ESPIRITO SANTO","tags":"amenity:school","lat":-3.9139967,"lng":-44.3131064},{"id":"9041502907","name":"EM ESPIRITO SANTO SANTO - ANEXO V - MORROS DO PAIXAO","tags":"amenity:school","lat":-3.8954655,"lng":-44.3373428},{"id":"9041503394","name":"Unid Escolar Mul Joseane Da Luz Santana","tags":"amenity:school","lat":-3.9453181,"lng":-44.3630008},{"id":"9041514843","name":"Ue Mun Dona Xicuta","tags":"amenity:school","lat":-4.0103094,"lng":-44.4361232},{"id":"9041731533","name":"Ue Mun Antero Boueres","tags":"addr:city:São Mateus do Maranhão,addr:postcode:65470-000,addr:street:Rua Francisco Pinto,amenity:school","lat":-4.0289932,"lng":-44.4601746},{"id":"9041821408","name":"Ue Municipal Vinolia Curvina","tags":"addr:city:São Mateus do Maranhão,addr:postcode:65470-000,addr:street:Avenida Rodoviaria,addr:suburb:Centro,amenity:school","lat":-4.0358096,"lng":-44.4675355},{"id":"9041825004","name":"Unidade Escolar Municipal Cinderela","tags":"addr:city:São Mateus do Maranhão,addr:postcode:65470-000,addr:street:Rua do Esporte,addr:suburb:Centro,amenity:school","lat":-4.0413944,"lng":-44.4714238},{"id":"9041864173","name":"Instituto Evoluir","tags":"addr:city:São Mateus do Maranhão,addr:housenumber:07,addr:postcode:65470-000,addr:street:Rua Frederico Leda,addr:suburb:Centro,amenity:school","lat":-4.0337316,"lng":-44.4670437},{"id":"9041869714","name":"Unidade Escolar Municipal Felipe Portela","tags":"addr:city:São Mateus do Maranhão,addr:street:Rua Paraíba,amenity:school","lat":-4.0424994,"lng":-44.4768499},{"id":"9041870425","name":"Creche Municipal Professora Carolina Teodora","tags":"addr:city:São Mateus do Maranhão,addr:housenumber:1178B,addr:postcode:65470-000,addr:street:Rua Nossa Senhora de Fátima,addr:suburb:Centro,amenity:school","lat":-4.0332393,"lng":-44.4696669},{"id":"9041895166","name":"Casa Cruz De Malta","tags":"amenity:school","lat":-4.0125676,"lng":-44.4518034},{"id":"9041906625","name":"Ue Mun Adroaldo Aymore Brandao","tags":"amenity:school","lat":-4.010106,"lng":-44.4607754},{"id":"9106390227","name":"Em Edson Da Costa Nunes","tags":"amenity:school","lat":-3.8787791,"lng":-44.4922431},{"id":"9236445932","name":"Em Eustaquio Antônio Maciel","tags":"amenity:school","lat":-3.9181712,"lng":-44.4803421},{"id":"9236446779","name":"Unid Escolar Municipal Padre Mauricio Maraglio","tags":"amenity:school","lat":-3.9310504,"lng":-44.484116},{"id":"9257527311","name":"Ue Mun Sao Pedro","tags":"amenity:school","lat":-3.9572189,"lng":-44.5906775},{"id":"9265145916","name":"Ue Mun Professora Maria Do Rosario Conceicao Felisdorio","tags":"amenity:school","lat":-3.9898712,"lng":-44.4026519},{"id":"9265175294","name":"Ue Mun Monteiro Lobato","tags":"amenity:school","lat":-4.0339443,"lng":-44.3939857}]