[{"id":"9038965742","name":"Em São Francisco","tags":"amenity:school","lat":-3.8134783,"lng":-44.3608406},{"id":"9039009293","name":"EM Miguel Soares Dos Santos","tags":"amenity:school","lat":-3.8331041,"lng":-44.5353328},{"id":"9041468253","name":"Creche Municipal Tia Carlota","tags":"amenity:school","lat":-3.7639349,"lng":-44.3018741},{"id":"9041473046","name":"Em Raimundo Cunha","tags":"amenity:school","lat":-3.7642425,"lng":-44.3022998},{"id":"9041508787","name":"Em Santa Filomena","tags":"amenity:school","lat":-3.8357669,"lng":-44.3713935},{"id":"9159305184","name":"Em Celino Dos Santos Leitao","tags":"amenity:school","lat":-3.7206632,"lng":-44.5148682},{"id":"9235453718","name":"Em São Pedro","tags":"amenity:school","lat":-3.8266384,"lng":-44.6102871},{"id":"9236444113","name":"Em Gomes","tags":"amenity:school","lat":-3.7774666,"lng":-44.5586787},{"id":"9236444556","name":"Em Aprigio Assuncao","tags":"amenity:school","lat":-3.8334895,"lng":-44.4965614},{"id":"9236444557","name":"Em Agro Alegre I","tags":"amenity:school","lat":-3.7793267,"lng":-44.5131536},{"id":"9236447262","name":"Em Duque De Caxias","tags":"amenity:school","lat":-3.8204991,"lng":-44.517716},{"id":"9236449130","name":"Em Agro Alegre Ii","tags":"amenity:school","lat":-3.7677004,"lng":-44.5083739},{"id":"9236452939","name":"Em Santo Antônio Iii","tags":"amenity:school","lat":-3.7677914,"lng":-44.5906614},{"id":"9236460056","name":"Em São José","tags":"amenity:school","lat":-3.7732299,"lng":-44.5871986},{"id":"9257569094","name":"Em Gregorio Paulo Fernandes","tags":"amenity:school","lat":-3.8187341,"lng":-44.5721515}]