[{"id":"9155579788","name":"EM Garimpo - Anexo I","tags":"amenity:school,operator:EM GARIMPO - ANEXO I - ESCONDIDO","lat":-3.9575915,"lng":-44.0583616},{"id":"9155617252","name":"EM Barriguda - Anexo I - Pedras","tags":"amenity:school","lat":-3.9443536,"lng":-44.0177457},{"id":"9155627236","name":"EM FAZENDINHA - ANEXO I - MOCAMBO","tags":"amenity:school","lat":-3.9658101,"lng":-43.9632076},{"id":"9159291417","name":"EM Conceição I","tags":"amenity:school","lat":-3.9241183,"lng":-44.1682608},{"id":"9231298579","name":"EM Pau de Estopa I Anexo I Brasilândia","tags":"amenity:school","lat":-3.9571988,"lng":-44.1797979},{"id":"9231341511","name":"EM Garimpo - Anexo II - Maracajá I","tags":"amenity:school","lat":-3.883798,"lng":-44.158233},{"id":"9231352246","name":"EM Garimpo","tags":"amenity:school","lat":-3.8968999,"lng":-44.1542579}]