[{"id":"9040450404","name":"Escola Municipal De Educação Básica Santa Rosa","tags":"amenity:school","lat":-3.3592679,"lng":-43.9228289},{"id":"9041063826","name":"Centro Educacional Unificado Maria Quaresma Vale","tags":"amenity:school","lat":-3.4643446,"lng":-43.9078541},{"id":"9041297585","name":"Centro De Ensino Major Erico Gomes Braga - Anexo I - Assentamento Balaiada","tags":"amenity:school","lat":-3.395372,"lng":-43.8533999},{"id":"9051750321","name":"E M Francisco Bezerra De Meneses","tags":"amenity:school","lat":-3.4627703,"lng":-43.6327507},{"id":"9056402435","name":"UI Josélina Elice Costa","tags":"amenity:school","lat":-3.4610354,"lng":-43.9196558},{"id":"9106342267","name":"EM José Ribamar Pereira","tags":"amenity:school","lat":-3.4339821,"lng":-43.9127894},{"id":"9144643355","name":"Ue Deuzuita Rodrigues","tags":"amenity:school","lat":-3.4622373,"lng":-43.6468847},{"id":"9144710435","name":"U E Manoel Frazao Cardoso","tags":"amenity:school","lat":-3.4746239,"lng":-43.6657143},{"id":"9144744014","name":"U E Wilson Pinto De Mesquita","tags":"amenity:school","lat":-3.3492758,"lng":-43.6481987},{"id":"9144753634","name":"U E Amilcar Torquato De Sousa","tags":"amenity:school","lat":-3.4128352,"lng":-43.6776599},{"id":"9144759299","name":"Em Raimundo Teixeira Vieira","tags":"amenity:school","lat":-3.3592246,"lng":-43.8226325},{"id":"9144759767","name":"U E Tres Amalia","tags":"amenity:school","lat":-3.3632799,"lng":-43.6186476},{"id":"9144763827","name":"Escola Municipal De Educação Básica Pedro Neiva","tags":"amenity:school","lat":-3.3462552,"lng":-43.9131339},{"id":"9261066279","name":"Escola Municipal De Educação Básica Quilombola Daniel Coqueiro De Carvalho","tags":"amenity:school","lat":-3.3919488,"lng":-43.9430152},{"id":"9261078763","name":"Em Raimundo Viana Braga","tags":"amenity:school","lat":-3.4451173,"lng":-43.9430742},{"id":"9261091950","name":"Escola Municipal De Educação Básica Vila São Pedro","tags":"amenity:school","lat":-3.3613711,"lng":-43.9402337},{"id":"9261105203","name":"Creche Marly Sarney","tags":"amenity:school","lat":-3.4680112,"lng":-43.9088197},{"id":"9261853874","name":"Em Isabel Carvalho De Mesquita","tags":"amenity:school","lat":-3.4605174,"lng":-43.8993917}]