[{"id":"4317579771","name":"Latadinha","tags":"amenity:restaurant,cuisine:barbecue;cake;coffee_shop;brazilian,internet_access:wlan","lat":-2.8236156,"lng":-43.8299391},{"id":"5794800866","tags":"amenity:parking","lat":-2.8235344,"lng":-43.8301746},{"id":"9041063920","name":"Em Santa Cruz","tags":"amenity:school","lat":-2.9696157,"lng":-43.5965382},{"id":"9115452253","name":"EM Nossa Senhora de Lourdes","tags":"amenity:school","lat":-2.9209443,"lng":-43.9230381},{"id":"9115484074","name":"EM Nossa Senhora da Conceição","tags":"amenity:school","lat":-2.827703,"lng":-43.7545507},{"id":"9115494377","name":"Em Dulcineia Lopes Espindola","tags":"amenity:school","lat":-2.8548822,"lng":-43.9291044},{"id":"9156285701","name":"EM Nossa Senhora das Graças","tags":"amenity:school","lat":-2.839298,"lng":-43.6626063},{"id":"9332457252","name":"Em Riachinho","tags":"amenity:school","lat":-2.9288479,"lng":-43.5985874},{"id":"9342282705","name":"E M José Sousa Matos","tags":"amenity:school","lat":-2.9482148,"lng":-43.7780111}]