[{"id":"9034653754","name":"UE Antônio Martins Costa","tags":"amenity:school","lat":-3.7775563,"lng":-42.8230856},{"id":"9035077902","name":"UE São Raimundo","tags":"amenity:school","lat":-3.7261763,"lng":-42.8586437},{"id":"9051719563","name":"Ue Profº Julio Bacelar","tags":"amenity:school","lat":-3.7023373,"lng":-42.8439988},{"id":"9121148948","name":"Ue Domingos Pacifico","tags":"amenity:school","lat":-3.8180235,"lng":-42.8496449},{"id":"9121150554","name":"Em São Francisco","tags":"amenity:school","lat":-3.7640441,"lng":-42.7433414},{"id":"9121161526","name":"Ue Prof Honorio Martins","tags":"amenity:school","lat":-3.711645,"lng":-42.775238},{"id":"9121166032","name":"Em São José","tags":"amenity:school","lat":-3.7928369,"lng":-42.6924245},{"id":"9121167219","name":"Em Santo Antônio","tags":"amenity:school","lat":-3.7993702,"lng":-42.7191963},{"id":"9121168920","name":"Em São José","tags":"amenity:school","lat":-3.7725046,"lng":-42.6902707},{"id":"9121171418","name":"Ue Antônio Chagas De Sousa","tags":"amenity:school","lat":-3.741498,"lng":-42.6796438},{"id":"9327191574","name":"Unidade Integrada Mariano Santos Rodrigues","tags":"amenity:school","lat":-3.7366736,"lng":-42.88148},{"id":"9327242866","name":"Em São Marcos","tags":"amenity:school","lat":-3.8448834,"lng":-42.7296348},{"id":"9327255324","name":"Ue Manoel Gonçalves Bastos","tags":"amenity:school","lat":-3.8188813,"lng":-42.7666815},{"id":"9501192819","name":"Unid Esc Alvaro Lopes","tags":"amenity:school","lat":-3.8652287,"lng":-42.6834472},{"id":"9503563292","name":"Unidade Escolar Aurelio De Franca","tags":"amenity:school","lat":-3.7702698,"lng":-42.5512008},{"id":"9503563293","name":"U E Jose Amavel","tags":"amenity:school","lat":-3.7157819,"lng":-42.5537007},{"id":"9503577613","name":"Unidade Escolar Dinir Patricio","tags":"amenity:school","lat":-3.7190821,"lng":-42.5566028},{"id":"9503585282","name":"Creche Tia Milagre","tags":"amenity:school","lat":-3.7130758,"lng":-42.5551356},{"id":"9503628162","name":"Creche Tia Maria Do Carmo","tags":"amenity:school","lat":-3.7165179,"lng":-42.5589497},{"id":"9503633060","name":"Unidade Escolar Maria Coelho De Resende","tags":"amenity:school","lat":-3.6964916,"lng":-42.5699468},{"id":"9503651253","name":"Unid Esc Manoel Antonio De Oliveira","tags":"addr:street:Avenida Pedro Freitas,amenity:school","lat":-3.7148745,"lng":-42.5492375},{"id":"9503661142","name":"Creche Vovo Lucinda","tags":"amenity:school","lat":-3.716732,"lng":-42.5517453},{"id":"9503661143","name":"Colegio Santa Maria","tags":"amenity:school","lat":-3.7173102,"lng":-42.5522818},{"id":"9503661701","name":"Escola Municipal Professor Jose Claudio Aguiar Da Rocha","tags":"amenity:school","lat":-3.7189777,"lng":-42.5553797},{"id":"9503662579","name":"Esc Mun De Alto Formoso","tags":"amenity:school","lat":-3.7340867,"lng":-42.5558464},{"id":"9503667469","name":"Educandario Sao Judas Tadeu","tags":"amenity:school","lat":-3.715565,"lng":-42.5535773},{"id":"9503672431","name":"Unid Esc Feliciano De Oliveira","tags":"amenity:school","lat":-3.6980976,"lng":-42.5908063},{"id":"9503672584","name":"U E Augusto Cesar Maia","tags":"amenity:school","lat":-3.7166196,"lng":-42.5535826},{"id":"9504992457","name":"Escola Municipal De Melancias","tags":"amenity:school","lat":-3.6957288,"lng":-42.6670106},{"id":"9505004236","name":"Unidade Escolar De Buritizinho","tags":"amenity:school","lat":-3.7405344,"lng":-42.6117463}]