[{"id":"9032559060","name":"Ue Creomar Costa","tags":"amenity:school","lat":-3.3981256,"lng":-43.5747793},{"id":"9034634461","name":"Unidade Escolar Antonio Jaco","tags":"amenity:school","lat":-3.394297,"lng":-43.4878275},{"id":"9043011996","name":"Em Aureliano Chaves","tags":"amenity:school","lat":-3.3643874,"lng":-43.3488335},{"id":"9099007466","name":"Ue Jarbas Passarinho","tags":"amenity:school","lat":-3.4347746,"lng":-43.3008353},{"id":"9143413604","name":"EM Nossa Senhora da Paz","tags":"amenity:school","lat":-3.366936,"lng":-43.2560683},{"id":"9261859557","name":"U I Dom Pedro I","tags":"amenity:school","lat":-3.477794,"lng":-43.5749142},{"id":"9261861806","name":"U E Rosa Pereira Felix De Sousa","tags":"amenity:school","lat":-3.426895,"lng":-43.509538},{"id":"9261873879","name":"Unidade Escolar Antonio Gomes Carneiro","tags":"amenity:school","lat":-3.3817367,"lng":-43.494464},{"id":"9261903668","name":"Ue Paula Torquato De Mesquita","tags":"amenity:school","lat":-3.3476832,"lng":-43.4770028},{"id":"9265233452","name":"UE Raimundo Araujo","tags":"amenity:school","lat":-3.4834216,"lng":-43.4073807},{"id":"9265241096","name":"Em Prof Maria Rodrigues Da Silva","tags":"amenity:school","lat":-3.4738503,"lng":-43.3820768},{"id":"9265258695","name":"UE Alcebiades Rodrigues de Sousa","tags":"amenity:school,operator:UE ALCEBIADES RODRIGUES DE SOUSA","lat":-3.4354172,"lng":-43.4318291},{"id":"9265277720","name":"Ue Manoel R Pinheiro","tags":"amenity:school","lat":-3.4482445,"lng":-43.3933742},{"id":"9327270362","name":"Em Jose Sarney","tags":"amenity:school","lat":-3.4434118,"lng":-43.3207481},{"id":"9327279075","name":"Unidade De Educacao Basica Pedro Alvares Cabral","tags":"amenity:school","lat":-3.4087232,"lng":-43.3146085},{"id":"9327659965","name":"Em Mil Sao Roque","tags":"amenity:school","lat":-3.3817766,"lng":-43.3073251},{"id":"9332381344","name":"Ue Zilda Mesquita","tags":"amenity:school","lat":-3.3586828,"lng":-43.5542531},{"id":"9332456697","name":"UE JOAO PEREIRA SOBRINHO","tags":"amenity:school","lat":-3.4595214,"lng":-43.4520073}]