[{"id":"9033314377","name":"EM Pontes de Aguiar","tags":"amenity:school","lat":-3.2672709,"lng":-42.4766056},{"id":"9121174396","name":"Em Fernando Coelho","tags":"amenity:school","lat":-3.2913723,"lng":-42.3070796},{"id":"9121201449","name":"Em Jose De Freitas","tags":"amenity:school","lat":-3.3068391,"lng":-42.3951606},{"id":"9121202680","name":"Em Manoel De Almeida Portugal","tags":"amenity:school","lat":-3.2694758,"lng":-42.2892268},{"id":"9121204003","name":"Em Sao Vicente","tags":"amenity:school","lat":-3.328558,"lng":-42.4339186},{"id":"9121209052","name":"Em Santo Antonio","tags":"amenity:school","lat":-3.3176919,"lng":-42.3786758},{"id":"9338167597","name":"Em Goncalves Dias","tags":"amenity:school","lat":-3.2117653,"lng":-42.417997},{"id":"9338204245","name":"Em Tiradentes","tags":"amenity:school","lat":-3.2733011,"lng":-42.4997292},{"id":"9338206481","name":"EM Bernardo Coelho De Almeida","tags":"amenity:school","lat":-3.2588273,"lng":-42.4641417},{"id":"9338212194","name":"Centro De Ensino Dr Henrique Couto - Anexo I - Baixa Grande","tags":"amenity:school","lat":-3.2449639,"lng":-42.4560897},{"id":"9338213763","name":"Em Professora Aurea Serra Castelo Branco","tags":"amenity:school","lat":-3.1860509,"lng":-42.3553433},{"id":"9338228017","name":"Em Cristo Rei","tags":"amenity:school","lat":-3.1644521,"lng":-42.5378461}]