[{"id":"9502693670","name":"Unid Esc Lindolfo Nunes","tags":"amenity:school","lat":-4.0518289,"lng":-42.0075358},{"id":"9502744891","name":"Unidade Escolar Frexeiras","tags":"amenity:school","lat":-4.0711378,"lng":-42.0653616},{"id":"9502758251","name":"Unidade Escolar Magno Pires I","tags":"amenity:school","lat":-4.183576,"lng":-42.0023592},{"id":"9502764859","name":"Unidade Escolar Alzira Sousa","tags":"amenity:school","lat":-4.1883938,"lng":-41.9523923},{"id":"9502766020","name":"Unidade Escolar Jose De Arimatea Castro","tags":"amenity:school","lat":-4.1365684,"lng":-42.1310167},{"id":"9502774596","name":"Unid Esc Santa Rita","tags":"amenity:school","lat":-4.0518584,"lng":-41.9196935},{"id":"9502775639","name":"Unidade Escolar Joana Darc Castelo Branco","tags":"amenity:school","lat":-4.0845176,"lng":-41.9700466},{"id":"9503610971","name":"Esc Constancia Rosa De Meneses","tags":"amenity:school","lat":-4.1316701,"lng":-41.9320907},{"id":"9503621623","name":"Esc Constancia Rosa De Meneses","tags":"amenity:school","lat":-4.1527934,"lng":-41.9078891}]