[{"id":"5635156821","name":"Bradesco","tags":"amenity:bank","lat":-3.020865,"lng":-41.135317},{"id":"6407758010","name":"Bar Espiranza","tags":"amenity:bar","lat":-3.0440198,"lng":-41.1930748},{"id":"6407758011","tags":"amenity:bar","lat":-3.044248,"lng":-41.2369029},{"id":"6407758012","name":"Mercado","tags":"shop:convenience","lat":-3.0415539,"lng":-41.2437176},{"id":"6407758013","name":"Mercadona","tags":"shop:convenience","lat":-3.0546498,"lng":-41.3147397},{"id":"6407758135","name":"Sallinas","tags":"amenity:restaurant","lat":-3.047888,"lng":-41.2456974},{"id":"6407758136","tags":"amenity:bar","lat":-3.0586917,"lng":-41.3823268},{"id":"6407759948","name":"Esquina Bar","tags":"amenity:bar","lat":-3.0200161,"lng":-41.1343317},{"id":"6407759949","tags":"amenity:bar","lat":-3.0771591,"lng":-41.2521172},{"id":"6407760102","name":"Lanchonete Bar","tags":"amenity:bar","lat":-3.0197305,"lng":-41.1353664},{"id":"6407760113","tags":"amenity:bar","lat":-3.0808041,"lng":-41.4455449},{"id":"9505738767","name":"Creche Tia Marta","tags":"amenity:school","lat":-3.0790768,"lng":-41.4369844},{"id":"9505747092","name":"Escola Municipal Professora Josefina","tags":"amenity:school","lat":-3.1491452,"lng":-41.4570393},{"id":"9505747097","name":"Escola Rural Pedra Branca","tags":"amenity:school","lat":-3.1528303,"lng":-41.4714696},{"id":"9505751320","name":"Escola Rural Carnauba Baixa","tags":"amenity:school","lat":-3.1639098,"lng":-41.4795054},{"id":"9505754497","name":"Escola Municipal Jose Carmino De Sousa","tags":"amenity:school","lat":-3.1238202,"lng":-41.4544241},{"id":"9505763192","name":"Unid Esc Anatolio Thiers Carneiro","tags":"amenity:school","lat":-3.0083878,"lng":-41.3193534},{"id":"9505825983","name":"Escola Municipal Sao Sebastiao","tags":"amenity:school","lat":-3.0050236,"lng":-41.4763699},{"id":"9505842877","name":"Escola Municipal De Educ Infantil Raio De Sol","tags":"amenity:school","lat":-3.0047745,"lng":-41.4757021},{"id":"9505844015","name":"Unid Esc Joao Florencio De Sousa","tags":"amenity:school","lat":-3.0137154,"lng":-41.3835816},{"id":"9505844860","name":"Unid Esc Eulidio Carvalho","tags":"amenity:school","lat":-2.9885077,"lng":-41.4050205},{"id":"9505844861","name":"Unid Esc Jose Durval De Brito","tags":"amenity:school","lat":-3.0392519,"lng":-41.3027023},{"id":"9505847980","name":"Unid Esc Raimundo Machado Oliveira","tags":"amenity:school","lat":-3.0587025,"lng":-41.3840188},{"id":"9505861698","name":"Unid Esc Manuel Rodrigues","tags":"amenity:school","lat":-3.0458408,"lng":-41.3863362}]