[{"id":"3033531834","tags":"shop:convenience","lat":-2.9100334,"lng":-41.4114204},{"id":"3814226357","name":"BeeKite Brasil Kitesurf Center","tags":"leisure:sports_centre,sport:surfing,website:https://www.kitesurf-brasil.eu/,wheelchair:limited","lat":-2.907764,"lng":-41.450608},{"id":"4717542957","tags":"amenity:police","lat":-2.934215,"lng":-41.3314341},{"id":"4851176925","name":"La Pizza","tags":"amenity:restaurant,name:pt:La Pizza","lat":-2.9085682,"lng":-41.4075954},{"id":"4851176926","name":"MaouMé","tags":"amenity:restaurant,cuisine:steak_house,internet_access:wlan,name:en:Brasa do Mar,name:pt:Brasa do Mar","lat":-2.9084783,"lng":-41.4077048},{"id":"4851176927","name":"Farmácia São José","tags":"amenity:pharmacy,healthcare:pharmacy","lat":-2.9100513,"lng":-41.4098229},{"id":"4851177023","name":"Ora Burguer","tags":"amenity:restaurant,name:pt:Ora Burguer","lat":-2.908537,"lng":-41.4078134},{"id":"4851200621","name":"Bandoleiros","tags":"amenity:restaurant,name:pt:Bandoleiros","lat":-2.9083987,"lng":-41.4074036},{"id":"4952914186","name":"Farmacia Barra","tags":"amenity:pharmacy","lat":-2.9109231,"lng":-41.4105775},{"id":"5137459121","name":"Manga Rosa","tags":"addr:housenumber:300,addr:postcode:64222-000,addr:street:Rua Pontal da Barra,amenity:restaurant,email:mangarosa@mangarosabg.com.br,internet_access:wlan,opening_hours:Mo-Sa 18:00-23:30,phone:+558633698151","lat":-2.9086124,"lng":-41.4080307},{"id":"5317299321","name":"Pomodoro Basilico","tags":"addr:housenumber:194,addr:postcode:64222000,addr:street:rua pontal da barra,amenity:restaurant,cuisine:fish;pasta;italian;crepe;brazilian,email:robyadry@hotmail.com,internet_access:wlan,opening_hours:We-Mo 11:30-22:30,operator:Roberto Pirovano,phone:+5586999412969","lat":-2.9093215,"lng":-41.4088507},{"id":"6143251058","name":"Mô Restaurante","tags":"amenity:restaurant","lat":-2.9098304,"lng":-41.4087445},{"id":"6143251061","name":"Vila dos Poetas","tags":"amenity:restaurant","lat":-2.9079902,"lng":-41.4052786},{"id":"6360843717","tags":"amenity:school","lat":-2.8941153,"lng":-41.2738013},{"id":"6360848428","name":"Creche","tags":"amenity:school","lat":-2.89519,"lng":-41.2755147},{"id":"7108299872","name":"Fish Bar","tags":"amenity:bar","lat":-2.9100186,"lng":-41.4095472},{"id":"7110922283","name":"Barraca do Capucho","tags":"amenity:restaurant","lat":-2.9072534,"lng":-41.4080417},{"id":"7110956658","name":"Recanto Casero","tags":"amenity:restaurant","lat":-2.9102153,"lng":-41.4098085},{"id":"7112340248","name":"Bar da Villa","tags":"amenity:bar,opening_hours:Mo-Su 09:30-17:00","lat":-2.907302,"lng":-41.4053319},{"id":"9314921231","name":"Cajueiro Rei","tags":"leaf_cycle:evergreen,natural:tree,tourism:attraction","lat":-2.9321172,"lng":-41.3315374},{"id":"9505785083","name":"Unid Esc Duque De Caxias","tags":"amenity:school","lat":-2.9242097,"lng":-41.3561855},{"id":"9505870190","name":"Unid Esc Jose Adriao De Araujo","tags":"amenity:school","lat":-2.9304457,"lng":-41.3379787},{"id":"9505876577","name":"U E Manoel Ricardo","tags":"amenity:school","lat":-2.9289349,"lng":-41.3364123},{"id":"9505876578","name":"Unid Escolar Maria Florencia Do Nascimento","tags":"amenity:school","lat":-2.913101,"lng":-41.3862585}]