[{"id":"5260981222","name":"Praça do Sanharão e Camelodramos","tags":"leisure:park","lat":-3.5011659,"lng":-39.5839132},{"id":"6632067296","name":"Eeb Maria Das Mecês Gomes","tags":"amenity:school","lat":-3.4744322,"lng":-39.4375614},{"id":"7143417385","name":"DETRAN Itapipoca","tags":"amenity:police","lat":-3.4846548,"lng":-39.5679079},{"id":"7323237816","name":"Clube de Tiro Três Climas","tags":"alt_name:Clube de Tiro 3 Climas,leisure:sports_centre,sport:shooting","lat":-3.4832042,"lng":-39.565101},{"id":"7817957114","name":"SAMU","tags":"addr:city:itapipoca,addr:postcode:62505670,addr:street:Rua Bey de Sousa,addr:suburb:julho 2,amenity:hospital,healthcare:hospital,healthcare:speciality:general","lat":-3.4827709,"lng":-39.5652939},{"id":"9135157317","tags":"amenity:bus_station,name:en:Microbus station","lat":-3.4998985,"lng":-39.5846297},{"id":"9573099817","name":"Farmácia Prista","tags":"addr:street:Avenida José do Patrocínio,amenity:pharmacy","lat":-3.4996919,"lng":-39.5790072},{"id":"9701717983","name":"Comercial Gabrielly","tags":"shop:supermarket","lat":-3.36238,"lng":-39.6077652},{"id":"10167371917","name":"Kaki","tags":"addr:street:Rua Justiniano de Serpa,amenity:restaurant","lat":-3.4961963,"lng":-39.5932943},{"id":"10281166502","name":"Balneário o BEIJU poço verde","tags":"amenity:restaurant","lat":-3.4424644,"lng":-39.6344469},{"id":"10281185843","name":"Balneário Central Poço Verde","tags":"amenity:restaurant","lat":-3.4380588,"lng":-39.6284651},{"id":"10281195787","name":"Bar E Restaurante O Nair - Poço Verde","tags":"amenity:restaurant","lat":-3.4419674,"lng":-39.6352039},{"id":"10281233866","name":"Balneário brisa das águas","tags":"amenity:restaurant","lat":-3.4434975,"lng":-39.6325576},{"id":"10555447063","name":"Escola Antonio Danúsio Barroso","tags":"amenity:school","lat":-3.3534161,"lng":-39.6837329},{"id":"10563746458","name":"UNIASSELVI ITAPIPOCA","tags":"addr:city:Itapipoca,addr:housenumber:130,addr:postcode:62503-500,addr:street:Avenida Manoel Alves de Freitas,addr:suburb:Maranhão,amenity:university,website:https://portal.uniasselvi.com.br/","lat":-3.4844572,"lng":-39.5868931}]