[{"id":"3746071344","name":"Sao Luis - Alcantara","tags":"amenity:ferry_terminal,ferry:yes,public_transport:station","lat":-2.4059726,"lng":-44.4244449},{"id":"4357918499","tags":"amenity:restaurant,cuisine:brazilian,name:en:Eugênia Lanchonete Bar & Restaurant","lat":-2.4065394,"lng":-44.4232959},{"id":"4357991790","name":"Restaurante Cinco Irmãs","tags":"addr:city:Alcântara,addr:postcode:65250-000,addr:street:Rua de Baixo,addr:suburb:Centro,air_conditioning:no,amenity:restaurant,cuisine:brazilian,name:en:Cinco Irmãs Restaurant,payment:cash:yes,wheelchair:limited","lat":-2.407362,"lng":-44.4169264},{"id":"4357999989","tags":"amenity:restaurant,cuisine:brazilian,name:en:Bar e Restaurante Temperos","lat":-2.4065051,"lng":-44.4232641},{"id":"4738778139","name":"Restaurante e Pousada da Josefa","tags":"amenity:restaurant,tourism:hotel","lat":-2.4062069,"lng":-44.415204},{"id":"4844514421","name":"Banco do Brasil","tags":"amenity:atm,brand:Banco do Brasil,brand:wikidata:Q610817,brand:wikipedia:en:Banco do Brasil,operator:Banco do Brasil,operator:wikidata:Q610817,operator:wikipedia:en:Banco do Brasil","lat":-2.4077129,"lng":-44.4165389},{"id":"4844588921","name":"Bradesco","tags":"amenity:atm,brand:Bradesco,brand:wikidata:Q806181,brand:wikipedia:en:Banco Bradesco,operator:Bradesco,operator:wikidata:Q806181,operator:wikipedia:en:Banco Bradesco","lat":-2.4062495,"lng":-44.4150624},{"id":"4975899121","name":"Restaurante Colonial","tags":"addr:city:Alcântara,addr:postcode:65250-000,addr:street:Rua Direita,addr:suburb:Centro,amenity:restaurant,cuisine:burger;brasileira,delivery:yes,name:pt:Colonial Restaurant,outdoor_seating:yes,payment:cards:yes,payment:cash:yes","lat":-2.4066779,"lng":-44.4149869},{"id":"5443788923","name":"Portico de Alcantara","tags":"tourism:attraction","lat":-2.3992348,"lng":-44.4094837},{"id":"5443788937","name":"Praia de Tapireí","tags":"tourism:attraction","lat":-2.404404,"lng":-44.385801},{"id":"5443788988","name":"Galeria Bar","tags":"amenity:restaurant","lat":-2.4067341,"lng":-44.4234887},{"id":"5443788989","name":"Bar & Restaurante Tia Sulamita","tags":"amenity:restaurant","lat":-2.4068889,"lng":-44.4236416},{"id":"5443788991","name":"Pousada & Restaurante Jacare","tags":"amenity:restaurant","lat":-2.4065948,"lng":-44.4233532},{"id":"5443789014","tags":"amenity:pharmacy,healthcare:pharmacy","lat":-2.4076211,"lng":-44.4162668},{"id":"5443789016","name":"Pelourinho de Alcântara (Picota)","tags":"historic:monument,image:https://upload.wikimedia.org/wikipedia/commons/1/18/Alc%C3%A2ntara_-_01.jpg,tourism:attraction","lat":-2.4087292,"lng":-44.4174095},{"id":"5446684581","name":"Natura","tags":"shop:beauty","lat":-2.4048371,"lng":-44.4164781},{"id":"5446684591","tags":"amenity:bar","lat":-2.4052461,"lng":-44.4150759},{"id":"7140939686","name":"E. M. Inácio de Viveiros Raposo","tags":"addr:city:Alcântara,addr:housenumber:181,addr:postcode:65250-000,addr:street:Rua de Baixo,addr:suburb:Centro,amenity:school,operator:Prefeitura de Alcântara,operator:type:public","lat":-2.4071395,"lng":-44.4158751},{"id":"7140939687","name":"EM - Doutor Odilon Soares","tags":"addr:postcode:65250-000,amenity:school","lat":-2.3057733,"lng":-44.6423463},{"id":"7140939689","name":"EM - Duque de Caxias","tags":"addr:city:Alcântara,addr:postcode:65250-000,amenity:school,phone:+55 98 9 9141 9643","lat":-2.43883,"lng":-44.6474837},{"id":"7140949293","name":"EM - Deputado Saboia","tags":"addr:postcode:65250-000,amenity:school","lat":-2.3687125,"lng":-44.4135262},{"id":"7140949294","name":"EM - Doutor Silva Maia","tags":"addr:postcode:65250-000,amenity:school","lat":-2.3263209,"lng":-44.6348187},{"id":"7140949295","name":"EM - Eurico Ribeiro","tags":"addr:city:Alcântara,addr:postcode:65250-000,amenity:school,phone:+55 98 3337 7011","lat":-2.3887241,"lng":-44.58244},{"id":"7140949388","name":"EM - Barão de Grajau","tags":"addr:city:Alcântara,addr:postcode:65250-000,amenity:school,phone:+55 98 9 9155 7620","lat":-2.3801233,"lng":-44.4602817},{"id":"7141016488","name":"EM - José Bonifácio","tags":"addr:city:Alcântara,addr:postcode:65250-000,amenity:school,phone:+55 98 9 9170 0514","lat":-2.3913442,"lng":-44.6045221},{"id":"7233962510","name":"Museu Historico de Alcantara","tags":"tourism:museum","lat":-2.4081615,"lng":-44.4176746},{"id":"7233973724","name":"Drogaria Alcântara","tags":"amenity:pharmacy,healthcare:pharmacy","lat":-2.4055574,"lng":-44.4151067},{"id":"7247685823","name":"Museu Casa Historica de Alcantara","tags":"addr:city:Alcântara,addr:postcode:65250-000,addr:street:Praça da Matriz,addr:suburb:Centro,museum:history,opening_hours:Fechado para reforma,operator:Ibram,operator:type:public,tourism:museum,website:https://museucasahistoricadealcantara.museus.gov.br/,wikidata:Q56693879,wikipedia:pt:Museu Casa Histórica de Alcântara","lat":-2.4084404,"lng":-44.4179169},{"id":"9022814837","name":"EM Senador Archer","tags":"addr:city:Alcântara,addr:postcode:65250-000,amenity:school,phone:+55 98 9 9222 3117","lat":-2.3425947,"lng":-44.4967594},{"id":"9022902121","name":"Jardim de Infancia Ver Mamedio Pereira","tags":"addr:city:Alcântara,addr:postcode:65250-000,addr:suburb:Oitiua,amenity:school,phone:+55 98 9 9194 9272","lat":-2.4362831,"lng":-44.6467653},{"id":"9022928854","name":"EM Zumbi dos Palmares","tags":"addr:city:Alcântara,addr:postcode:65250-000,amenity:school,phone:+55 98 9 9151 4974","lat":-2.3105074,"lng":-44.5484414},{"id":"9022968518","name":"EM Doutora Naisa Araujo Leite","tags":"addr:city:Alcântara,addr:postcode:65250-000,amenity:school,phone:+55 98 9 9166 9837","lat":-2.4120251,"lng":-44.6014479},{"id":"9022971459","name":"EM Vereador Joaquim Ribeiro","tags":"addr:city:Alcântara,addr:postcode:65250-000,amenity:school","lat":-2.3058256,"lng":-44.5975182},{"id":"9022974183","name":"EM Deputado Saboia","tags":"addr:city:Alcântara,addr:postcode:65250-000,amenity:school","lat":-2.3318573,"lng":-44.4801436},{"id":"9022982053","name":"Centro Educacional Mundo Encantado","tags":"addr:city:Alcântara,addr:postcode:65250-000,addr:street:Avenida Principal,addr:suburb:Caravelas,amenity:school","lat":-2.4019649,"lng":-44.4099812},{"id":"9548706952","name":"Jardim de Infância Inácio de Viveiros Raposo","tags":"addr:city:Alcântara,addr:postcode:65250-000,addr:street:Rua Grande,addr:suburb:Centro,amenity:childcare,operator:Prefeitura de Alcântara,operator:type:public","lat":-2.4072533,"lng":-44.4160238},{"id":"9548712864","name":"Casa de Cultura Aeroespacial","tags":"addr:city:Alcântara,addr:postcode:65250-000,addr:street:Rua Doutor Silva Maia,addr:suburb:Caravelas,museum:technology,operator:Centro de Lançamento de Alcântara,operator:type:government,tourism:museum,wikidata:Q56693248,wikipedia:pt:Casa de Cultura Aeroespacial","lat":-2.4039783,"lng":-44.4147281}]