[{"id":"7140949290","name":"EM - Santa Terezinha","tags":"addr:city:Alcântara,addr:postcode:65250-000,amenity:school","lat":-2.2313745,"lng":-44.5797215},{"id":"7140949292","name":"EM - Deputado Américo de Sousa","tags":"addr:postcode:65250-000,amenity:school,phone:+55 98 3016 0031","lat":-2.279635,"lng":-44.49352},{"id":"7140949385","name":"EM - Assis Chateu Briand","tags":"addr:city:Alcântara,addr:postcode:65250-000,amenity:school,phone:+55 98 9 9202 8051","lat":-2.2150073,"lng":-44.5533802},{"id":"7140949685","name":"EM - Doutor Benedito Leite","tags":"addr:city:Alcântara,addr:postcode:65250-000,amenity:school,phone:+55 98 9 8300 3607","lat":-2.1827365,"lng":-44.4441127},{"id":"7140949686","name":"EM - Doutor João Leite","tags":"addr:postcode:65250-000,amenity:school","lat":-2.2664761,"lng":-44.5332975},{"id":"7141016485","name":"EM - Governador José Sarney","tags":"addr:postcode:65250-000,amenity:school","lat":-2.1612969,"lng":-44.5168035},{"id":"9344766640","name":"Centro De Ensino Nossa Senhora Da Assuncao - Anexo I - Cuma","tags":"amenity:school","lat":-2.1232052,"lng":-44.5828159}]