[{"id":"9056771742","name":"Jardim de Infância Professora Rosa Ewerton","tags":"amenity:school","lat":-2.0112195,"lng":-44.5144089},{"id":"9110890888","name":"Escola Municipal Professora Nelsonita Passinho","tags":"amenity:school","lat":-1.9970701,"lng":-44.5346032},{"id":"9115262127","name":"Escola Municipal Vereador Benedito Gomes Pereira","tags":"amenity:school","lat":-2.0201006,"lng":-44.6237548},{"id":"9119973728","name":"Escola Municipal Antônio Martins Azevedo","tags":"amenity:school","lat":-1.9390923,"lng":-44.5781151},{"id":"9124255926","name":"Ui Artur Raimundo Farias","tags":"amenity:school","lat":-2.0753076,"lng":-44.5466115},{"id":"9235436092","name":"Cei Luciano Louzeiro Coimbra","tags":"amenity:school","lat":-1.9393361,"lng":-44.6423341},{"id":"9342312182","name":"Uef Rosa Ivone Braga Fonseca","tags":"amenity:school","lat":-1.9379542,"lng":-44.6358271},{"id":"9344697299","name":"Escola Municipal Elpidio GOnçalves Passinho","tags":"amenity:school","lat":-1.9351046,"lng":-44.5533599},{"id":"9344731778","name":"Escola Municipal Elza Gomes Pereira","tags":"amenity:school","lat":-2.0194957,"lng":-44.6456976},{"id":"9344747003","name":"ESCOLA MUNICIPAL EUZILIA PEREIRA LEITE","tags":"amenity:school","lat":-1.9396511,"lng":-44.6200906},{"id":"9344750925","name":"Jardim de Infacia Professora Luzia Otilia Silva Tobias","tags":"amenity:school","lat":-1.999807,"lng":-44.5775186}]