[{"id":"9032421879","name":"Ui Juvencio Vieira","tags":"amenity:school","lat":-1.6221589,"lng":-44.9689521},{"id":"9041399697","name":"Cef Nossa Senhora De Fatima","tags":"amenity:school","lat":-1.6780075,"lng":-44.9114616},{"id":"9092753270","name":"Cef Sao Benedito","tags":"amenity:school","lat":-1.7315784,"lng":-44.9628715},{"id":"9312371955","name":"CEF São José","tags":"amenity:school","lat":-1.6708008,"lng":-44.861484},{"id":"9342276547","name":"Ue 21 De Abril","tags":"amenity:school","lat":-1.6257061,"lng":-44.9686544},{"id":"9342280115","name":"UI JULIO SOUSA RIBEIRO","tags":"amenity:school","lat":-1.7219187,"lng":-44.7916447},{"id":"9342285050","name":"Cef Dr Trajano Marques","tags":"amenity:school","lat":-1.6894275,"lng":-44.9538566},{"id":"9342289603","name":"Cef Tancredo Neves","tags":"amenity:school","lat":-1.6842343,"lng":-44.8793985}]