[{"id":"1042080489","name":"Aeródromo Sítio Vodó","tags":"aeroway:aerodrome","lat":-4.0937477,"lng":-38.248188},{"id":"1042088143","name":"Aeródromo Darinha","tags":"aeroway:aerodrome","lat":-4.1163888,"lng":-38.2508316},{"id":"1925824788","tags":"amenity:bank,atm:yes","lat":-4.1802541,"lng":-38.1293653},{"id":"2353639961","tags":"amenity:restaurant","lat":-4.1530881,"lng":-38.1114927},{"id":"2353658271","tags":"amenity:bar","lat":-4.1455147,"lng":-38.1186287},{"id":"2353658275","tags":"amenity:bar","lat":-4.1458143,"lng":-38.1183672},{"id":"2353658283","tags":"amenity:bar","lat":-4.1445409,"lng":-38.1194884},{"id":"2353664649","tags":"amenity:cafe","lat":-4.1520689,"lng":-38.1212854},{"id":"4315073734","name":"Gruta da Praia das Fontes","tags":"addr:city:Beberibe,addr:street:Praia das Fontes,addr:suburb:Praia das Fontes,tourism:attraction","lat":-4.1861997,"lng":-38.075801},{"id":"4408746974","tags":"shop:supermarket","lat":-4.1821432,"lng":-38.1291046},{"id":"4408766313","name":"Super Colaço","tags":"shop:supermarket","lat":-4.1821395,"lng":-38.1300629},{"id":"4420063680","tags":"amenity:atm","lat":-4.1542975,"lng":-38.1117345},{"id":"4420063681","name":"Mercadinho","tags":"shop:supermarket","lat":-4.1545029,"lng":-38.1118491},{"id":"5900107578","name":"Colégio Fênix","tags":"amenity:school","lat":-4.127922,"lng":-38.2385159},{"id":"6051262706","name":"Restaurante na casa dela","tags":"amenity:restaurant,opening_hours:Mo-Sa 11:00-15:00,phone:+55 85988420105","lat":-4.1316434,"lng":-38.2433002},{"id":"6381277693","tags":"amenity:bus_station,bus:yes,network:São Benedito, Aurora,public_transport:station","lat":-4.1309294,"lng":-38.2390563},{"id":"6796097271","name":"Barraca do Gilson","tags":"amenity:restaurant","lat":-4.1962998,"lng":-38.066829},{"id":"6803061522","name":"Bom Boteco","tags":"addr:city:Cascavel,addr:housenumber:3185,addr:postcode:62850000,addr:street:Av. Chanceler Edson Queiroz,amenity:restaurant","lat":-4.1313276,"lng":-38.2470214},{"id":"6803061523","name":"Pizzaria Elshadai","tags":"addr:city:Cascavel,addr:housenumber:3135,addr:postcode:62850000,addr:street:Av. Chanceler Edson Queiroz,amenity:restaurant,cuisine:pizza","lat":-4.1314878,"lng":-38.246536},{"id":"6803061524","name":"Lima do Camarão","tags":"addr:city:Cascavel,addr:housenumber:3205,addr:postcode:62850000,addr:street:Av. Chanceler Edson Queiroz,amenity:restaurant","lat":-4.1312814,"lng":-38.2474007},{"id":"6803079103","name":"E.E.E.P. Edson Queiroz","tags":"addr:city:Cascavel,addr:housenumber:255,addr:postcode:62850000,addr:street:R. Luciano Rodrigues,amenity:school","lat":-4.1349067,"lng":-38.2436735},{"id":"7124450885","name":"Labirinto de Falésias","tags":"tourism:attraction","lat":-4.1560159,"lng":-38.1075144},{"id":"7846605232","name":"Mata Quiri","tags":"addr:city:Cascavel,addr:housenumber:51,addr:postcode:62.850-00,addr:street:Rodovia Plácido Castelo,addr:suburb:Jardim Primavera,leisure:park,opening_hours:Mo-Su 09:00-21:00,opening_hours:covid19:off,operator:Prefeitura de Cascavel","lat":-4.1189291,"lng":-38.2689034},{"id":"7921734485","name":"Mercadinho Litoral","tags":"addr:housenumber:1,addr:postcode:6284000,addr:street:Avenida B,shop:supermarket","lat":-4.1520624,"lng":-38.12101},{"id":"7921736885","name":"Farmácia Morro Branco","tags":"addr:housenumber:476,addr:street:Rua Joāo Gama,amenity:pharmacy,name:pt:Farmácia Gama Morro Branco","lat":-4.1537234,"lng":-38.1138212},{"id":"8026067461","name":"Lango Mercadinho","tags":"addr:city:cascavel,addr:housenumber:3891,addr:postcode:62850000,addr:street:Avenida Desembargador Feliciano de Atayde,addr:suburb:parque urupe,opening_hours:seg-dom,opening_hours:covid19:open,payment:cash:yes,payment:credit_cards:yes,payment:debit_cards:yes,payment:mastercard:yes,shop:supermarket","lat":-4.1191462,"lng":-38.2466927},{"id":"8725384919","name":"Regina marmita","tags":"amenity:restaurant","lat":-4.1862067,"lng":-38.1269978},{"id":"8736317817","tags":"shop:supermarket","lat":-4.1540487,"lng":-38.1136811},{"id":"8742913517","name":"Hospital Municipal Monsenhor Dourado","tags":"addr:street:Rua João Baltazar,amenity:hospital,opening_hours:24/7","lat":-4.1810284,"lng":-38.1313815},{"id":"8742914117","tags":"addr:street:Rua João Baltazar,shop:supermarket","lat":-4.1814916,"lng":-38.1317146},{"id":"8750750518","tags":"addr:street:Rua Vicente Mathis,amenity:pharmacy","lat":-4.1814626,"lng":-38.1291416},{"id":"8750769317","name":"Polícia Civil","tags":"amenity:police","lat":-4.184933,"lng":-38.1264404},{"id":"8762549417","name":"Casa de ração","tags":"addr:street:Rua Monsenhor Dourado,shop:pet","lat":-4.1810982,"lng":-38.1304228},{"id":"8770539218","name":"Rodoviária de Beberibe","tags":"addr:street:Avenida Maria Calado,amenity:bus_station","lat":-4.1824321,"lng":-38.1381174},{"id":"8770539417","name":"Biblioteca Municipal","tags":"addr:street:Rua Edgar Facó,amenity:library","lat":-4.1802529,"lng":-38.1305395},{"id":"8792001249","name":"Gama","tags":"amenity:pharmacy","lat":-4.1821346,"lng":-38.129795},{"id":"8792001256","name":"Fontes","tags":"tourism:attraction","lat":-4.1968444,"lng":-38.0667518},{"id":"8792002423","tags":"shop:supermarket","lat":-4.1814105,"lng":-38.1281174},{"id":"8792005230","name":"Doce Arte","tags":"addr:street:Rua João Baltazar,amenity:cafe","lat":-4.1826495,"lng":-38.1315861},{"id":"8792005239","name":"HMMD","tags":"addr:street:Rua Monsenhor Dourado,amenity:hospital,opening_hours:24/7","lat":-4.1810136,"lng":-38.1312482},{"id":"8798301035","name":"Farmácia Beberibe","tags":"addr:street:Rua João Baltazar,amenity:pharmacy,opening_hours:Mo-Sa 09:00-18:00","lat":-4.1813219,"lng":-38.1316922},{"id":"8807856017","name":"Posto de Saúde","tags":"addr:street:Rua Padre Assis Portela,amenity:hospital,opening_hours:Mo-Fr 09:00-18:00","lat":-4.1811319,"lng":-38.1274975},{"id":"8887653226","name":"Supermercado Freitas","tags":"shop:supermarket","lat":-4.1348773,"lng":-38.2478688},{"id":"9002232517","name":"Posto 4 UBS","tags":"amenity:hospital","lat":-4.183225,"lng":-38.1262148},{"id":"9071328419","name":"Correios","tags":"amenity:post_office","lat":-4.1814671,"lng":-38.1277574},{"id":"9071328519","name":"Atacadao","tags":"shop:supermarket","lat":-4.1823137,"lng":-38.1341218},{"id":"9804710238","name":"Seu Churrasco","tags":"amenity:restaurant,cuisine:steak_house","lat":-4.1301878,"lng":-38.2405199},{"id":"10302113709","name":"Mercadinho dois Irmãos","tags":"shop:supermarket","lat":-4.1554241,"lng":-38.1163768},{"id":"10302140009","name":"Mercadinho Regis","tags":"shop:supermarket","lat":-4.1557292,"lng":-38.1129947},{"id":"10302374011","name":"Nanda Variedades","tags":"amenity:cafe","lat":-4.1808775,"lng":-38.129708}]