[{"id":"5159880530","name":"Tao Paradise","tags":"amenity:restaurant,website:https://www.taoparadise.com/","lat":-5.3993901,"lng":-35.4931923},{"id":"8309104117","name":"Shuï Brasil","tags":"amenity:restaurant","lat":-5.4001223,"lng":-35.4952517},{"id":"10117519691","name":"Bar e Restaurante do Mar","tags":"addr:street:Rua Beira Mar,amenity:restaurant","lat":-5.4095261,"lng":-35.3109601},{"id":"10243961755","tags":"amenity:restaurant","lat":-5.3825771,"lng":-35.3378989},{"id":"10257716961","tags":"addr:city:Rio do Fogo,shop:convenience","lat":-5.3814987,"lng":-35.3368966},{"id":"10268905064","name":"Aconchego das Águas","tags":"addr:city:Catolé-RN,tourism:attraction","lat":-5.3941876,"lng":-35.4901187},{"id":"10268905082","name":"Paraíso das Águas","tags":"addr:city:Catolé-RN,tourism:attraction","lat":-5.3968344,"lng":-35.4917827},{"id":"10268905083","name":"Caminho das Águas","tags":"addr:city:Catolé-RN,tourism:attraction","lat":-5.395539,"lng":-35.4911641}]