[{"id":"5550656765","name":"Museu Histórico de Touros","tags":"tourism:museum","lat":-5.1998977,"lng":-35.4580425},{"id":"5985721360","tags":"shop:convenience","lat":-5.1587049,"lng":-35.4953016},{"id":"10288125547","name":"Correios","tags":"addr:city:Touros,amenity:post_office,brand:Empresa Brasileira de Correios e Telégrafos,brand:short:Correios,brand:wikidata:Q3375004,image:https://westnordost.de/p/125088.jpg","lat":-5.2004514,"lng":-35.4578035},{"id":"10543390541","name":"CIA Independente de Polícia Militar - 14° BPM","tags":"addr:city:Touros,addr:postcode:59584-000,addr:street:Avenida Adriana Dantas Ribeiro,addr:suburb:CENTRO,amenity:police,opening_hours:Mo-Su 06:00-22:00,operator:Polícia Militar do Estado do Rio Grande do Norte,operator:short:PMRN,operator:wikidata:Q10351032","lat":-5.195837,"lng":-35.4655951},{"id":"10543390542","name":"DELEGACIA DE POLICIA CIVIL","tags":"amenity:police,opening_hours:Mo-Fr 08:00-12:00","lat":-5.1957136,"lng":-35.4655544}]