[{"id":"339385973","name":"Baía dos Golfinhos","tags":"natural:bay,tourism:attraction,website:http://www.golfinhorotador.org.br/,wikidata:Q803700","lat":-3.8601939,"lng":-32.4512197},{"id":"2599767354","name":"Ficus elastica","tags":"height:10,leaf_type:broadleaved,natural:tree,tourism:attraction","lat":-3.8398954,"lng":-32.4117881},{"id":"2600419328","tags":"amenity:atm,brand:Santander,operator:Santander","lat":-3.8406011,"lng":-32.4109438},{"id":"2600419329","tags":"amenity:atm,brand:Bradesco,operator:Bradesco","lat":-3.8414331,"lng":-32.4109961},{"id":"2600419340","tags":"amenity:atm,brand:Banco24Horas,operator:Banco24Horas","lat":-3.8565028,"lng":-32.4285865},{"id":"2600419341","tags":"amenity:atm,brand:Bradesco,operator:Bradesco","lat":-3.8565364,"lng":-32.4285886},{"id":"2601056711","tags":"email:noronhafitness@hotmail.com,leisure:sports_centre,sport:exercise","lat":-3.8444589,"lng":-32.4063265},{"id":"2601191548","tags":"amenity:atm,brand:Santander,opening_hours:24/7,operator:Santander","lat":-3.8493531,"lng":-32.4258847},{"id":"3730555301","name":"Farmácia da Maezinha","tags":"addr:city:Fernando de Noronha,addr:country:BR,addr:housenumber:120,addr:postcode:53990-000,addr:street:Rua São Miguel,addr:suburb:Vila Dos Remédios,amenity:pharmacy","lat":-3.8423896,"lng":-32.410839},{"id":"3730555303","name":"Lojinha da Maezinha","tags":"addr:city:Fernando de Noronha,addr:country:BR,addr:housenumber:120,addr:postcode:53990-000,addr:street:Rua São Miguel,addr:suburb:Vila Dos Remédios,amenity:bar","lat":-3.8424174,"lng":-32.4108352},{"id":"3760443976","name":"Buraco do Galego","tags":"natural:cave_entrance,tourism:attraction","lat":-3.8374955,"lng":-32.4113399},{"id":"5143907540","name":"Casa Salviano - Sushi","tags":"addr:city:Fernando de Noronha,addr:country:BR,addr:postcode:53990-000,addr:street:Rua Joaquim Ferreira,addr:suburb:Vila do Porto,amenity:restaurant,cuisine:sushi,microbrewery:no,outdoor_seating:yes","lat":-3.8341694,"lng":-32.3999596},{"id":"6213401185","name":"Restaurante do Valdênio","tags":"amenity:restaurant,cuisine:local","lat":-3.8462276,"lng":-32.4070694}]