[{"id":"3891695575","name":"Paçoca Quarto de Bode","tags":"amenity:restaurant","lat":3.64406,"lng":-60.9734519},{"id":"3891695576","name":"Quarto de Bode - Paçoca de pilão","tags":"amenity:restaurant","lat":3.6310674,"lng":-60.9688785},{"id":"3891695577","name":"Km 98 - Paçoca de Pilão","tags":"amenity:restaurant","lat":3.6031091,"lng":-60.9613977},{"id":"10029272131","name":"Restaurante e Churrascaria","tags":"amenity:restaurant","lat":3.6473175,"lng":-60.9731445},{"id":"10029275614","name":"Rosa de Saron","tags":"amenity:restaurant","lat":3.6471623,"lng":-60.9742603}]