[{"id":"1365388243","name":"Bella Unión Free Shop","tags":"shop:supermarket","lat":-30.2473595,"lng":-57.587411},{"id":"1365388261","tags":"amenity:restaurant","lat":-30.2621505,"lng":-57.6114006},{"id":"2569745791","name":"Centro Médico","tags":"amenity:hospital","lat":-30.2579316,"lng":-57.5953994},{"id":"2569745792","name":"Centro Médico","tags":"amenity:hospital","lat":-30.2587783,"lng":-57.5974168},{"id":"4509292689","name":"Dufy Duty Free Shop Américas","tags":"addr:street:Avenida General José Gervasio Artigas,name:pt:Dufy Duty Free Shop Américas,shop:supermarket","lat":-30.2601409,"lng":-57.598324},{"id":"4509345290","name":"Neutral Duty Free Shop","tags":"addr:street:Avenida General José Gervasio Artigas,name:pt:Neutral Duty Free Shop,shop:supermarket","lat":-30.2580586,"lng":-57.5920111},{"id":"5060237935","name":"Yulivann","tags":"shop:convenience","lat":-30.2589561,"lng":-57.5934464},{"id":"5060238014","name":"Autoservicio Emiliano","tags":"shop:convenience","lat":-30.2594929,"lng":-57.5959171}]