[{"id":"1580010564","tags":"amenity:restaurant,wheelchair:yes","lat":-29.7557251,"lng":-57.0868097},{"id":"1580010580","tags":"amenity:bar,wheelchair:limited","lat":-29.7557297,"lng":-57.0878343},{"id":"1798820640","tags":"landmark:statue,tourism:attraction,wheelchair:yes","lat":-29.7562258,"lng":-57.0872341},{"id":"1798898091","name":"BIG","tags":"shop:supermarket,website:https://www.bighiper.com.br/","lat":-29.7703937,"lng":-57.0860021},{"id":"1798898092","name":"Baklizi","tags":"shop:supermarket","lat":-29.7778863,"lng":-57.0984108},{"id":"3621303657","name":"Escola Marechal Cândido Rondon","tags":"amenity:school","lat":-29.758914,"lng":-57.0920361},{"id":"7344792073","name":"Instituto Estadual Romaguera Côrrea","tags":"amenity:school,wheelchair:yes","lat":-29.7562646,"lng":-57.0893617},{"id":"8686178772","name":"EEEM Embaixador João Baptista Lusardo (CIEP)","tags":"amenity:school","lat":-29.7848299,"lng":-57.1018456},{"id":"8686178774","name":"EEEF Professor Antôno Moacir Pereira Jacques","tags":"amenity:school","lat":-29.7828179,"lng":-57.1042057},{"id":"8686182359","name":"EMEF Marilia Sanchotene Felice","tags":"amenity:school","lat":-29.7776719,"lng":-57.1041961},{"id":"8686182360","name":"EMEI Marilia Sanchotene Felice","tags":"amenity:school","lat":-29.7771478,"lng":-57.1048308},{"id":"8689309800","name":"Escola Municipal Cabo Luiz Quevedo","tags":"amenity:school","lat":-29.7785006,"lng":-57.102372},{"id":"8689316620","name":"Baklizi","tags":"shop:supermarket","lat":-29.7779621,"lng":-57.1047958},{"id":"9856978159","name":"Churrascaria e Restaurante Prodócimo","tags":"addr:city:Uruguaiana,addr:housenumber:2618,addr:postcode:97502-784,,addr:street:Rua Quinze de Novembro,addr:suburb:São Miguel,amenity:restaurant,phone:+555534136335,website:www.churrascariaprodocimo.com.br","lat":-29.7631623,"lng":-57.0880663},{"id":"9857017523","name":"JadLog Tansportes","tags":"addr:city:Uruguiana,addr:housenumber:2601,addr:postcode:97502-830,addr:street:Rua Coronel Rodrigues Portugal,addr:suburb:Centro,amenity:post_office,opening_hours:Mo-Fr 08:00-18:00","lat":-29.7721819,"lng":-57.0875256},{"id":"9857062953","name":"Panvel","tags":"addr:city:Uruguaiana,addr:housenumber:1625,addr:postcode:97501-591,addr:street:Rua Duque de Caxias,addr:suburb:Centro,amenity:pharmacy,brand:Panvel,brand:wikidata:Q10344254,dispensing:yes,healthcare:pharmacy","lat":-29.7539745,"lng":-57.0862459},{"id":"9858335610","name":"Pet Shop Amado Cão","tags":"addr:city:Uruguaiana,addr:housenumber:1418,addr:postcode:97500-600,addr:street:Rua 13 de Maio,addr:suburb:Centro,shop:pet","lat":-29.7521023,"lng":-57.0898369},{"id":"9858339675","tags":"addr:city:Uruguaiana,addr:housenumber:1668,addr:postcode:97510-532,addr:street:Rua Quinze de Novembro,addr:suburb:Centro,amenity:post_office,opening_hours:Mo-Fr 08:00-17:00,operator:Correios,operator:wikidata:Q3375004","lat":-29.7543031,"lng":-57.0881762}]