[{"id":"6431801595","name":"Ginásio Municipal","tags":"leisure:sports_centre","lat":-31.5473883,"lng":-53.711273},{"id":"6431803406","name":"Escola Municipal de Educação Infantil Odete Lazzare Corrêa","tags":"amenity:school","lat":-31.5481454,"lng":-53.7157562},{"id":"10277028181","name":"delegacia de policia civil","tags":"amenity:police","lat":-31.5478157,"lng":-53.71327},{"id":"10609290925","name":"sossego farma","tags":"amenity:pharmacy,healthcare:pharmacy","lat":-31.5484037,"lng":-53.7151049},{"id":"10609290931","name":"formulativa","tags":"addr:city:Candiota,addr:street:Rua Francisco Assis do Pinho,amenity:pharmacy,healthcare:pharmacy","lat":-31.5485942,"lng":-53.715634},{"id":"10692155278","tags":"shop:pet","lat":-31.5458413,"lng":-53.7195975},{"id":"10692155279","name":"farmacia nossa senhora aparecida","tags":"amenity:pharmacy,healthcare:pharmacy","lat":-31.5458934,"lng":-53.7195568}]