[{"id":"3405731073","name":"Polícia Civil","tags":"amenity:police","lat":-31.740649,"lng":-52.3905449},{"id":"4743447303","tags":"amenity:pharmacy,brand:Farmácias Associadas,healthcare:pharmacy","lat":-31.7558222,"lng":-52.3891414},{"id":"4743447304","name":"Nicolini","tags":"brand:Nicolini,shop:supermarket","lat":-31.7558883,"lng":-52.3888919},{"id":"4743447305","name":"DPF Pelotas","tags":"addr:city:Pelotas,addr:housenumber:1049,addr:postcode:96030-003,addr:street:Avenida Duque de Caxias,addr:suburb:Fragata,amenity:police,email:cm.pts.rs@dpf.gov.br,operator:Polícia Federal do Brasil,operator:en:Federal Police of Brazil,operator:wikidata:Q2289697,operator:wikipedia:pt:Polícia Federal do Brasil,phone:+55 53 3309 9000","lat":-31.7563034,"lng":-52.3875455},{"id":"4743447307","name":"Posto Fragata","tags":"amenity:police,operator:Brigada Militar","lat":-31.7545946,"lng":-52.3925491},{"id":"4867057092","tags":"amenity:pharmacy,brand:Agafarma,healthcare:pharmacy","lat":-31.7484052,"lng":-52.3958279},{"id":"7681023421","name":"Minimercado Perez","tags":"shop:convenience","lat":-31.7569137,"lng":-52.3841861},{"id":"8893336777","name":"Vida","tags":"amenity:pharmacy","lat":-31.7474646,"lng":-52.3915786},{"id":"8893336778","name":"Mercado Otto","tags":"shop:convenience","lat":-31.7473967,"lng":-52.3921373},{"id":"8893336783","name":"JK Rações","tags":"shop:pet","lat":-31.747381,"lng":-52.3913222},{"id":"8893336793","name":"Los Luceros","tags":"amenity:bar","lat":-31.7453429,"lng":-52.3850737},{"id":"8893336800","name":"Arena Gauch.","tags":"leisure:sports_centre","lat":-31.7443086,"lng":-52.3844057},{"id":"8912183999","name":"Cia. do Cão","tags":"shop:pet","lat":-31.7507064,"lng":-52.3832265},{"id":"8912184003","name":"Minimercado Specht","tags":"shop:convenience","lat":-31.7526969,"lng":-52.3836695},{"id":"8912184005","name":"Junto & Misturado","tags":"shop:convenience","lat":-31.7528368,"lng":-52.3834299},{"id":"8912184014","name":"El Sabory","tags":"amenity:restaurant","lat":-31.7553853,"lng":-52.3846139}]