[{"id":"3144113440","name":"INSTITUTO ESTADUAL DE EDUCACAO PONCHE VERDE","tags":"addr:city:Piratini,addr:housenumber:34,addr:postcode:96490-000,addr:street:RUA JOAO DE DEUS VALENTE,addr:suburb:Centro,amenity:school,operator:Estado do Rio Grande do Sul","lat":-31.4456871,"lng":-53.1016006},{"id":"4583100802","tags":"amenity:atm","lat":-31.4437803,"lng":-53.1012617},{"id":"4584248975","name":"Restaurante Leitzke","tags":"addr:city:Piratini,addr:housenumber:126-214,addr:postcode:96490-000,addr:street:Rua Crispim Duarte Gomes,addr:suburb:Centro,amenity:restaurant,cuisine:regional,phone:0539953913","lat":-31.4435737,"lng":-53.1013186},{"id":"4596136548","name":"Mini Mercado Dona Vera","tags":"opening_hours:Mo-Su 08:00-19:00,shop:convenience","lat":-31.4496459,"lng":-53.1113574},{"id":"4602623191","tags":"amenity:car_wash,automated:no,self_service:no","lat":-31.4466417,"lng":-53.1012309},{"id":"4876807020","tags":"amenity:car_wash","lat":-31.4378785,"lng":-53.0983676},{"id":"4879154396","tags":"amenity:pharmacy,healthcare:pharmacy","lat":-31.4435728,"lng":-53.1011159},{"id":"9583861935","name":"Mercado Bela Vista","tags":"addr:city:Piratini,addr:housenumber:25,addr:postcode:96490-000,addr:street:Rua René Lessa da Rosa,addr:suburb:Centro,phone:(53) 999677911,shop:convenience","lat":-31.4430417,"lng":-53.0994193},{"id":"9586438191","name":"Mercado do Oslito","tags":"addr:city:Piratini,addr:housenumber:97,addr:postcode:96490-000,addr:street:Rua Joaquim Teixeira Nunes,addr:suburb:Vila Nova,opening_hours:Mo-Sa 08:00-20:00,operator:OSLITO DA sILVEIRA pERES,phone:53 3257-1701,shop:convenience","lat":-31.4385471,"lng":-53.0955328},{"id":"9586439364","name":"Mercado do Gilmar","tags":"shop:convenience","lat":-31.4399724,"lng":-53.0963517},{"id":"9590179598","tags":"amenity:car_wash,automated:no,self_service:no","lat":-31.4465668,"lng":-53.1014293},{"id":"9590190623","name":"Estação Beer Pub","tags":"amenity:bar","lat":-31.4485961,"lng":-53.1048734},{"id":"9590190624","name":"Mercado Tradição","tags":"addr:city:Piratini,addr:housenumber:1912,addr:postcode:96490-000,addr:street:Avenida Perimetral,opening_hours:Mo-Su 08:00-21:00,phone:53 3257-3014,shop:supermarket","lat":-31.4431462,"lng":-53.1057228},{"id":"9590326545","name":"Agropecuária Pampa","tags":"shop:convenience","lat":-31.4444611,"lng":-53.1009801},{"id":"9590337492","name":"Farmácia São Carlos","tags":"amenity:pharmacy,dispensing:yes,healthcare:pharmacy","lat":-31.4474715,"lng":-53.1030237},{"id":"9590391594","name":"Geane Mello","tags":"shop:beauty","lat":-31.446677,"lng":-53.1022845},{"id":"9600170483","tags":"amenity:pharmacy,dispensing:yes,healthcare:pharmacy","lat":-31.4449726,"lng":-53.1012709},{"id":"9603938970","tags":"amenity:parking,parking:street_side","lat":-31.448894,"lng":-53.1061175},{"id":"9604135706","tags":"shop:convenience","lat":-31.4486292,"lng":-53.1055968},{"id":"9604241327","name":"Banrisul","tags":"amenity:atm,brand:Banrisul,brand:wikidata:Q4857098,brand:wikipedia:en:Banrisul,drive_through:no,network:Banrisul,operator:Banrisul,operator:wikidata:Q4857098,operator:wikipedia:en:Banrisul","lat":-31.4487032,"lng":-53.1052907},{"id":"9606069065","name":"Mercado Anita Garibaldi","tags":"shop:supermarket","lat":-31.4511964,"lng":-53.1177989},{"id":"9606069066","name":"Mercearia Trevo","tags":"addr:city:Piratini,addr:housenumber:785,addr:postcode:96490-000,addr:street:Avenida 06 de Julho,addr:suburb:Calcáreo,shop:convenience","lat":-31.450941,"lng":-53.1149112},{"id":"9609085564","name":"Rodoviária","tags":"addr:housenumber:179,addr:street:Rua Manoel Serafim da Silveira,amenity:bus_station,bus:yes,operator:Stradale,public_transport:station","lat":-31.4417112,"lng":-53.1023875},{"id":"9613272665","tags":"shop:convenience","lat":-31.4381245,"lng":-53.0981731},{"id":"9624817725","name":"Bradesco","tags":"amenity:bank,brand:Bradesco,brand:wikidata:Q806181,brand:wikipedia:en:Banco Bradesco","lat":-31.4433024,"lng":-53.1023092},{"id":"9629521517","name":"Minimercado São Jorge","tags":"shop:supermarket","lat":-31.4476724,"lng":-53.1114943},{"id":"9633529318","name":"Quinta dos Açores","tags":"amenity:cafe","lat":-31.4495477,"lng":-53.1045658},{"id":"10260988016","tags":"amenity:car_wash","lat":-31.4505676,"lng":-53.1044381}]