[{"id":"3101282450","name":"Escola Municipal Duque de Caxias","tags":"addr:street:Rua Independência,addr:suburb:Povo Novo,amenity:school","lat":-29.8816459,"lng":-54.834027},{"id":"3101282451","tags":"amenity:post_office","lat":-29.8827715,"lng":-54.8282549},{"id":"3101282454","name":"E. E. Prof. Antonio Lemos de Araújo","tags":"amenity:school","lat":-29.8790965,"lng":-54.825202},{"id":"3101282456","name":"Instituto de Saúde e Educação Vida de Cacequi - ISEV","tags":"amenity:hospital","lat":-29.8753528,"lng":-54.8244133},{"id":"4682801297","tags":"amenity:restaurant","lat":-29.8647979,"lng":-54.8212545},{"id":"7620871671","name":"EMEI Bem Me Quer","tags":"amenity:school","lat":-29.8760808,"lng":-54.8306826}]