[{"id":"2040617883","name":"Museu do Imigrante Italiano Eduardo Marcuzzo","tags":"addr:postcode:97235-000,tourism:museum","lat":-29.6541532,"lng":-53.5279064},{"id":"2742858623","name":"Agência de Correios Comunitária Vale Vêneto","tags":"addr:postcode:97235-970,addr:street:Rua Padre Rafael Iop,amenity:post_office,contact:phone:+55 55 3269-1144,opening_hours:Mo-Fr 08:00-11:30,13:00-17:00,operator:EBCT,short_name:AGC Vale Vêneto","lat":-29.6538393,"lng":-53.5273063},{"id":"2742858629","name":"Posto Rodoviário de Vale Vêneto","tags":"addr:postcode:97235-000,amenity:bus_station","lat":-29.6538251,"lng":-53.5274571},{"id":"2742858632","name":"Romilda Restaurante","tags":"addr:postcode:97235-000,amenity:restaurant,cuisine:italian,phone:+55 55 3289-1095","lat":-29.6538457,"lng":-53.5274564},{"id":"2748722750","name":"Mercado Pivetta","tags":"shop:supermarket","lat":-29.6536018,"lng":-53.5274772},{"id":"3212848262","name":"EEEF Padre Rafael Iop","tags":"amenity:school","lat":-29.6529371,"lng":-53.5284834},{"id":"3312438511","name":"Rincão da Encantada","tags":"amenity:restaurant,phone:+55 55 98429-0290,website:http://www.rincaodaencantada.com.br","lat":-29.660398,"lng":-53.5503579},{"id":"4558012010","name":"Ginásio Municipal de Esportes Adelina Savegnago","tags":"leisure:sports_centre,source:name:LM 622/2002,sport:multi","lat":-29.631337,"lng":-53.5683879},{"id":"4558012011","name":"EMEF João Frederico Savegnago","tags":"addr:street:Estrada Vitório Candido Ruviaro,amenity:school,contact:phone:+55 55 3224-1090,official_name:Escola Municipal de Ensino Fundamental João Frederico Savegnago,operator:type:public,ref:INEP:43149529,source:name:LM 493/2000","lat":-29.6313582,"lng":-53.5681143}]