[{"id":"1935806038","name":"Posto de Camobi","tags":"addr:street:BR-287,alt_name:Rodoviária de Camobi,amenity:bus_station,contact:phone:+55 55 3225-1183,contact:website:www.rodoviariasantamaria.com.br,entrance:main,opening_hours:Mo-Fr 08:00-19:00; Sa 08:00-17:00; Su off,operator:Estação Rodoviária de Santa Maria,public_transport:station","lat":-29.7056,"lng":-53.7146506},{"id":"2653077426","name":"Posto Padoin","tags":"addr:street:BR-287,amenity:fuel,brand:Petrobras,fuel:diesel:yes,fuel:diesel_s10_comum:yes,fuel:diesel_s500_comum:yes,fuel:ethanol:yes,fuel:octane_87:yes,fuel:octane_87_aditivada:yes,operator:Comércio de Combustíveis Padoin ltda,ref:vatin:BR04340316000264,shop:convenience","lat":-29.7060355,"lng":-53.7328645},{"id":"2653201818","name":"Camobi","tags":"addr:housenumber:7070,addr:postcode:97110-800,addr:street:Avenida Prefeito Evandro Behr,amenity:bank,atm:yes,brand:Caixa,brand:wikidata:Q835283,brand:wikipedia:pt:Caixa Econômica Federal,contact:website:https://www.caixa.gov.br,entrance:yes,opening_hours:Mo-Fr 11:00-16:00,operator:Caixa Econômica Federal,wheelchair:yes","lat":-29.7013076,"lng":-53.7183645},{"id":"2653235035","name":"Reni","tags":"amenity:pharmacy,contact:phone:+55 55 3286-2364,dispensing:yes,entrance:main,network:Farmácias Associadas","lat":-29.701196,"lng":-53.7205527},{"id":"2653244447","name":"Sicredi","tags":"amenity:bank,atm:yes,brand:Sicredi,brand:wikidata:Q3483060,brand:wikipedia:pt:Sistema de Crédito Cooperativo,contact:website:https://www.sicredi.com.br,opening_hours:Mo-Fr 11:00-16:00 open \\Agência\\,operator:Sicredi Participações S.A.","lat":-29.7018249,"lng":-53.7219696},{"id":"2662122269","name":"Losango","tags":"amenity:bank","lat":-29.7018736,"lng":-53.718949},{"id":"2663117447","name":"JV Salão de Beleza","tags":"contact:phone:+55 55 99195-5324,old_name:Eufraz;Trevo Farma,shop:beauty","lat":-29.7049235,"lng":-53.7070243},{"id":"2663117448","name":"Jump Academia","tags":"leisure:sports_centre,sport:fitness","lat":-29.7049477,"lng":-53.7071018},{"id":"2823644544","name":"Viva Bem","tags":"amenity:pharmacy,contact:phone:+55 55 3025-3131,dispensing:yes,healthcare:pharmacy","lat":-29.7054967,"lng":-53.7171581},{"id":"2823689467","name":"Up Idiomas","tags":"amenity:school,contact:email:camobi@upidiomas.com.br,contact:phone:+55 55 3311-7821,trainning:language,website:https://upidiomas.com.br/2015/unidade.php?id=20","lat":-29.7049743,"lng":-53.7194523},{"id":"2823689468","name":"Tchê Farmácias","tags":"amenity:pharmacy","lat":-29.7049893,"lng":-53.7193294},{"id":"2823689470","name":"Restaurante Chave de Ouro","tags":"amenity:restaurant","lat":-29.7050943,"lng":-53.7173026},{"id":"2823705485","name":"Spaço Gourmet","tags":"amenity:restaurant,contact:phone:+55 55 3226-2771,description:Restaurante e Grill,opening_hours:Tu-Su 10:00-14:00","lat":-29.7053521,"lng":-53.7202824},{"id":"2823709122","name":"Biofitness","tags":"amenity:gym,contact:phone:+55 55 3347-5867,leisure:sports_centre,sport:fitness","lat":-29.7049934,"lng":-53.7211988},{"id":"2830654542","name":"Mercado Campanhola","tags":"entrance:yes,shop:convenience","lat":-29.7056071,"lng":-53.7147909},{"id":"2831782471","tags":"amenity:car_wash","lat":-29.7010387,"lng":-53.7214233},{"id":"2984337138","name":"Fisk","tags":"amenity:school,contact:phone:+55 55 3226-4068,teaching:language","lat":-29.7024566,"lng":-53.7221693},{"id":"2989474231","name":"Mini Mercado Camobi","tags":"contact:phone:+55 55 3307-5452,shop:convenience","lat":-29.699969,"lng":-53.7127104},{"id":"3010523617","name":"Cresol","tags":"amenity:bank,opening_hours:Mo-Fr 10:00-15:00","lat":-29.7025086,"lng":-53.7140611},{"id":"3135882086","name":"Darwin Pet Center","tags":"contact:facebook:https://www.facebook.com/darwinpetcenter/,contact:instagram:https://www.instagram.com/darwinpetcenter/,old_name:Sensatho Moda,shop:pet","lat":-29.7043409,"lng":-53.7136166},{"id":"3232283548","name":"Tauchen Gourmet","tags":"amenity:restaurant","lat":-29.7053545,"lng":-53.7113023},{"id":"3246245388","name":"Academia Hype Fitness","tags":"contact:phone:+55 55 3286-1048,leisure:sports_centre,sport:fitness,wheelchair:yes","lat":-29.7015663,"lng":-53.7238258},{"id":"3246245457","tags":"amenity:parking","lat":-29.699688,"lng":-53.7307223},{"id":"3246245573","name":"Trat Vida","tags":"amenity:pharmacy,entrance:main","lat":-29.7016232,"lng":-53.7232864},{"id":"3302952103","tags":"entrance:yes,shop:convenience","lat":-29.701846,"lng":-53.7196758},{"id":"3302952107","tags":"amenity:car_wash","lat":-29.7019854,"lng":-53.7196292},{"id":"3303137597","name":"Sautté","tags":"amenity:restaurant,phone:+55 55 3217-1712,shop:bakery","lat":-29.7017417,"lng":-53.7210799},{"id":"3306801837","name":"Colégio Riachuelo","tags":"addr:housenumber:150,addr:postcode:97110-220,addr:street:Rua Cruz e Souza,amenity:school,contact:phone:+55 55 3226-2141","lat":-29.7008967,"lng":-53.7113185},{"id":"3309298966","name":"Evolution Artes Marciais","tags":"leisure:sports_centre,sport:martial_arts","lat":-29.7022936,"lng":-53.7178466},{"id":"3310192211","name":"Lavagem Fagundes","tags":"amenity:car_wash","lat":-29.697436,"lng":-53.734797},{"id":"3338253717","tags":"description:Rações e aquarios,shop:pet","lat":-29.6972203,"lng":-53.7349962},{"id":"3413402306","name":"Casa do Bicho","tags":"amenity:veterinary,contact:phone:+55 55 3225-2506,description:Estética animal, rações, acessórios, vacinas, plantão veterinário 24h,shop:pet","lat":-29.7051277,"lng":-53.7351382},{"id":"3445693577","name":"Empório Benegustto","tags":"contact:phone:+55 55 3028-1120,entrance:main,organic:yes,shop:convenience","lat":-29.7011913,"lng":-53.7204683},{"id":"3457922137","name":"Galeria Mainardi","tags":"shop:mall","lat":-29.7019906,"lng":-53.7188672},{"id":"3457922138","name":"Nova Derme","tags":"amenity:pharmacy,contact:phone:+55 55 3027-1757,description:Farmácia de manipulação","lat":-29.7019589,"lng":-53.7163239},{"id":"3457927791","name":"Restaurante Guidolin","tags":"amenity:restaurant,contact:phone:+55 55 3226-1146","lat":-29.7012382,"lng":-53.7199606},{"id":"3476748654","name":"Farmácias Associadas","tags":"amenity:pharmacy","lat":-29.7051144,"lng":-53.7259531},{"id":"3493963200","tags":"leisure:sports_centre,sport:fitness","lat":-29.6996352,"lng":-53.7209023},{"id":"3653239084","name":"ampm","tags":"brand:ampm,brand:wikidata:Q306960,brand:wikipedia:en:Ampm,shop:convenience","lat":-29.7030017,"lng":-53.7028491},{"id":"3678124903","name":"Lirian Morais","tags":"alt_name:Saão de Beleza Tutti Belle,contact:phone:+55 55 3307-5133;+55 55 99934-5318,old_name:Tutti Belle,shop:beauty","lat":-29.7017425,"lng":-53.7169948},{"id":"3686959717","name":"Academia Professor Alan Sangoi","tags":"addr:door:12,contact:email:professoralansangoi@gmail.com,contact:fax:+55 55 3028-4018,contact:phone:+55 55 98401-4047;+55 55 3028-4018,contact:whatsapp:+55 55 98401-4047,leisure:sports_centre,old_name:Academia Sadhana,sport:fitness,website:www.alansangoi.com.br","lat":-29.7023568,"lng":-53.7168661},{"id":"3686961132","name":"Nitro Academia","tags":"contact:phone:+55 55 99165-8220,description:Moai Tai masculino e feminino, adulto e infaltil, box, karatê misto e infantil, Jump,leisure:sports_centre,old_name:Academia Foco,sport:fitness","lat":-29.7024151,"lng":-53.7163678},{"id":"3687032352","name":"Help Veterinária","tags":"amenity:veterinary,contact:phone:+55 55 99132-6066;+55 55 99972-8947,description:Banho e tosa, consultório e atendimento veterinário,shop:pet","lat":-29.6964815,"lng":-53.7387474},{"id":"3687132366","name":"Jane Banho e Tosa","tags":"contact:phone:+55 55 3226-3586,shop:pet","lat":-29.6964073,"lng":-53.7380203},{"id":"3721305058","name":"Tempero Caseiro","tags":"alt_name:Tempero Caseiro Restaurante e Lancheria,amenity:restaurant,contact:phone:+55 55 3226-23688,description:A la minuta, marmitex, bebidas em geral, petiscos, salgados, sucos,old_name:Prato Feito Camobi","lat":-29.7022803,"lng":-53.7225075},{"id":"3721305059","name":"Qualithá Farmácia de Manipulação","tags":"amenity:pharmacy,contact:phone:+55 55 3217-7077,drive_through:no","lat":-29.7050524,"lng":-53.7228625},{"id":"3721305061","name":"Sebo Camobi","tags":"contact:email:sebocamobi@gmail.com,contact:phone:+55 55 98405-6375;+55 55 99979-0110,description:Livros, revistas e discos. Compra, vende e troca.,entrance:yes,shop:books","lat":-29.7026217,"lng":-53.7222825},{"id":"3721328604","name":"Dermaris","tags":"amenity:pharmacy,contact:phone:+55 55 3226-1123,description:Farmácia de Manipulação","lat":-29.7042742,"lng":-53.7164328},{"id":"3721328605","name":"KNN Idiomas","tags":"addr:housenumber:157,addr:postcode:97105-120,addr:street:Rua Erly de Almeida Lima,amenity:school,contact:facebook:https://www.facebook.com/knnidiomassc,contact:phone:+55 55 3223-0058,teaching:language,website:www.knnidiomas.com.br","lat":-29.7039588,"lng":-53.7166219},{"id":"3743485948","name":"Estética & Cia Camobi","tags":"contact:facebook:www.facebook.com/centraldesobrancelhas,contact:phone:+55 55 3027-1804,description:Somos especialistas em olhares modernos e marcantes. Aqui na Central, a dedicação é fio a fio.,opening_hours:Mo 13:00-19:00; Tu-Fr 09:00-11:30; Sa 09:00-12:00,shop:beauty,website:www.centraldesobrancelhas.com.br","lat":-29.7030697,"lng":-53.7169174},{"id":"3743492503","name":"Lavagem da Velha","tags":"amenity:car_wash","lat":-29.6965066,"lng":-53.7365018},{"id":"3772678364","name":"Fortes Lavagem","tags":"amenity:car_wash","lat":-29.7032686,"lng":-53.7035095},{"id":"3796978535","name":"São João","tags":"alt_name:Farmácias São João,amenity:pharmacy,contact:website:http://www.saojoaofarmacias.com.br/,dispensing:yes,operator:Comércio de Medicamentos Brair Ltda","lat":-29.7016569,"lng":-53.7230099},{"id":"3797121509","name":"Kumon","tags":"amenity:school,contact:phone:+55 55 3217-9503,description:Matemática, português e inglês","lat":-29.7040341,"lng":-53.7188506},{"id":"3867341758","name":"São João","tags":"alt_name:Farmácias São João,amenity:pharmacy,contact:phone:+55 55 3214-1756,contact:website:http://www.saojoaofarmacias.com.br/,opening_hours:24/7,operator:Comércio de Medicamentos Brair Ltda","lat":-29.7054189,"lng":-53.7236455},{"id":"3883788428","name":"Royal","tags":"addr:housenumber:132,addr:postcode:97110-000,addr:street:Avenida João Machado Soares,alt_name:Supermercado Royal,contact:email:supermercadoroyal@gmail.com,contact:facebook:facebook.com/roial.royal,contact:phone:+55 55 3226-2424,description:Aceita banricompras, visa, mastercard, cielo, VerdeCard, Sodexo, Sicredi, ticket alimentação, vale, elo,opening_hours:Mo-Sa 08:00-20:00,shop:supermarket","lat":-29.697419,"lng":-53.7318037},{"id":"3883788432","name":"Ranchu's Brasil","tags":"amenity:nightclub,contact:facebook:https://www.facebook.com/Ranchus-Brasil-431160127266106/,old_name:Terra Brasil","lat":-29.7002751,"lng":-53.708034},{"id":"3883788941","tags":"shop:convenience","lat":-29.6982728,"lng":-53.716961},{"id":"3889253252","name":"VVC Beer Distribuidora","tags":"amenity:bar,contact:phone:+55 55 3347-2016,description:Distribuidora de bebidas","lat":-29.7044742,"lng":-53.725262},{"id":"3916381980","tags":"amenity:parking,description:Estacionamento subterrâneo coberto,layer:-1","lat":-29.7005761,"lng":-53.7308904},{"id":"3952787783","name":"Quarta Delegacia de Polícia","tags":"addr:housenumber:405,addr:street:Rua Frederico Varaschini,alt_name:4ª Delegacia de Polícia,amenity:police,official_name:Quarta Delegacia de Polícia de Santa Maria,operator:Polícia Civil,short_name:4ª DP","lat":-29.704506,"lng":-53.726243},{"id":"3972170648","name":"Mercado Campagnola","tags":"shop:convenience","lat":-29.7056543,"lng":-53.7072995},{"id":"3977674827","name":"Mangiare","tags":"amenity:restaurant,contact:phone:+55 55 3226-9101,old_name:Bisognin","lat":-29.7039113,"lng":-53.711221},{"id":"3977818284","name":"Capital Lanches","tags":"amenity:restaurant,delivery:yes","lat":-29.7042011,"lng":-53.7072996},{"id":"3977818285","name":"Veterinária Vittafort","tags":"amenity:veterinary,contact:phone:+55 55 3026-0018;+55 55 99600-7711,description:Centro cirúrgico. Banho e Tosa. Especialidades médicas. Farmácia veterinária. Plantão 24 h pelo celular.,shop:pet,website:www.vittafortsm.com.br","lat":-29.7029197,"lng":-53.712502},{"id":"4001035797","name":"Studio Pilates","tags":"leisure:sports_centre,sport:gymnastics","lat":-29.7056943,"lng":-53.7122818},{"id":"4112191239","name":"Bela Forma","tags":"contact:phone:+55 55 3217-5450;+55 55 98403-0566;+55 55 99717-9481,description:Centro Estético; Spa;,shop:beauty,website:www.belaformasm.com.br","lat":-29.7057474,"lng":-53.7186827},{"id":"4112191244","name":"Teka","tags":"addr:door:105,alt_name:Teka Salão de Beleza,contact:phone:+55 55 3027-6399;+55 55 98411-4643;+55 55 99977-9416,shop:beauty","lat":-29.7059,"lng":-53.718747},{"id":"4128369459","name":"Mercado Boa Compra","tags":"shop:convenience","lat":-29.706533,"lng":-53.7136669},{"id":"4222373727","tags":"amenity:car_wash","lat":-29.7057404,"lng":-53.7154409},{"id":"4267240190","name":"Cuscochic","tags":"alt_name:Cuscochic Pet Store,shop:pet","lat":-29.7021449,"lng":-53.7240418},{"id":"4581871710","tags":"addr:housenumber:5941,addr:street:Avenida Prefeito Evandro Behr,amenity:atm,brand:Banco24Horas,brand:wikidata:Q4854069,contact:phone:0800 56 2400;0800 772 1820,contact:website:https://www.banco24horas.com.br,network:Banco24Horas,operator:Tecnologia Bancária S.A.","lat":-29.7004798,"lng":-53.7306329},{"id":"4581871711","tags":"addr:housenumber:5941,addr:street:Avenida Prefeito Evandro Behr,amenity:atm,brand:Banrisul,contact:phone:0800 646 1515;0800 648 1907,contact:website:https://www.banrisul.com.br/,operator:Banrisul S.A.","lat":-29.7004801,"lng":-53.7306608},{"id":"4581871719","name":"Agafarma","tags":"amenity:pharmacy,contact:phone:+55 55 3026-6608","lat":-29.7004311,"lng":-53.7306316},{"id":"4581871720","name":"Due Fratelli","tags":"amenity:restaurant,contact:phone:+55 55 3217-6615","lat":-29.700268,"lng":-53.7309789},{"id":"4920961948","tags":"addr:housenumber:7016,addr:postcode:97110-800,addr:street:Avenida Prefeito Evandro Behr,amenity:atm,cash_in:yes,contact:phone:0800 648 1919,contact:website:https://www.saqueepague.com.br/,network:Saque e Pague","lat":-29.7012952,"lng":-53.7187457},{"id":"4981338459","name":"Stronger","tags":"addr:door:202,amenity:gym,contact:phone:+55 55 99600-7967,description:Treinamento físico pessoal,leisure:sports_centre","lat":-29.7048923,"lng":-53.7208713},{"id":"4981338464","name":"Sebo Camobi","tags":"contact:phone:+55 55 99979-0110,contact:website:http://www.sebocamobi.com.br/,second_hand:yes,shop:books","lat":-29.7048952,"lng":-53.722771},{"id":"5247659409","name":"Risoto do Belinaso","tags":"amenity:restaurant,contact:phone:+55 55 3311-6543;+55 55 99605-1685;+55 55 99993-4160;+55 55 99206-1119;+55 55 99206-1104,description:Todos os domingos,opening_hours:Su 10:00-14:00,takeaway:only","lat":-29.7024636,"lng":-53.7050135},{"id":"5479253032","name":"Mercado do Bairro","tags":"contact:phone:+55 55 99952-1212,old_name:Mercado Xisto,shop:supermarket","lat":-29.6911092,"lng":-53.7415389},{"id":"5481482856","name":"Tchê Farmácias","tags":"amenity:pharmacy,contact:phone:+55 55 3347-1347,contact:website:http://www.tchefarmacias.com.br/","lat":-29.6941708,"lng":-53.7414539},{"id":"5500028885","tags":"addr:housenumber:305,addr:postcode:97050-531,addr:street:Avenida Nossa Senhora das Dores,amenity:atm,brand:Banco24Horas,brand:wikidata:Q4854069,contact:phone:0800 56 2400;0800 772 1820,contact:website:https://www.banco24horas.com.br,network:Banco24Horas,operator:Tecnologia Bancária S.A.","lat":-29.704424,"lng":-53.7396145},{"id":"5819381142","tags":"addr:housenumber:6645,addr:postcode:97110-800,addr:street:Avenida Prefeito Evandro Behr,amenity:atm,cash_in:yes,contact:phone:0800 648 1919,contact:website:https://www.saqueepague.com.br/,network:Saque e Pague","lat":-29.7017314,"lng":-53.7227163},{"id":"5849732374","tags":"addr:housenumber:5941,addr:postcode:97110-800,addr:street:Avenida Prefeito Evandro Behr,amenity:atm,cash_in:yes,contact:phone:0800 648 1919,contact:website:https://www.saqueepague.com.br/,network:Saque e Pague","lat":-29.7006369,"lng":-53.7307792},{"id":"5889527556","name":"Edileni Staevie","tags":"contact:phone:+55 55 3311-7981;+55 55 99698-7131,description:Depilação, massagens, estética, terapêutica relaxante, drenagem linfática,shop:beauty,slogan:Corpo em equilíbrio","lat":-29.6987708,"lng":-53.7352976},{"id":"5908182286","name":"Sobrado","tags":"addr:city:Santa Maria,addr:housenumber:60,addr:street:Rua João Attilio Zampieri,addr:suburb:Camobi,amenity:restaurant,cuisine:regional,opening_hours:Mo-Sa 11:15-14:15,outdoor_seating:no,phone:+55 55 3226-6421","lat":-29.7027143,"lng":-53.7169488},{"id":"5937106760","name":"Sal e Pimenta","tags":"amenity:restaurant,contact:facebook:https://www.facebook.com/salepimentarestaurante/,contact:website:http://restaurantesalepimenta.com.br/","lat":-29.7048923,"lng":-53.720817},{"id":"6236465587","name":"EMEI Vila Jardim","tags":"addr:postcode:97110-540,addr:street:Avenida Oito de Junho,alt_name:Escola Municipal de Ensino Infantil Vila Jardim,amenity:school","lat":-29.6947129,"lng":-53.7229554},{"id":"6334487721","name":"Recanto Beach Sports e Lazer","tags":"addr:housenumber:5820,addr:street:RSC-287,contact:phone:+55 55 99925-7799,leisure:sports_centre,sport:beachvolleyball","lat":-29.7050752,"lng":-53.7334013},{"id":"6374786604","name":"Rara","tags":"contact:phone:+55 55 3025-6147,description:Salão de beleza e estética,shop:beauty","lat":-29.7001361,"lng":-53.7181114},{"id":"6374786610","name":"Cantinho dos Frangos","tags":"amenity:restaurant,contact:phone:+55 55 3221-4094;+55 55 99620-9156,description:Petiscos e frango assado todos os dias,level:0,takeaway:only","lat":-29.702831,"lng":-53.7177321},{"id":"6374786615","name":"Quality Lavagem","tags":"amenity:car_wash,description:Lavagem geral simples ou com aplicação de cera. Polimento e espelhamento 3M. Higienização de ar condicionado. Hidratação de bancos em couros. Micro-pinturas","lat":-29.7011076,"lng":-53.724383},{"id":"6374802521","name":"Quality Lavagem","tags":"amenity:car_wash,description:Lavagem geral simples ou com aplicação de cera. Polimento e espelhamento 3M. Higienização de ar condicionado. Hidratação de bancos em couros. Micro-pinturas","lat":-29.7011076,"lng":-53.724383},{"id":"6441673380","name":"La Fena","tags":"amenity:cafe","lat":-29.7043496,"lng":-53.7222496},{"id":"6513976643","tags":"shop:convenience","lat":-29.7048749,"lng":-53.7059408},{"id":"6903822901","name":"Athletic Fit","tags":"leisure:sports_centre,sport:fitness","lat":-29.706059,"lng":-53.7289796},{"id":"7024754014","name":"Associação Atlética Banco do Brasil (AABB) - Sede Campestre","tags":"leisure:sports_centre","lat":-29.6812677,"lng":-53.7093488},{"id":"7472487196","name":"Farmácia Distrital Leste","tags":"addr:postcode:97110-212,addr:street:Rua Reinaldo Manoel Guidolin,amenity:pharmacy,contact:phone:+55 55 3217-3880","lat":-29.6994202,"lng":-53.7181044},{"id":"9049299670","name":"La Pimenta","tags":"amenity:restaurant","lat":-29.7015595,"lng":-53.7248081},{"id":"9088250794","name":"Mini Mercado Dois Amigos","tags":"contact:phone:+55 55 3347-6965,contact:whatsapp:+55 55 99618-6965,shop:convenience","lat":-29.6989175,"lng":-53.7118591}]