[{"id":"612596102","name":"Banco do Brasil","tags":"addr:housenumber:755,amenity:bank,atm:yes,brand:Banco do Brasil,brand:wikidata:Q610817,brand:wikipedia:en:Banco do Brasil,entrance:yes,operator:Banco do Brasil","lat":-29.5773241,"lng":-53.4458706},{"id":"612596104","name":"Barril","tags":"amenity:bar,entrance:main,food:yes","lat":-29.5777592,"lng":-53.4441723},{"id":"613369479","name":"Monumento ao Centenário da Imigração Italiana","tags":"historic:memorial,tourism:attraction","lat":-29.576954,"lng":-53.4453889},{"id":"613379865","name":"Cia. do Movimento","tags":"alt_name:Companhia do Movimento,amenity:gym,entrance:yes,leisure:fitness_centre","lat":-29.5789597,"lng":-53.4448591},{"id":"1944730396","name":"Rodoviária de São João Polêsine","tags":"DER:RS:categoria_rodoviaria:quarta,DER:RS:zona_de_fiscalizacao:04,addr:housenumber:792,addr:postcode:97230-000,addr:street:Avenida São João,addr:suburb:Centro,amenity:bus_station,contact:email:renibrondani@hotmail.com,contact:phone:+55 55 3269-1239;+55 55 99978-8946,network:BR:RS,official_name:São João do Polêsine,opening_hours:Mo-Sa 06:15-20:00; Su 07:00-20:40,operator:Reni Augusto Brondani-Me,public_transport:station,ref:vatin:BR88599642000108","lat":-29.6141222,"lng":-53.4448355},{"id":"2123293298","name":"Sicredi","tags":"access:yes,addr:housenumber:730,amenity:bank,atm:yes,brand:Sicredi,brand:wikidata:Q3483060,brand:wikipedia:pt:Sistema de Crédito Cooperativo,door:double,entrance:main,level:0,wheelchair:yes","lat":-29.5779835,"lng":-53.4464322},{"id":"2123293300","name":"Supermercado Bevilaqua","tags":"addr:housenumber:785,alt_name:Supermercado Bevilacqua,brand:Rede Super,shop:supermarket","lat":-29.5784183,"lng":-53.4461616},{"id":"3201911672","name":"Bradesco","tags":"addr:housenumber:966,amenity:bank,entrance:yes","lat":-29.5782454,"lng":-53.443789},{"id":"3201911679","name":"Cresol","tags":"addr:street:Rua Duque de Caxias,amenity:bank,entrance:yes","lat":-29.5779188,"lng":-53.4470889},{"id":"3201911693","name":"Farmácia Agafarma","tags":"amenity:pharmacy","lat":-29.5783408,"lng":-53.4440437},{"id":"3201911733","name":"Supermercado Baratto","tags":"shop:supermarket","lat":-29.5781371,"lng":-53.4444052},{"id":"3201911734","name":"Super Camnpal","tags":"addr:housenumber:1016,alt_name:Super Campal,shop:supermarket","lat":-29.5784275,"lng":-53.4434695},{"id":"3212848263","name":"Brasper","tags":"alt_name:Farmácia Brasper,amenity:pharmacy","lat":-29.6164826,"lng":-53.4456936},{"id":"3212848271","name":"Reis","tags":"alt_name:Supermercado Reis,contact:phone:+55 55 3269-1400,old_name:Supermercado Comillatto,shop:supermarket","lat":-29.6173952,"lng":-53.446904},{"id":"3212848273","name":"Merco Bar","tags":"old_name:Tide,shop:convenience","lat":-29.6155436,"lng":-53.4462792},{"id":"3295049288","name":"Biblioteca Municipal","tags":"amenity:library,level:1","lat":-29.5757763,"lng":-53.4436691},{"id":"3295049292","name":"Museu Fotográfico Irmão Ademar da Rocha","tags":"short_name:Museu Fotográfico,tourism:museum","lat":-29.5757579,"lng":-53.4432403},{"id":"3306667717","name":"Casa do Colono","tags":"entrance:yes,shop:convenience","lat":-29.5755206,"lng":-53.4458402},{"id":"3306832774","name":"Farmácia do Sindicato","tags":"amenity:pharmacy,dispensing:yes","lat":-29.5755473,"lng":-53.445506},{"id":"3311137776","name":"Restaurante e Churrascaria Moby Dick","tags":"addr:housenumber:501,alt_name:Feltrin,amenity:restaurant,cuisine:barbecue,entrance:yes,short_name:Moby Dick","lat":-29.5756117,"lng":-53.4474805},{"id":"3313303616","tags":"amenity:car_wash","lat":-29.5776065,"lng":-53.4465215},{"id":"3313310277","tags":"entrance:yes,shop:convenience","lat":-29.5778167,"lng":-53.4466855},{"id":"3313324682","name":"Farmácias Associadas Bevifarma","tags":"addr:housenumber:785,amenity:pharmacy,dispensing:yes,entrance:yes","lat":-29.5783495,"lng":-53.4462778},{"id":"3313342140","tags":"access:destination,amenity:parking,capacity:3,capacity:disabled:1","lat":-29.5782456,"lng":-53.4459504},{"id":"3313342145","tags":"access:destination,amenity:parking,capacity:4,capacity:disabled:0","lat":-29.5782985,"lng":-53.4458568},{"id":"4535769239","name":"Banco do Brasil","tags":"amenity:bank,contact:phone:+55 55 3269-1300","lat":-29.6168738,"lng":-53.4467891},{"id":"4535769240","name":"Banrisul","tags":"amenity:bank,contact:phone:+55 55 3269-1044","lat":-29.6166749,"lng":-53.4466388},{"id":"4539427519","name":"Biblioteca Municipal","tags":"amenity:library,official_name:Biblioteca Pública Municipal Ângela Foletto Guarienti,source:official_name:LM 499/2015","lat":-29.6163575,"lng":-53.4459444},{"id":"4879577359","name":"AGC São João do Polesine","tags":"amenity:post_office,contact:phone:+55 55 3269-1178","lat":-29.6167323,"lng":-53.4466736},{"id":"5052371894","name":"Farmácia São João","tags":"amenity:pharmacy,contact:phone:+55 55 3269-1235","lat":-29.6165396,"lng":-53.4462779},{"id":"5052371895","name":"Sicredi","tags":"amenity:bank,wheelchair:yes","lat":-29.61674,"lng":-53.4464755},{"id":"7139385053","name":"Estação Rodoviária","tags":"amenity:bus_station,bus:yes,public_transport:station","lat":-29.5804361,"lng":-53.4430577},{"id":"7139385055","tags":"amenity:school","lat":-29.5781864,"lng":-53.4387812},{"id":"7139385058","name":"EMEF Paulo Freire","tags":"amenity:school","lat":-29.5787356,"lng":-53.4375338},{"id":"9049921756","name":"Kaxuxa","tags":"access:yes,addr:housenumber:871,entrance:shop,shop:convenience,wheelchair:no","lat":-29.5778487,"lng":-53.44485}]