[{"id":"5697923732","name":"Banrisul","tags":"amenity:bank,brand:Banrisul,brand:wikidata:Q4857098,brand:wikipedia:en:Banrisul","lat":-29.0799151,"lng":-53.83759},{"id":"5697923751","tags":"amenity:police","lat":-29.0795885,"lng":-53.8499698},{"id":"5697923768","tags":"amenity:post_office","lat":-29.0823436,"lng":-53.8353504},{"id":"5697923770","name":"Caixa Econômica Federal","tags":"addr:city:Tupanciretã,addr:housenumber:977,addr:postcode:98170-000,addr:street:Avenida Vaz Ferreira,addr:suburb:Centro,amenity:bank,operator:Caixa Econômica Federal","lat":-29.0820238,"lng":-53.8361907},{"id":"5697923772","tags":"amenity:police,operator:Brigada Militar","lat":-29.0825889,"lng":-53.8374839},{"id":"5697923773","name":"Banco do Brasil","tags":"amenity:bank,brand:Banco do Brasil,brand:wikidata:Q610817,brand:wikipedia:en:Banco do Brasil","lat":-29.0814481,"lng":-53.8378957},{"id":"6239044286","name":"Déia Cabeleireira","tags":"addr:housenumber:543,addr:postcode:98170-000,addr:street:Avenida Vaz Ferreira,internet_access:wlan,opening_hours:Mo-Sa 09:00-19:00,shop:beauty","lat":-29.0858857,"lng":-53.8351473},{"id":"6349548926","tags":"public_transport:station,railway:station,train:yes","lat":-29.0809711,"lng":-53.8352443},{"id":"6399375588","name":"Banco Sicredi","tags":"amenity:bank","lat":-29.0813556,"lng":-53.8371115},{"id":"9051658173","name":"Restaurante Sollares","tags":"addr:city:Tupanciretã,addr:housenumber:385,addr:postcode:98170-000,addr:street:Rua Eugênio Veríssimo,addr:suburb:Centro,amenity:restaurant,phone:55 3272 1333","lat":-29.0866764,"lng":-53.8342178},{"id":"9051686323","name":"Mercado Bolichão","tags":"addr:city:Tupanciretã,addr:postcode:98170-00012,addr:street:Rua Sete de Setembro,addr:suburb:Centro,shop:supermarket","lat":-29.0860442,"lng":-53.8343624},{"id":"9054082274","name":"Botequim","tags":"addr:city:Tupanciretã,addr:housenumber:52,addr:postcode:98170-000,addr:street:Rua Sete de Setembro,addr:suburb:Centro,amenity:bar","lat":-29.0852716,"lng":-53.8345183},{"id":"9054087703","name":"Restaurante Mais Sabor","tags":"addr:city:Tupanciretã,addr:postcode:98170-000,addr:street:Avenida Vaz Ferreira,addr:suburb:Centro,amenity:restaurant","lat":-29.080648,"lng":-53.8371782},{"id":"9054113161","name":"Mercado Girassol","tags":"addr:street:Avenida Vaz Ferreira,shop:supermarket","lat":-29.0895182,"lng":-53.8346762},{"id":"9054161421","name":"Clube Comercial","tags":"addr:city:Tupanciretã,addr:housenumber:24,addr:postcode:98170-000,addr:street:Rua Duque de Caxias,addr:suburb:Centro,amenity:bar","lat":-29.0835475,"lng":-53.8360289},{"id":"9054161422","name":"Pizzaria Dom Miguel","tags":"addr:city:Tupanciretã,addr:housenumber:860,addr:postcode:98170-000,addr:street:Avenida Vaz Ferreira,addr:suburb:Centro,amenity:restaurant,cuisine:pizza,drive_through:no,phone:55 3272 4735","lat":-29.0830183,"lng":-53.8361088},{"id":"9054257441","name":"Academia Physical","tags":"addr:city:Tupanciretã,addr:housenumber:1511,addr:postcode:98170-000,addr:street:Avenida Vaz Ferreira,addr:suburb:Centro,leisure:fitness_centre","lat":-29.0783507,"lng":-53.8378003},{"id":"10208023983","name":"Mercado Böer","tags":"shop:supermarket","lat":-29.0699939,"lng":-53.845464}]