[{"id":"581423130","name":"Hospital Beneficente de Condor","tags":"addr:city:Condor,addr:postcode:98290-000,addr:street:Rua Germano Keller,addr:suburb:Centro,amenity:hospital","lat":-28.2095797,"lng":-53.4890276},{"id":"696595476","name":"Farmacia do Tiago","tags":"amenity:pharmacy","lat":-28.2088788,"lng":-53.4888551},{"id":"696595507","name":"Policia Civil","tags":"amenity:police","lat":-28.2068295,"lng":-53.4890255},{"id":"696595509","tags":"amenity:police","lat":-28.206735,"lng":-53.4882959},{"id":"5460464688","name":"Escola Estadual De Ensino Medio Agostinha Dill","tags":"amenity:school","lat":-28.2076558,"lng":-53.4828742}]