[{"id":"4539523080","name":"SENAI","tags":"amenity:school","lat":-30.020899,"lng":-52.9129171},{"id":"5724045890","name":"Correios","tags":"amenity:post_office,brand:Correios,brand:wikidata:Q3375004,brand:wikipedia:en:Correios","lat":-30.0226024,"lng":-52.9106088},{"id":"5726168877","name":"Cemitério Parque Jardim da Paz","tags":"amenity:grave_yard","lat":-30.038954,"lng":-52.918931},{"id":"5726168878","name":"Ulbra Universidade Luterana do Brasil","tags":"amenity:university,website:https://www.ulbra.br/","lat":-30.0398837,"lng":-52.925508},{"id":"5863338385","name":"Grill Churrascaria e Restaurante","tags":"amenity:restaurant","lat":-30.0358487,"lng":-52.9136728},{"id":"6210015496","name":"Escola Municipal de Educação Infantil Pro-infância Patrona Marisa Timm Sari","tags":"amenity:childcare","lat":-30.0299388,"lng":-52.9177583},{"id":"6379860369","name":"Supermercado Costa","tags":"addr:city:Cachoeira do Sul,addr:housename:Costa,addr:postcode:96500,addr:street:Avenida Marcelo Gama,addr:suburb:Noêmia,payment:cash:yes,payment:credit_cards:yes,payment:debit_cards:yes,shop:supermarket","lat":-30.0170033,"lng":-52.9185076},{"id":"6757541505","name":"EMEF Dr. Getúlio Vargas","tags":"amenity:school","lat":-30.0219349,"lng":-52.9113945},{"id":"7118400547","name":"Unesul (Garagem)","tags":"amenity:parking","lat":-30.0347765,"lng":-52.9143099},{"id":"7465235570","name":"EMEF Dinah Neri Pereira","tags":"amenity:school","lat":-30.0211116,"lng":-52.9207496},{"id":"7465268810","name":"EMEI Sonho Meu","tags":"amenity:school","lat":-30.0206906,"lng":-52.9202425},{"id":"7465281469","name":"EEEM Cel. Ciro Carvalho de Abreu","tags":"amenity:school","lat":-30.0180137,"lng":-52.9142757},{"id":"7639471286","name":"35º Batalhão de Polícia Militar de Cachoeira do Sul (35º BPM)","tags":"amenity:police","lat":-30.02452,"lng":-52.9146899},{"id":"7639471289","name":"Mercado Noêmia","tags":"shop:supermarket,website:http://www.supermercadonoemia.com.br/","lat":-30.0183452,"lng":-52.9183588},{"id":"7678464198","name":"EMEF Milton da Cruz","tags":"amenity:school","lat":-30.03542,"lng":-52.9165282},{"id":"10553286022","name":"Mercearia Bulsing","tags":"shop:supermarket","lat":-30.0209441,"lng":-52.9188417},{"id":"10553299889","name":"Mercado Marques","tags":"shop:supermarket","lat":-30.0186722,"lng":-52.9223924},{"id":"10553299890","name":"Minimercado Talovitz","tags":"shop:supermarket","lat":-30.0181984,"lng":-52.9237308}]