[{"id":"3281412408","name":"Rodoviária de Agudo","tags":"DER:RS:categoria_rodoviaria:quarta,DER:RS:zona_de_fiscalizacao:10,addr:housenumber:200,addr:postcode:96540-000,addr:street:Rodovia dos Imigrantes,addr:suburb:Centro,amenity:bus_station,contact:email:rodo.agudo@gmail.com,contact:phone:+55 55 3265-1814;+55 55 99977-0779,network:BR:RS,official_name:Agudo,operator:Wipasa Empreendim.Imobiliarios Ltda ME,public_transport:station,ref:vatin:BR10456923000106","lat":-29.6506925,"lng":-53.251917},{"id":"3281417761","name":"Hospital Agudo","tags":"amenity:hospital","lat":-29.6490147,"lng":-53.2410249},{"id":"3281418208","name":"Banco do Brasil","tags":"addr:street:Avenida Concórdia,amenity:bank","lat":-29.6446622,"lng":-53.2434788},{"id":"3281418669","name":"Sicredi","tags":"addr:street:Avenida Concórdia,amenity:bank","lat":-29.6443305,"lng":-53.2456223},{"id":"3281418742","name":"Master Bom Supermercado","tags":"addr:street:Avenida Tiradentes,shop:supermarket","lat":-29.6429089,"lng":-53.2512927},{"id":"3281421030","tags":"amenity:hospital","lat":-29.6425918,"lng":-53.2504528},{"id":"3281421527","name":"Correios","tags":"addr:street:Avenida Tiradentes,amenity:post_office","lat":-29.6428725,"lng":-53.2504642},{"id":"3281421977","name":"Delegacia","tags":"addr:street:Avenida Tiradentes,amenity:police","lat":-29.6429089,"lng":-53.2501982},{"id":"3301632072","name":"Cooperagudo","tags":"addr:city:Agudo,addr:postcode:96540-000,addr:street:Rua Marechal Deodoro,addr:suburb:Centro,shop:supermarket","lat":-29.6432453,"lng":-53.2452717},{"id":"4346735483","name":"Brigada Militar","tags":"amenity:police","lat":-29.6428912,"lng":-53.2482005},{"id":"4346737905","name":"Banrisul","tags":"amenity:bank","lat":-29.6443225,"lng":-53.2475187},{"id":"4346737906","name":"Caixa Econômica Federal","tags":"amenity:bank","lat":-29.6443726,"lng":-53.2505195},{"id":"4346737907","name":"Bradesco","tags":"amenity:bank","lat":-29.6439845,"lng":-53.2473507},{"id":"4538919573","name":"Biblioteca Municipal","tags":"addr:street:Rua General Flores,amenity:library","lat":-29.6440435,"lng":-53.2491632},{"id":"4538942778","name":"CFC Uliana","tags":"addr:street:Avenida Concórdia,amenity:school","lat":-29.6446601,"lng":-53.2593185},{"id":"4538969996","name":"Supermercado Rende Mais","tags":"addr:street:Rua Geribá,shop:supermarket","lat":-29.6382552,"lng":-53.2384428},{"id":"4778594938","tags":"amenity:pharmacy","lat":-29.6396778,"lng":-53.2403669},{"id":"4778594941","tags":"shop:supermarket","lat":-29.6369879,"lng":-53.2404398}]