[{"id":"1738490876","name":"Biblioteca Central","tags":"amenity:library","lat":-29.6980265,"lng":-52.4365335},{"id":"1738490879","name":"Memorial da UNISC","tags":"tourism:museum","lat":-29.6965167,"lng":-52.4404388},{"id":"1738544067","tags":"amenity:atm,fee:no,operator:Banco do Brasil","lat":-29.6980358,"lng":-52.4383895},{"id":"1738544082","name":"Vinte e Dois","tags":"amenity:restaurant","lat":-29.6980405,"lng":-52.4386792},{"id":"1738544090","name":"Banrisul","tags":"amenity:bank,atm:yes","lat":-29.6981896,"lng":-52.4386846},{"id":"1739913568","name":"Educar-se","tags":"amenity:school","lat":-29.69714,"lng":-52.4373519},{"id":"3816983737","name":"Banco do Brasil","tags":"amenity:atm","lat":-29.697976,"lng":-52.4383345},{"id":"4846543521","name":"Sorella Cafeteria","tags":"amenity:cafe","lat":-29.7043547,"lng":-52.4297085},{"id":"6251770066","name":"Mercado Heck (Redefort)","tags":"shop:supermarket","lat":-29.7039083,"lng":-52.4358632},{"id":"7037306786","name":"Brolese Solo Galeteria e Pizzaria","tags":"amenity:restaurant,website:http://www.brolesesolo.com.br/","lat":-29.7030461,"lng":-52.4296037},{"id":"7824299178","name":"Escola Municipal Guido Herbert","tags":"amenity:school","lat":-29.7064173,"lng":-52.4488671},{"id":"8712843443","name":"Escola Estadual de Ensino Médio Nossa Senhora do Rosário","tags":"amenity:school","lat":-29.6977202,"lng":-52.4435039},{"id":"8712843445","name":"EMEI Bem-Me-Quer","tags":"amenity:school","lat":-29.6972556,"lng":-52.4458894},{"id":"8712853237","name":"Escola Estadual de Ensino Fundamental Professor José Wilke","tags":"amenity:school","lat":-29.70373,"lng":-52.441838},{"id":"9366458081","name":"Stok Center [EM CONSTRUÇÃO]","tags":"shop:supermarket","lat":-29.6946563,"lng":-52.4477829}]