[{"id":"3066414411","name":"Pórtico de Santa Cruz do Sul","tags":"tourism:attraction","lat":-29.6913009,"lng":-52.4012151},{"id":"4456593074","name":"Polícia Rodoviária Estadual","tags":"addr:housenumber:Km 99,addr:street:RSC-287,amenity:police,contact:website:http://www.crbm.bm.rs.gov.br/,police:traffic_police","lat":-29.6919157,"lng":-52.3946702},{"id":"5434199149","name":"Fritz & Frida","tags":"historic:memorial,tourism:attraction","lat":-29.6906828,"lng":-52.4010368},{"id":"5441193759","name":"Cruz do Santuário","tags":"tourism:attraction","lat":-29.6876362,"lng":-52.4053042},{"id":"5865635330","name":"Big House","tags":"amenity:nightclub","lat":-29.6874458,"lng":-52.4144699},{"id":"5938799598","name":"Antigo Bistrô Casa de Festas","tags":"amenity:restaurant,website:https://pt-br.facebook.com/antigobistro/","lat":-29.7036493,"lng":-52.4157773},{"id":"7799531061","tags":"amenity:school","lat":-29.6782506,"lng":-52.4055901}]