[{"id":"438033661","name":"Drogaria Progresso","tags":"addr:housenumber:1850,addr:street:Rua Ramiro Barcelos,amenity:pharmacy,dispensing:no","lat":-29.6869301,"lng":-51.460185},{"id":"438033666","name":"Panvel","tags":"amenity:pharmacy,dispensing:yes","lat":-29.6838552,"lng":-51.4619773},{"id":"438033667","name":"Supermercado Mombach","tags":"addr:housenumber:2279,addr:street:Rua Ramiro Barcelos,shop:supermarket","lat":-29.6837318,"lng":-51.4623598},{"id":"571098001","name":"SESI Montenegro","tags":"addr:city:Montenegro,addr:housenumber:455,addr:street:Rua Campos Neto,leisure:sports_centre,sport:multi,toilets:wheelchair:yes,wheelchair:yes","lat":-29.6977187,"lng":-51.4901199},{"id":"576256741","name":"Delegacia de Polícia","tags":"amenity:police","lat":-29.6928282,"lng":-51.4636319},{"id":"635027156","name":"Supermercado Rui Barbosa","tags":"addr:housenumber:421,addr:street:Rua Daltro Filho,shop:supermarket","lat":-29.6754427,"lng":-51.4623849},{"id":"635027185","name":"Fundação Medicamentos para a Saúde","tags":"addr:housenumber:450,addr:street:Avenida Júlio Renner,amenity:pharmacy,dispensing:yes,healthcare:pharmacy","lat":-29.6943924,"lng":-51.4800195},{"id":"3072794603","name":"EBCT, Agência Montenegro","tags":"amenity:post_office","lat":-29.6884242,"lng":-51.4609951},{"id":"3072877009","name":"Posto de saúde","tags":"amenity:hospital","lat":-29.6926106,"lng":-51.4634123},{"id":"4492936569","name":"Segundo Turno","tags":"amenity:cafe,internet_access:wlan","lat":-29.6831887,"lng":-51.4602553},{"id":"9778315528","name":"Estádio Hélio Alves de Oliveira","tags":"leisure:stadium","lat":-29.6962,"lng":-51.4704987},{"id":"9778330585","name":"Desco Super & Atacado","tags":"shop:supermarket","lat":-29.6971224,"lng":-51.4750007}]