[{"id":"2453603605","name":"Hospital Viamão","tags":"amenity:hospital,emergency:yes,healthcare:hospital","lat":-30.0812182,"lng":-51.030212},{"id":"2505033434","name":"Unidade de Referência Secundária Centro","tags":"addr:housenumber:470,addr:street:Avenida José Garibaldi,amenity:hospital,healthcare:hospital,short_name:URS Centro","lat":-30.0807837,"lng":-51.0220775},{"id":"3789695483","tags":"amenity:school","lat":-30.0879417,"lng":-51.0516954},{"id":"4673741262","tags":"amenity:school","lat":-30.0859486,"lng":-51.0233892},{"id":"4739807007","tags":"amenity:post_office","lat":-30.0820388,"lng":-51.0298217}]