[{"id":"1413162928","name":"Supermercado Keppler","tags":"shop:supermarket","lat":-30.1524527,"lng":-51.1490572},{"id":"3779034785","name":"Leve mais","tags":"shop:supermarket","lat":-30.1583728,"lng":-51.1472704},{"id":"3798872483","name":"pizzaria campedelli","tags":"addr:city:PoA,addr:housenumber:1715,addr:postcode:91790-010,addr:street:Avenida Ignes e Fagundes,addr:suburb:restinga nova,amenity:restaurant","lat":-30.1467062,"lng":-51.149476},{"id":"3809335488","name":"casa da cha","tags":"addr:city:PoA,addr:housenumber:2070,addr:postcode:91790-520,addr:street:ac p,addr:suburb:restinga restinga,amenity:cafe,wheelchair:no","lat":-30.1546982,"lng":-51.1409261},{"id":"3809338318","name":"pizza ok","tags":"addr:city:PoA,addr:housenumber:2093,addr:street:ace p,addr:suburb:restinga nova,amenity:restaurant,cuisine:pizza","lat":-30.1539671,"lng":-51.1402564},{"id":"3809341764","name":"casa do borrego","tags":"addr:housenumber:2008,addr:street:Estrada João Antônio da Silveira,addr:suburb:restinga nova,amenity:restaurant","lat":-30.1554366,"lng":-51.1422506},{"id":"3809342857","name":"tropical lanches","tags":"addr:street:economista nilo wulff,amenity:restaurant,capacity:30,cuisine:Lanches_com_muita_qualidade.,delivery:yes,smoking:outside,takeaway:yes","lat":-30.1516535,"lng":-51.1423427},{"id":"4348163990","name":"marcel","tags":"amenity:bar","lat":-30.150313,"lng":-51.1417437},{"id":"4623389503","name":"Escola Professor Larry José Ribeiro Alves","tags":"addr:housenumber:1000,addr:postcode:91790-000,addr:street:Avenida Econ Nilo Wulff,amenity:school,official_name:Escola Municipal de Ensino Fundamental Professor Larry José Ribeiro Alves,short_name:EMEF Prof. Larry José Ribeiro Alves","lat":-30.1506962,"lng":-51.1441276},{"id":"4792242714","name":"Kiko Quiosque e Fruteira","tags":"addr:city:Porto Alegre,addr:housenumber:8475,addr:postcode:91787-000,addr:street:Avenida Edgar Pires de Castro,alt_name:Kiko Restaurante,amenity:restaurant,email:contato@quiosquedokiko.com.br,loc_name:Quiosque do Kiko,old_name:Fruteira do Kiko,opening_hours:Su-Sa 08:00-19:00,shop:greengrocer,website:http://www.quiosquedokiko.com.br/","lat":-30.1902705,"lng":-51.1330872},{"id":"4792242715","name":"Século XXI","tags":"amenity:restaurant,cuisine:regional,phone:+55 51 3245-5270","lat":-30.1901974,"lng":-51.1332131},{"id":"5562381621","name":"Supermercado Mara","tags":"shop:supermarket","lat":-30.1624817,"lng":-51.1372214},{"id":"6384714416","name":"dado bar","tags":"amenity:bar,outdoor_seating:no","lat":-30.1536655,"lng":-51.1374483},{"id":"8795875222","name":"Academia Power Fit","tags":"addr:city:Porto Alegre,addr:housenumber:829,addr:street:Rua Doutor João Dentice,addr:suburb:Restinga,leisure:fitness_centre,opening_hours:covid19:open,phone:+55 51 98473-7757,sport:fitness","lat":-30.1625481,"lng":-51.1394108}]