[{"id":"940963748","name":"Churrascaria Alvorada","tags":"addr:city:Alvorada,addr:housenumber:95,addr:street:Rua Figueira,amenity:restaurant,smoking:no","lat":-29.9954816,"lng":-51.0698707},{"id":"1699885224","name":"E.E. Antônio de Castro Alves","tags":"amenity:school","lat":-30.0011588,"lng":-51.0770798},{"id":"1699886984","name":"Polícia Civil","tags":"amenity:police","lat":-30.0000577,"lng":-51.0778791},{"id":"1699887545","name":"Polícia Militar","tags":"amenity:police","lat":-30.000297,"lng":-51.0776646},{"id":"1699892791","name":"Escola Senador Salgado Filho","tags":"amenity:school,official_name:Escola Estadual de Ensino Médio Senador Salgado Filho,short_name:EEEM Senador Salgado Filho","lat":-29.9979602,"lng":-51.0778979},{"id":"1699900380","name":"Santander","tags":"amenity:bank,atm:yes,brand:Santander,brand:wikidata:Q5835668,brand:wikipedia:en:Santander Bank","lat":-30.0025106,"lng":-51.0796172},{"id":"1699901407","name":"Oliveira Supermercado","tags":"shop:supermarket","lat":-30.0026547,"lng":-51.0813607},{"id":"1699903936","name":"Banrisul","tags":"amenity:bank,atm:yes","lat":-30.0045704,"lng":-51.0833331},{"id":"1699904222","name":"Itaú","tags":"amenity:bank,atm:yes","lat":-30.0045223,"lng":-51.0825005},{"id":"1699905288","name":"Bradesco","tags":"amenity:bank,atm:yes","lat":-30.0037714,"lng":-51.0815146},{"id":"1699923411","name":"Escola Adventista","tags":"amenity:school","lat":-30.005619,"lng":-51.0747304},{"id":"1699927523","name":"Escola Municipal Alfredo José Justo","tags":"amenity:school","lat":-30.004007,"lng":-51.0762754},{"id":"1788785830","tags":"shop:supermarket","lat":-30.0048232,"lng":-51.1004827},{"id":"3380392767","name":"EE Fundamental Osório","tags":"amenity:school","lat":-29.9960487,"lng":-51.0833591},{"id":"3386258157","name":"Escola São Francisco - Santa Fé","tags":"addr:housenumber:234,addr:postcode:91180-490,addr:street:Avenida Delmar Rocha Barbosa,amenity:school,contact:email:sf.santafe@institutosaofrancisco.com.br,contact:phone:+55 51 3366-9652,fee:yes,official_name:Escola de Ensino Fundamental São Francisco - Santa Fé","lat":-30.0140585,"lng":-51.1082266},{"id":"4126970425","tags":"access:customers,amenity:parking,parking:surface,surface:paved","lat":-30.002276,"lng":-51.0811679},{"id":"4169963094","name":"Preta Kabellus","tags":"addr:city:Alvorada,addr:housenumber:204,addr:street:Rua Bandeirantes,shop:beauty","lat":-30.0032938,"lng":-51.0776117},{"id":"4169963119","name":"Cyber Lanhouse","tags":"addr:city:Alvorada,addr:housenumber:197,addr:street:Rua Bandeirantes,shop:convenience","lat":-30.0034524,"lng":-51.0777443},{"id":"4179462583","name":"Farmácias Associadas","tags":"addr:city:Alvorada,addr:housenumber:2471,addr:street:Avenida Presidente Getúlio Vargas,amenity:pharmacy","lat":-29.9982539,"lng":-51.0753019},{"id":"4181209303","name":"Centro de Beleza Gerson Matos","tags":"addr:city:Alvorada,addr:housenumber:2073,addr:postcode:94810-001,addr:street:Avenida Presidente Getúlio Vargas,addr:suburb:Bela Vista,shop:beauty","lat":-30.0002409,"lng":-51.0783522},{"id":"4183586311","name":"Panvel","tags":"addr:city:Alvorada,addr:housenumber:2127,addr:postcode:94810-001,addr:street:Avenida Presidente Getúlio Vargas,amenity:pharmacy,dispensing:yes","lat":-29.9997946,"lng":-51.078242},{"id":"4198735566","name":"Equilíbrio Academia","tags":"addr:city:Alvorada,addr:housenumber:3050,addr:street:Avenida Presidente Getúlio Vargas,leisure:sports_centre,sport:fitness","lat":-29.9954742,"lng":-51.0698164},{"id":"4623451169","name":"Escola Padre Leo","tags":"addr:housenumber:195,addr:postcode:91180-003,addr:street:Rua Nossa Senhora de Fatima,amenity:school,official_name:Escola Estadual de Ensino Fundamental Padre Leo,short_name:EEEF Padre Leo","lat":-30.014499,"lng":-51.0965},{"id":"5469376812","name":"Escola São Marcos","tags":"addr:city:Alvorada,addr:housenumber:260,addr:postcode:94820-400,addr:street:Rua Mário Totta,addr:suburb:Agriter,amenity:school","lat":-29.9959257,"lng":-51.0824762},{"id":"6568823305","name":"Espetão Carnes","tags":"addr:street:Estrada Frederico Dihl,shop:supermarket","lat":-30.012494,"lng":-51.0829218},{"id":"6852460122","name":"Agafarma","tags":"amenity:pharmacy,dispensing:yes,healthcare:pharmacy","lat":-30.0011046,"lng":-51.0790342},{"id":"6852460128","name":"Espetão na Brasa","tags":"amenity:restaurant,cuisine:steak_house","lat":-30.0012113,"lng":-51.0790804},{"id":"6860811514","name":"Agromania","tags":"shop:pet","lat":-29.9935757,"lng":-51.0694822},{"id":"9327703560","name":"Maxxi Forma","tags":"addr:housenumber:666,addr:street:Rua dos Maias,leisure:fitness_centre","lat":-29.9912103,"lng":-51.0955201}]