[{"id":"2729080100","name":"ASES","tags":"leisure:sports_centre","lat":-29.92183,"lng":-50.9977919},{"id":"7269678425","name":"Supermercado Jadan","tags":"shop:supermarket","lat":-29.9227706,"lng":-50.996386},{"id":"10062554821","name":"Bruno Souza - Consultor de Beleza Natura","tags":"addr:housenumber:1450,addr:street:Estrada Municipal,contact:instagram:brunosouzaconsultor,name:en:Bruno Souza - Natura Beauty Consultant,opening_hours:Mo-Sa 08:00-20:00,shop:beauty","lat":-29.9099777,"lng":-51.0180911},{"id":"10089739724","name":"Vancosty","tags":"addr:housenumber:3100,addr:street:Estrada Itacolomi,name:en:Vancosty Supermarket,name:pt:Supermercado Vancosty,opening_hours:Mo-Sa 08:00-21:00; Su 08:00-20:00,shop:supermarket,website:http://www.vancosty.com.br","lat":-29.9193113,"lng":-51.017602},{"id":"10089739725","name":"Barbearia Show de Bola","tags":"shop:beauty","lat":-29.9194944,"lng":-51.0182546}]