[{"id":"1044219226","name":"Açougue e Mercearia Elis","tags":"shop:convenience","lat":-29.7486993,"lng":-51.0694344},{"id":"1071756042","name":"Mestra Agropecuária","tags":"shop:pet","lat":-29.7471681,"lng":-51.0684317},{"id":"1105716505","name":"Bar e Armazém Lenita","tags":"addr:city:Novo Hamburgo,addr:country:BR,addr:housenumber:5445,addr:street:Rua João Aloísio Algayer,alt_name:Bar da Lenita,shop:convenience","lat":-29.747598,"lng":-51.0686342},{"id":"1126637288","name":"Eloi Buffet","tags":"amenity:restaurant","lat":-29.7315512,"lng":-51.0815562},{"id":"1127223576","name":"Mercado e Açougue Peretti","tags":"shop:supermarket","lat":-29.7417628,"lng":-51.0961016},{"id":"1127223629","name":"Pet House","tags":"shop:pet","lat":-29.7412039,"lng":-51.0958603},{"id":"1127223775","name":"Comercial Quiosque","tags":"shop:convenience","lat":-29.75004,"lng":-51.0968713},{"id":"1128001209","name":"Supermercado Rissul","tags":"shop:supermarket","lat":-29.7469799,"lng":-51.0969949},{"id":"1128001246","name":"Sinos Pizzas","tags":"amenity:restaurant,cuisine:pizza","lat":-29.7450648,"lng":-51.0965214},{"id":"9125016474","name":"praínha","tags":"addr:city:Novo Hamburgo,addr:housenumber:1,addr:street:Estrada do Balneario,addr:suburb:santo afonso,leisure:park,opening_hours:Mo-Su 08:00-22:00,opening_hours:covid19:open,operator:paulista","lat":-29.737191,"lng":-51.0900534}]