[{"id":"1044909449","name":"Correios AC Lomba Grande","tags":"addr:city:Novo Hamburgo,addr:country:BR,addr:housenumber:1604,addr:street:Rua João Aloysio Algayer,amenity:post_office","lat":-29.7600158,"lng":-51.0447338},{"id":"1044909801","name":"Restaurante Perdigueiro","tags":"amenity:restaurant,cuisine:Caseira","lat":-29.7635272,"lng":-51.0386442},{"id":"1044910449","name":"Restaurante Frühstück","tags":"amenity:restaurant","lat":-29.7630508,"lng":-51.0390209},{"id":"1044910564","name":"Buffet Familia Rost","tags":"amenity:restaurant","lat":-29.7661957,"lng":-51.034587},{"id":"1518492985","name":"Casa da Colina","tags":"amenity:restaurant,operator:colonial","lat":-29.7599491,"lng":-51.0442085},{"id":"1518492994","name":"Du-Leio","tags":"shop:supermarket","lat":-29.7617997,"lng":-51.0410028},{"id":"1518493012","name":"Hamburguesa","tags":"alt_name:Farmácias Associadas,amenity:pharmacy","lat":-29.7627562,"lng":-51.040142},{"id":"1518493013","name":"Instituto Estadual Madre Benícia","tags":"amenity:school","lat":-29.7627061,"lng":-51.0394904},{"id":"1518493018","name":"Santa Paulina","tags":"amenity:pharmacy","lat":-29.76105,"lng":-51.0421979},{"id":"1518493107","tags":"amenity:bank,operator:Banrisul","lat":-29.7605743,"lng":-51.0430784},{"id":"1562709673","name":"Bar so Zé","tags":"shop:convenience","lat":-29.7679054,"lng":-51.060102},{"id":"1562709675","name":"Diane","tags":"shop:beauty","lat":-29.7679769,"lng":-51.060041},{"id":"2258209699","tags":"shop:convenience","lat":-29.7577267,"lng":-51.0231027},{"id":"2832524241","name":"Pizzaria La Marka","tags":"amenity:restaurant,cuisine:Pizzaria","lat":-29.7597947,"lng":-51.045002},{"id":"7653469680","name":"Loteamento Jardim da Figueira","tags":"leisure:park","lat":-29.7534702,"lng":-51.0498899}]