[{"id":"5263584218","name":"Salão de Festas e Quadra de Esportes","tags":"addr:city:Capela de Santana,addr:postcode:95745-000,addr:street:Avenida Coronel Orestes Lucas,addr:suburb:Vila Nova,leisure:sports_centre,opening_hours:Mo-Su 08:00-23:00,sport:soccer;volleyball","lat":-29.6894242,"lng":-51.3212215},{"id":"5263584220","name":"Rodeio","tags":"addr:city:Capela de Santana,addr:postcode:95745-000,addr:street:Avenida Coronel Orestes Lucas,addr:suburb:Vila Nova,leisure:sports_centre,sport:equestrian","lat":-29.6908077,"lng":-51.3235336},{"id":"5263587221","name":"Rodeio","tags":"addr:city:Capela de Santana,addr:postcode:95745-000,addr:street:Avenida Coronel Orestes Lucas,addr:suburb:Vila Nova,description:local em que ocorre prática de esportes tradicionalistas da região.,leisure:sports_centre,opening_hours:Mo-Su 10:00-20:00,sport:diversas_práticas_de_esportes_tradicionalistas_ligados_à_cultura_gaúcha","lat":-29.6908077,"lng":-51.3235336},{"id":"5267720479","name":"Brigada Militar","tags":"addr:city:Capela de Santana,addr:postcode:95745-000,addr:street:Avenida Coronel Orestes Lucas,addr:suburb:Vila Nova,amenity:police","lat":-29.6886408,"lng":-51.3207678},{"id":"5285708083","name":"Mini Mercado Leo","tags":"addr:city:Capela de Santana,addr:housenumber:118,addr:postcode:95745-000,addr:street:Rua Dom Pedro I,addr:suburb:Vila Nova,opening_hours:Mo-Su 08:00-20:00,shop:supermarket","lat":-29.6886238,"lng":-51.3220037},{"id":"5285708086","name":"Cursos Comunitarios","tags":"addr:city:Capela de Santana,addr:postcode:95745-000,addr:street:Avenida Coronel Orestes Lucas,addr:suburb:Vila Nova,amenity:school","lat":-29.6897136,"lng":-51.3212422},{"id":"5285708087","name":"Parque Centro de Eventos","tags":"leisure:park","lat":-29.6900519,"lng":-51.3231321},{"id":"5285708088","name":"Parque Centro de Eventos","tags":"leisure:park","lat":-29.6907348,"lng":-51.3245653},{"id":"5285751619","name":"Escola Estadual","tags":"addr:city:Capela de Santana,addr:postcode:95745-000,addr:street:Rua Santa Helena,addr:suburb:Parque Primavera,amenity:school","lat":-29.6921304,"lng":-51.3195761},{"id":"5285751624","name":"Agropecuária e PetShop","tags":"addr:city:Capela de Santana,addr:postcode:95745-000,addr:street:Avenida Coronel Orestes Lucas,addr:suburb:Vila Nova,shop:pet","lat":-29.6882165,"lng":-51.3206687}]