[{"id":"538392800","name":"Biblioteca Municipal Machado de Assis","tags":"amenity:library","lat":-29.6808715,"lng":-51.1231278},{"id":"540135870","name":"IENH Pindorama","tags":"amenity:school,phone:+55 51 3594-8040,website:https://www.ienh.com.br/","lat":-29.6733253,"lng":-51.1111879},{"id":"1036638141","name":"Tribuna Café","tags":"addr:city:Novo Hamburgo,addr:country:BR,addr:housenumber:83,addr:street:Rua Doutor Bayard de Toledo Mércio,amenity:cafe","lat":-29.6962443,"lng":-51.1155492},{"id":"1036638185","name":"Buffet Alexandre Pilatti","tags":"amenity:restaurant","lat":-29.6961825,"lng":-51.1161991},{"id":"1036638304","name":"Restaurante e Cafeteria Foro","tags":"amenity:restaurant","lat":-29.6955666,"lng":-51.1163732},{"id":"1068399367","tags":"amenity:bus_station,bus:yes,public_transport:station","lat":-29.6845532,"lng":-51.1356641},{"id":"1069994341","name":"Estação Rodoviária Normélio Stabel","tags":"DER:RS:categoria_rodoviaria:primeira,DER:RS:zona_de_fiscalizacao:14,addr:housenumber:667,addr:postcode:93300-000,addr:street:Rua Três de Outubro,addr:suburb:Rio Branco,alt_name:Rodoviária de Novo Hamburgo,amenity:bus_station,bus:yes,contact:email:rodoviaria@comur.com.br,contact:phone:+55 51 3525-0990;+55 51 3593-4430,network:BR:RS,official_name:Novo Hamburgo,operator:Prefeitura Municipal de Novo Hamburgo,public_transport:station,ref:vatin:BR88254875000160","lat":-29.7010175,"lng":-51.1359495},{"id":"1069994354","name":"Banco do Brasil","tags":"amenity:bank,atm:yes,brand:Banco do Brasil,brand:wikidata:Q610817,brand:wikipedia:en:Banco do Brasil,operator:Banco do Brasil","lat":-29.6837214,"lng":-51.1361552},{"id":"1069994388","name":"Star Park","tags":"amenity:parking,parking:surface","lat":-29.6962695,"lng":-51.1152647},{"id":"1070138973","name":"Market Supermercado","tags":"shop:supermarket","lat":-29.6693646,"lng":-51.1435662},{"id":"1070138976","name":"Hamburgo Grill","tags":"amenity:restaurant","lat":-29.7009267,"lng":-51.1471743},{"id":"1070139057","name":"Primavera","tags":"addr:city:Novo Hamburgo,addr:housenumber:2554,addr:street:BR-116,addr:suburb:Primavera,amenity:restaurant,website:http://www.grupoprimaveranh.com.br","lat":-29.6935383,"lng":-51.1443261},{"id":"1071739277","name":"Academia Fitness Way","tags":"leisure:sports_centre,sport:fitness","lat":-29.6836705,"lng":-51.1362247},{"id":"1071739280","name":"Maria Bailarina Centro de Dança","tags":"leisure:sports_centre,sport:gymnastics","lat":-29.6836393,"lng":-51.1361364},{"id":"1072851522","name":"Farmácia Mais Econômica","tags":"amenity:pharmacy,healthcare:pharmacy","lat":-29.6852167,"lng":-51.1353992},{"id":"1072851612","name":"Farmácia Capilé","tags":"amenity:pharmacy,healthcare:pharmacy","lat":-29.6857891,"lng":-51.1371368},{"id":"1104091716","name":"3º BPM","tags":"amenity:police,website:http://www.brigadamilitar.rs.gov.br/crpovrs/estrutura/3bpm.html","lat":-29.7042826,"lng":-51.122761},{"id":"1104091756","name":"Amigos do Coronel","tags":"amenity:car_wash","lat":-29.6955119,"lng":-51.1196269},{"id":"1104154745","name":"Restaurante Vitória","tags":"amenity:restaurant","lat":-29.6887581,"lng":-51.136928},{"id":"1104486210","name":"Restaurante Normélio","tags":"amenity:restaurant","lat":-29.6911851,"lng":-51.1402353},{"id":"1104486279","name":"Estima Cão","tags":"shop:pet","lat":-29.6896909,"lng":-51.1379981},{"id":"1104486283","name":"Auto Lavagem Protela","tags":"amenity:car_wash","lat":-29.6907745,"lng":-51.1393775},{"id":"1119550989","name":"Sabores do Sul","tags":"amenity:restaurant","lat":-29.6863022,"lng":-51.1157046},{"id":"1193729038","name":"Restaurante e Lancheria F. R.","tags":"amenity:restaurant","lat":-29.7038314,"lng":-51.1114311},{"id":"1195955072","name":"Iza Estética e Beleza","tags":"shop:beauty","lat":-29.6868891,"lng":-51.1325857},{"id":"1200834797","name":"Variedades Bach","tags":"shop:convenience","lat":-29.6843799,"lng":-51.135369},{"id":"1200835245","name":"Droga Rio","tags":"amenity:pharmacy,healthcare:pharmacy","lat":-29.6851043,"lng":-51.1349427},{"id":"1200933415","name":"Sebo Só Ler","tags":"books:second_hand,shop:books,wheelchair:no","lat":-29.6836564,"lng":-51.1307427},{"id":"1200933494","name":"Bradesco","tags":"amenity:bank,branch:Prime,brand:Bradesco,brand:wikidata:Q806181,brand:wikipedia:en:Banco Bradesco,operator:Bradesco","lat":-29.683579,"lng":-51.1281358},{"id":"1200933553","name":"Itaú","tags":"amenity:bank,brand:Itaú Unibanco,brand:wikidata:Q1424293,brand:wikipedia:pt:Itaú Unibanco,operator:Itaú","lat":-29.683688,"lng":-51.1290737},{"id":"1200933888","name":"Super Farmácia Popular","tags":"amenity:pharmacy,healthcare:pharmacy","lat":-29.6836612,"lng":-51.1307841},{"id":"1201086269","name":"Prato del Nono","tags":"amenity:restaurant","lat":-29.6896806,"lng":-51.1297379},{"id":"1201086274","name":"Nostra Pizza","tags":"amenity:restaurant,cuisine:pizza","lat":-29.6930622,"lng":-51.1293401},{"id":"1201086316","name":"Bula Manipulação","tags":"amenity:pharmacy,healthcare:pharmacy","lat":-29.6880385,"lng":-51.1290682},{"id":"1201086362","name":"Yes Podologia","tags":"shop:beauty","lat":-29.6880742,"lng":-51.129097},{"id":"1201086371","name":"Disk Kosméticos","tags":"addr:city:Novo Hamburgo,addr:country:BR,addr:housenumber:1310,addr:street:Rua Marcílio Dias,shop:chemist,website:http://www.diskkosmeticos.com.br","lat":-29.6877997,"lng":-51.1290105},{"id":"1210998572","name":"Espaço Natural","tags":"organic:only,shop:supermarket","lat":-29.6844062,"lng":-51.1358981},{"id":"1223809078","name":"Galeto D'Itália","tags":"amenity:restaurant,cuisine:italian","lat":-29.6882283,"lng":-51.131393},{"id":"1223809082","name":"Mercado e Açougue Tupandi","tags":"shop:convenience","lat":-29.6853384,"lng":-51.1169175},{"id":"1227300325","name":"Drogaria Farmacro","tags":"amenity:pharmacy,healthcare:pharmacy,wheelchair:limited","lat":-29.6852605,"lng":-51.1355384},{"id":"1235410683","name":"Canil Gruta dos Guardiões","tags":"shop:pet,training:yes,website:http://canilgrutadosguardioes.blogspot.com","lat":-29.7028427,"lng":-51.1122109},{"id":"1235461861","name":"Grão Brasil Café","tags":"amenity:cafe","lat":-29.6875229,"lng":-51.1323519},{"id":"1235461866","name":"Bichos & Cia","tags":"addr:city:Novo Hamburgo,addr:country:BR,addr:housenumber:2096,addr:street:Rua Bento Gonçalves,shop:pet,website:http://www.bichosecia.com.br","lat":-29.6879985,"lng":-51.1271717},{"id":"1236482312","name":"Blue House","tags":"amenity:restaurant","lat":-29.6877598,"lng":-51.1287158},{"id":"1236544710","name":"Star Park","tags":"amenity:parking,fee:yes,parking:surface,wheelchair:limited","lat":-29.6829671,"lng":-51.1299593},{"id":"1236544735","name":"Academia Bem Estar","tags":"leisure:sports_centre,sport:fitness,wheelchair:limited","lat":-29.6804492,"lng":-51.1307348},{"id":"1236544738","name":"Panvel","tags":"amenity:pharmacy,brand:Panvel,brand:wikidata:Q10344254,brand:wikipedia:pt:Panvel,healthcare:pharmacy","lat":-29.6834675,"lng":-51.1299724},{"id":"1236544794","name":"Mais Econômica","tags":"addr:city:Novo Hamburgo,addr:country:BR,addr:housenumber:5550,addr:street:Avenida Pedro Adams Filho,amenity:pharmacy,healthcare:pharmacy","lat":-29.6837841,"lng":-51.1301252},{"id":"1236544819","name":"Santander","tags":"addr:city:Novo Hamburgo,addr:country:BR,addr:housenumber:726,addr:street:Rua Joaquim Nabuco,amenity:bank,brand:Santander,brand:wikidata:Q5835668,brand:wikipedia:en:Santander Bank,operator:Santander","lat":-29.6835008,"lng":-51.1302103},{"id":"1236544921","name":"Maxxi Econômica","tags":"amenity:pharmacy,healthcare:pharmacy","lat":-29.683756,"lng":-51.1298881},{"id":"1236689751","name":"Supermercados Goldani","tags":"shop:supermarket","lat":-29.6778568,"lng":-51.1376286},{"id":"1236689784","name":"Supermercados Goldani","tags":"shop:supermarket","lat":-29.6726275,"lng":-51.1317847},{"id":"1241276873","name":"Ser Fisio","tags":"health_facility:type:clinic,health_specialty:physiatry:yes,leisure:sports_centre,medical_system:western:yes,sport:pilates","lat":-29.6879315,"lng":-51.1266707},{"id":"1241276876","name":"O Bifão","tags":"amenity:restaurant,website:http://www.bifao.com.br","lat":-29.6874689,"lng":-51.1243941},{"id":"1241290861","name":"Escola de Idiomas Language Company School","tags":"amenity:school","lat":-29.6882756,"lng":-51.131714},{"id":"1241290869","name":"Mais Você Centro de Beleza","tags":"shop:beauty","lat":-29.6876571,"lng":-51.1276397},{"id":"1245032947","name":"Italian Place","tags":"amenity:restaurant","lat":-29.6892181,"lng":-51.1386785},{"id":"1251593988","name":"BR","tags":"amenity:fuel,brand:BR,brand:wikidata:Q4836468,brand:wikipedia:pt:Vibra Energia,shop:convenience","lat":-29.690654,"lng":-51.1332652},{"id":"1251594085","name":"Arena Academia","tags":"leisure:sports_centre,sport:fitness","lat":-29.6904758,"lng":-51.1295873},{"id":"1309677451","name":"Restaurante Panorâmico","tags":"alt_name:Restaurante Panorâmico da Fenac,amenity:restaurant,wheelchair:yes","lat":-29.7020774,"lng":-51.1401118},{"id":"1917756737","name":"Armazém Toast","tags":"addr:city:Novo Hamburgo,addr:country:BR,addr:housenumber:17,addr:street:Rua Almirante Barroso,shop:convenience,website:http://www.toastrestobar.com.br/armazem","lat":-29.6831717,"lng":-51.1215125},{"id":"1917756739","name":"Toast","tags":"addr:city:Novo Hamburgo,addr:country:BR,addr:housenumber:11,addr:street:Rua Almirante Barroso,amenity:restaurant,website:http://www.toastrestobar.com.br","lat":-29.6832714,"lng":-51.1214717},{"id":"2301799115","name":"FWA Equip Médicos","tags":"addr:housename:FWA,addr:housenumber:149,addr:postcode:93410-330,addr:street:Rua SÃO FRANCISCO DE PAULA,shop:convenience,website:www.fwa.com.br","lat":-29.6904295,"lng":-51.1209297},{"id":"2594162847","name":"Colégio Cenecista Felipe Tiago Gomes","tags":"amenity:school","lat":-29.6815737,"lng":-51.1450369},{"id":"2667086590","name":"Sabor ao Prato","tags":"amenity:restaurant","lat":-29.7036332,"lng":-51.1330502},{"id":"3198689439","name":"Fundação Ernesto Frederico Scheffel","tags":"tourism:museum","lat":-29.673582,"lng":-51.1096628},{"id":"3198689440","name":"Museu Comunitário Casa Schmitt-Presser","tags":"tourism:museum","lat":-29.6735109,"lng":-51.109463},{"id":"3404781791","name":"Agência de Correios Hamburgo Velho","tags":"addr:housename:Sala 05,addr:housenumber:947,addr:postcode:93511-970,addr:street:Avenida Victor Hugo Kunz,amenity:post_office,contact:phone:+55 51 3593-1211,opening_hours:Mo-Fr 09:00-17:00,operator:Correios,operator:wikidata:Q3375004,operator:wikipedia:en:Correios,short_name:AC Hamburgo Velho","lat":-29.673645,"lng":-51.1144065},{"id":"3404781792","name":"Agência de Correios Novo Hamburgo","tags":"addr:housenumber:5156,addr:postcode:93301-970,addr:street:Avenida Pedro Adams Filho,amenity:post_office,contact:phone:+55 51 3594-4133;+55 51 3581-5707,opening_hours:Mo-Fr 09:00-17:30; Sa 09:00-12:00,operator:Correios,operator:wikidata:Q3375004,operator:wikipedia:en:Correios,short_name:AC Novo Hamburgo","lat":-29.6871728,"lng":-51.1296022},{"id":"4120149428","name":"Hospital da Visão","tags":"amenity:hospital,healthcare:hospital","lat":-29.6886727,"lng":-51.1127987},{"id":"4121396345","name":"Escola Estadual Borges de Medeiros","tags":"amenity:school","lat":-29.6989088,"lng":-51.1194253},{"id":"4121396346","name":"Escola Estadual Bairro Rondônia","tags":"amenity:school","lat":-29.6984794,"lng":-51.1188875},{"id":"4562818090","name":"IERGS/UNIASSELVI","tags":"addr:housenumber:2842,addr:street:Rua Bento Gonçalves,amenity:school,opening_hours:Mo-Fr 10:00-22:00; Sa 08:00-12:00","lat":-29.6812129,"lng":-51.129181},{"id":"4661156589","name":"Cunha","tags":"addr:housenumber:6525,addr:street:Avenida Pedro Adams Filho,amenity:cafe,opening_hours:Mo-Su 07:30-21:00","lat":-29.6752339,"lng":-51.1313832},{"id":"4782117953","tags":"amenity:parking","lat":-29.6649072,"lng":-51.1416189},{"id":"4860772003","name":"Festeja Hamburgo Velho","tags":"description:Feira de gastronomia, artesanato e antiguidades, promove diferentes atrações culturais, com ênfase para apresentações musicais. Evento comunitário mensal.,tourism:attraction","lat":-29.6767957,"lng":-51.1125963},{"id":"5143751420","tags":"amenity:library,operator:FEEVALE","lat":-29.6660278,"lng":-51.1187521},{"id":"5317023262","name":"Novo Hamburgo","tags":"addr:housenumber:2040,addr:postcode:93320-020,addr:street:Avenida Nações Unidas,colour:#FF5800,opening_hours:Mo-Su, PH 04:50-23:20,operator:Trensurb,platforms:1,public_transport:station,railway:station,source:name:survey,station:subway,subway:yes,website:http://www.trensurb.gov.br/,wheelchair:yes","lat":-29.686764,"lng":-51.1329056},{"id":"5320204166","name":"Fenac","tags":"addr:housenumber:3690,addr:postcode:93320-020,addr:street:Avenida Nações Unidas,colour:#00B7EB,opening_hours:Mo-Su, PH 04:50-23:20,operator:Trensurb,platforms:2,public_transport:station,railway:station,source:name:survey,station:subway,subway:yes,website:http://www.trensurb.gov.br/,wheelchair:yes","lat":-29.7009482,"lng":-51.1349789},{"id":"5342888998","tags":"amenity:parking","lat":-29.6743775,"lng":-51.1120838},{"id":"5600711421","name":"Mais Pastel - Ifashion Outlet - Novo Hamburgo","tags":"amenity:restaurant,email:maispastel@maispastel.com.br,phone:+55 51 99237-6633,website:http://www.maispastel.com.br","lat":-29.6651929,"lng":-51.1422909},{"id":"5810877254","name":"VegTal","tags":"addr:housenumber:890,addr:postcode:93510-250,addr:street:Avenida Doutor Maurício Cardoso,alt_name:Vegtal Cozinha Vegana,amenity:restaurant,diet:vegan:only,phone:+55 51 3586-3116,website:https://facebook.com/vegtal","lat":-29.6817773,"lng":-51.1195264},{"id":"5939159838","name":"VegTal","tags":"addr:housenumber:890,addr:street:Avenida Doutor Maurício Cardoso,amenity:restaurant,diet:gluten_free:yes,diet:vegan:only,email:vegtal@uol.com.br,opening_hours:Mo-Sa 11:30-14:00,organic:yes,phone:+55 51 3586-3116","lat":-29.6800568,"lng":-51.1166362},{"id":"7399938886","name":"EMEI Primavera","tags":"amenity:school","lat":-29.6897626,"lng":-51.1514467},{"id":"7590154250","name":"Saffra Supermercado","tags":"addr:city:Novo Hamburgo,addr:housenumber:1000,addr:street:Rua Maria Olinda Telles,shop:supermarket","lat":-29.6995899,"lng":-51.1103418},{"id":"8727717162","tags":"amenity:parking","lat":-29.665058,"lng":-51.1416053},{"id":"8727717163","tags":"amenity:parking","lat":-29.6647449,"lng":-51.1416312},{"id":"8727717165","tags":"amenity:parking","lat":-29.6646242,"lng":-51.1416404},{"id":"8727717166","tags":"amenity:parking","lat":-29.6644833,"lng":-51.1416511},{"id":"8749948872","tags":"amenity:parking","lat":-29.6638988,"lng":-51.1417262},{"id":"8833880728","name":"Dream's Esthetic School","tags":"addr:city:Novo Hamburgo,addr:housenumber:2399, sala 506,addr:postcode:93510-040,addr:street:Rua Bento Gonçalves,addr:suburb:Centro,amenity:school,grades:1-10","lat":-29.6852131,"lng":-51.1277624},{"id":"9409060454","name":"Colégio Marista Pio XII","tags":"addr:city:Novo Hamburgo,addr:housenumber:182,addr:postcode:93315-042,addr:street:Avenida Nicolau Becker,addr:suburb:Vila Rosa,amenity:school,email:pioxii@maristas.org.br,operator:Rede Marista,operator:type:private_non_profit,phone:+55 51 3584-8000,religion:christian,website:https://colegios.redemarista.org.br/pio-xii","lat":-29.6829355,"lng":-51.1341999},{"id":"9458934278","name":"Don Amaro","tags":"addr:city:Novo Hamburgo,addr:housenumber:217,addr:street:Rua Visconde de São Leopoldo,addr:suburb:Vila Rosa,amenity:restaurant,contact:whatsapp:+55 51 99988 7728,cuisine:pizza,delivery:yes,mobile:+55 51 99988 7728,phone:+55 51 2160 4479,takeaway:yes,website:https://domamaropizzaria.com.br/","lat":-29.6797787,"lng":-51.1342516},{"id":"9470447561","name":"Droga Raia","tags":"addr:city:Novo Hamburgo,addr:housenumber:5837,addr:postcode:93320-105,addr:street:Avenida Pedro Adams Filho,addr:suburb:Centro,amenity:pharmacy,brand:Droga Raia,brand:wikidata:Q10357101,brand:wikipedia:pt:RaiaDrogasil,contact:phone:+55 51 3581 2076,dispensing:yes,drive_through:no,healthcare:pharmacy,opening_hours:Mo-Su 07:00-23:00,opening_hours:covid19:same,phone:+55 51 99500 5004","lat":-29.6810789,"lng":-51.1302819},{"id":"9482113517","name":"Boteco 1538","tags":"amenity:restaurant","lat":-29.6840175,"lng":-51.1211159},{"id":"9494238525","name":"O2 Fitness","tags":"addr:city:Novo Hamburgo,addr:housenumber:651,addr:street:Rua Pedro Álvares Cabral,addr:suburb:Vila Rosa,contact:email:academiao2nh@hotmail.com,contact:facebook:https://www.facebook.com/academiao2nhfitness/,contact:phone:+55 51 3107 4142,contact:whatsapp:+55 51 99874 1332,internet_access:wlan,internet_access:fee:customers,leisure:fitness_centre,opening_hours:Mo-Fr 07:00-22:00; Sa 09:00-13:00","lat":-29.6804844,"lng":-51.1349572},{"id":"9706018888","tags":"amenity:atm,cash_in:yes,currency:BRL:yes,drive_through:no,network:Saque e Pague,operator:Saque e Pague","lat":-29.6851897,"lng":-51.1340692},{"id":"9880153818","name":"Colégio Marista São Marcelino Champagnat","tags":"addr:city:Novo Hamburgo,addr:housenumber:182,addr:postcode:93315-042,addr:street:Avenida Nicolau Becker,amenity:school,contact:phone:+55 51 98139 1158,email:marcelino@maristas.org.br,opening_hours:Mo-Fr 18:00-22:30,operator:Rede Marista,operator:type:private_non_profit,phone:+55 51 3584 8040,religion:christian,website:https://social.redemarista.org.br/colegio/eja-champagnat","lat":-29.6829341,"lng":-51.1341785},{"id":"8754725296","tags":"amenity:parking","lat":-29.6940487,"lng":-51.1306722},{"id":"10085819857","name":"Cristóvão 437 - Estética Automotiva","tags":"addr:city:Novo Hamburgo,addr:housenumber:437,addr:postcode:93310-320,addr:street:Rua Cristóvão Colombo,addr:suburb:Vila Rosa,amenity:car_wash,automated:no,contact:whatsapp:+55 51 9296 4010,phone:+55 51 9296 4010,self_service:no","lat":-29.6813073,"lng":-51.1343765},{"id":"10085933019","name":"Estética Helena","tags":"addr:city:Novo Hamburgo,addr:housenumber:277,addr:street:Rua Carlos Gomes,addr:suburb:Vila Rosa,beauty:nails,phone:+55 51 3593 7190,shop:beauty","lat":-29.6818443,"lng":-51.134174},{"id":"10085933028","name":"Studio Leila Saádeh","tags":"addr:city:Novo Hamburgo,addr:housenumber:40,addr:street:Rua Visconde de São Leopoldo,addr:suburb:Vila Rosa,contact:facebook:https://pt-br.facebook.com/StudioLeila/,contact:instagram:https://www.instagram.com/studioleilasaadeh/,leisure:fitness_centre,phone:+55 51 99754 5180,sport:yoga","lat":-29.6815068,"lng":-51.1342176},{"id":"10087567074","tags":"access:customers,amenity:parking,fee:yes,operator:Bourbon,operator:type:business,parking:multi-storey,surface:asphalt","lat":-29.6938385,"lng":-51.132115},{"id":"10087567091","tags":"access:customers,amenity:parking","lat":-29.6941745,"lng":-51.1311843},{"id":"10104525654","tags":"access:permissive,amenity:parking,fee:yes,parking:multi-storey,payment:cash:yes,payment:coins:yes,payment:credit_cards:yes,payment:debit_cards:yes,surface:concrete","lat":-29.6858138,"lng":-51.1338646},{"id":"10104525655","name":"Panvel","tags":"addr:city:Novo Hamburgo,addr:housenumber:2001,addr:street:Avenida Nações Unidas,addr:suburb:Rio Branco,amenity:pharmacy,brand:Panvel,brand:wikidata:Q10344254,dispensing:yes,healthcare:pharmacy,level:0,wheelchair:yes","lat":-29.685771,"lng":-51.1337413},{"id":"10104633059","name":"Weber's","tags":"addr:city:Novo Hamburgo,addr:housenumber:222,addr:street:Rua 24 de Maio,addr:suburb:Rincão,amenity:restaurant,contact:email:restaurantewebers@gmail.com,contact:facebook:https://www.facebook.com/restaurantewebersnh,cuisine:regional;german,level:0,opening_hours:Mo-Fr 11:30-14:30; Sa 11:30-23:00; Su 11:30-14:30,phone:+55 51 3593 2822","lat":-29.6776703,"lng":-51.1401561},{"id":"10133093345","name":"Magrass","tags":"addr:housenumber:2161,addr:street:Rua Bento Gonçalves,beauty:aesthetic,branch:Unidade NH,check_date:2022-10-27,contact:facebook:https://www.facebook.com/magrassNH,contact:phone:+55 51 3279-9384,contact:whatsapp:+55 51 99393 4819,currency:BRL:yes,shop:beauty","lat":-29.6874633,"lng":-51.1270391},{"id":"6129535685","name":"Madero","tags":"amenity:restaurant,brand:Madero,brand:wikidata:Q115206711,cuisine:burger","lat":-29.6799708,"lng":-51.1225287},{"id":"10268881138","name":"Panquecaria 251","tags":"addr:housenumber:251,addr:street:Rua Marcilio Dias,amenity:restaurant,check_date:2022-12-16","lat":-29.6889779,"lng":-51.1387297},{"id":"10268954495","name":"Nobre Arte","tags":"addr:city:Novo Hamburgo,addr:housenumber:533,addr:street:Rua 24 de Maio,addr:suburb:Vila Rosa,contact:facebook:https://www.facebook.com/viviansousanobrearte/,contact:instagram:https://www.instagram.com/nobrearte.salao/,opening_hours:Mo-Sa 09:00-19:00,phone:+55 51 98598 7400,shop:beauty","lat":-29.678191,"lng":-51.1367055},{"id":"10268954496","name":"Mercearia Do Rocky","tags":"addr:city:Novo Hamburgo,addr:housenumber:527,addr:street:Rua 24 de Maio,addr:suburb:Vila Rosa,contact:instagram:https://www.instagram.com/merceariadorocky/,phone:+55 51 98514 2010,shop:convenience","lat":-29.6781868,"lng":-51.1367528},{"id":"10726706415","name":"Corpore Sano","tags":"addr:housenumber:50,addr:street:Rua Carlos Gomes,check_date:2023-03-10,contact:whatsapp:+55 51 99327 0691,leisure:fitness_centre","lat":-29.6817516,"lng":-51.1319382},{"id":"10726752058","name":"Espaço Beleza NH","tags":"beauty:nails,check_date:2023-03-10,contact:phone:+55 51 3066-2990,shop:beauty","lat":-29.6817437,"lng":-51.1318486}]