[{"id":"538427577","name":"Mercado Cidade Nova","tags":"shop:supermarket","lat":-29.624443,"lng":-51.160612},{"id":"1141576821","name":"Hospital Presidente Vargas","tags":"amenity:hospital","lat":-29.6485004,"lng":-51.1750693},{"id":"1141578706","name":"Escola de Ensino Fundamental Cirandinha","tags":"amenity:school","lat":-29.6480808,"lng":-51.1750049},{"id":"1141586236","name":"Sagrada Família","tags":"amenity:place_of_worship,building:church,denomination:catholic,religion:christian","lat":-29.648864,"lng":-51.1745328},{"id":"1141586240","name":"Asun","tags":"shop:supermarket","lat":-29.6504678,"lng":-51.177376},{"id":"1141586243","name":"Banco do Brasil","tags":"amenity:bank,brand:Banco do Brasil,brand:wikidata:Q610817,brand:wikipedia:en:Banco do Brasil","lat":-29.6508725,"lng":-51.1724537},{"id":"1141595868","name":"Caixa","tags":"amenity:bank","lat":-29.6508538,"lng":-51.1727112},{"id":"1758622586","name":"Austrália Lanches 1","tags":"amenity:bar","lat":-29.6522146,"lng":-51.1716958},{"id":"1758628351","name":"Austrália Lanches 3","tags":"amenity:bar","lat":-29.6510214,"lng":-51.1720222},{"id":"3065485454","name":"Brigada Militar","tags":"amenity:police","lat":-29.6592305,"lng":-51.1682764},{"id":"3067814532","name":"Grão de Sal","tags":"addr:city:Estância Velha,amenity:restaurant,capacity:200,cuisine:regional","lat":-29.6506508,"lng":-51.1720957},{"id":"4438978191","name":"Pastelaria Expresso","tags":"addr:housenumber:356,addr:postcode:93600-000,addr:street:Rua Reynaldo Leuck,amenity:cafe,internet_access:wlan,opening_hours:Tu-Sa,phone:+55 51 99582-4769","lat":-29.6431551,"lng":-51.1705907},{"id":"5321097964","tags":"amenity:parking","lat":-29.6590524,"lng":-51.1725529},{"id":"5419198286","name":"Restaurante Quero-Quero","tags":"amenity:restaurant,cuisine:regional,opening_hours:Mo-Fr 11:30-14:00","lat":-29.6209378,"lng":-51.1588065},{"id":"5422782460","name":"Moinho movido a Boi","tags":"tourism:attraction","lat":-29.6394899,"lng":-51.1694918},{"id":"5422782494","tags":"amenity:parking","lat":-29.6201858,"lng":-51.1652029},{"id":"6286912985","name":"Igreja Adventista do Sétimo Dia","tags":"amenity:place_of_worship,building:church,denomination:seventh_day_adventist,religion:christian,service_times:Sa 9:00-12:00; Su 20:00-21:30,short_name:IASD Loteamento União","lat":-29.6621058,"lng":-51.1633059},{"id":"8891503645","name":"Escola Municipal Aroni Aloísio Mossmann","tags":"amenity:school","lat":-29.6244316,"lng":-51.1552312}]