[{"id":"3444992100","name":"E. M. Dr. Antônio Benfica Filho","tags":"amenity:school","lat":-29.6729473,"lng":-51.1587029},{"id":"6069362809","name":"Paradouro Cantina","tags":"amenity:restaurant","lat":-29.7055239,"lng":-51.1878993},{"id":"6315158478","name":"EMEI Veneza","tags":"amenity:school","lat":-29.6685375,"lng":-51.1731251},{"id":"7399938885","name":"EEEF Jair Henrique Foscarini","tags":"amenity:school","lat":-29.6778602,"lng":-51.1601478},{"id":"8022232062","name":"Xicúria D'unhas Studio by Delise","tags":"addr:city:Novo Hamburgo,addr:housenumber:207,addr:street:Rua Pedro Quaresma da Silva,addr:suburb:Boa saude,beauty:nails,operator:delise,shop:beauty","lat":-29.6716976,"lng":-51.1671929},{"id":"9731273158","tags":"amenity:school","lat":-29.7018532,"lng":-51.1945593},{"id":"10076140400","name":"São João","tags":"amenity:pharmacy,brand:São João,brand:wikidata:Q62663306,dispensing:yes,healthcare:pharmacy","lat":-29.6637933,"lng":-51.195804},{"id":"10076140406","tags":"shop:supermarket","lat":-29.6666386,"lng":-51.169482}]