[{"id":"5259988712","tags":"natural:cliff,tourism:attraction","lat":-29.5735426,"lng":-50.7628531},{"id":"5419097454","tags":"amenity:bank,brand:Santander,operator:Santander","lat":-29.5711289,"lng":-50.7924154},{"id":"5419097455","tags":"amenity:bank,brand:Caixa Econômica Federal,operator:Caixa Econômica Federal","lat":-29.5703708,"lng":-50.7926461},{"id":"5419097456","tags":"amenity:post_office,operator:Correios","lat":-29.5732331,"lng":-50.7928044},{"id":"5419097458","name":"Banco do Brasil","tags":"amenity:bank,brand:Banco do Brasil,operator:Banco do Brasil","lat":-29.5747728,"lng":-50.7929865},{"id":"5419097459","name":"Estação Rodoviária de Igrejinha","tags":"DER:RS:categoria_rodoviaria:quarta,DER:RS:zona_de_fiscalizacao:15,addr:housenumber:132,addr:postcode:95650-000,addr:street:Rua República,addr:suburb:Centro,amenity:bus_station,bus:yes,contact:email:rodovigrejinha@tca.com.br,contact:phone:+55 51 3545-1105;+55 51 3545-1898,network:BR:RS,official_name:Igrejinha,operator:Estação Rodoviária de Igrejinha Ltda,public_transport:station,ref:vatin:BR91653055000156","lat":-29.5751075,"lng":-50.7932992},{"id":"5914347247","name":"Dia","tags":"brand:Dia,brand:wikidata:Q925132,brand:wikipedia:es:Supermercados DIA,shop:supermarket","lat":-29.571508,"lng":-50.7910531},{"id":"5914413201","name":"Instituto Estadual de Educação Olivia Lahm Hirt","tags":"amenity:school","lat":-29.5707502,"lng":-50.791782},{"id":"5914413202","name":"Supper Rissul","tags":"shop:supermarket","lat":-29.5700344,"lng":-50.7908512},{"id":"5914574724","name":"Escola Cenecista de Ensino Médio 1º de Junho","tags":"amenity:school","lat":-29.5691876,"lng":-50.7921302},{"id":"5914713868","name":"Escola Fundamental Luterana Redentor","tags":"amenity:school","lat":-29.5701996,"lng":-50.8003124},{"id":"5914843675","name":"Super Beck","tags":"shop:supermarket","lat":-29.5735339,"lng":-50.800121},{"id":"5914866467","name":"TodoDia","tags":"shop:supermarket","lat":-29.5738202,"lng":-50.7909017},{"id":"5914871111","name":"Escola Criança Feliz","tags":"amenity:school","lat":-29.5748501,"lng":-50.7939125},{"id":"5914418330","name":"Pórtico de Igrejinha","tags":"operator:Prefeitura Municipal de Igrejinha,tourism:attraction","lat":-29.5722543,"lng":-50.7871809}]