[{"id":"5259765899","tags":"amenity:atm","lat":-29.5812717,"lng":-50.928131},{"id":"5656988161","name":"Rodoviária de Nova Hartz","tags":"DER:RS:categoria_rodoviaria:quarta,DER:RS:zona_de_fiscalizacao:02,addr:housenumber:176,addr:postcode:93890-000,addr:street:Rua Tamoio,addr:suburb:Centro,amenity:bus_station,bus:yes,contact:email:lizziviagens@hotmail.com,contact:phone:+55 51 3149-0900,network:BR:RS,official_name:Nova Hartz,operator:Eliziani dos Santos Barbieri ME,public_transport:station,ref:vatin:BR23086666/0001-00","lat":-29.5868627,"lng":-50.9014472},{"id":"5695787819","name":"CEIC Vila Nova","tags":"amenity:school","lat":-29.5768186,"lng":-50.9120393},{"id":"5695787959","name":"Comunidade Evangélica Luterana Emanuel","tags":"amenity:place_of_worship,building:church,religion:christian,wheelchair:limited","lat":-29.5853536,"lng":-50.9043843},{"id":"6364637863","name":"Banco do Brasil","tags":"amenity:bank,brand:Banco do Brasil,brand:wikidata:Q610817,brand:wikipedia:en:Banco do Brasil","lat":-29.5838308,"lng":-50.9025697},{"id":"6364637864","name":"Banrisul","tags":"amenity:bank,brand:Banrisul,brand:wikidata:Q4857098,brand:wikipedia:en:Banrisul","lat":-29.5844412,"lng":-50.9015714},{"id":"6364637865","name":"Sicredi","tags":"amenity:bank,brand:Sicredi,brand:wikidata:Q3483060,brand:wikipedia:pt:Sistema de Crédito Cooperativo","lat":-29.5836188,"lng":-50.9036332},{"id":"6364637866","name":"Caixa Econômica Federal","tags":"amenity:bank,brand:Caixa Econômica Federal,brand:wikidata:Q835283,brand:wikipedia:pt:Caixa Econômica Federal","lat":-29.5835234,"lng":-50.9028626},{"id":"6364773278","name":"River Center","tags":"leisure:sports_centre","lat":-29.5880295,"lng":-50.8923636},{"id":"8149015189","tags":"amenity:school","lat":-29.5864296,"lng":-50.897384},{"id":"8149015190","tags":"amenity:school","lat":-29.5933188,"lng":-50.9093168},{"id":"8587082984","tags":"amenity:school","lat":-29.6139568,"lng":-50.9298591},{"id":"8587085916","name":"EMEI Raio de Luz","tags":"addr:street:Avenida José Antônio de Oliveira Neto,amenity:school","lat":-29.6129012,"lng":-50.9278604},{"id":"8587088713","name":"Escola Estadual de Ensino Médio de Araricá","tags":"amenity:school","lat":-29.6136808,"lng":-50.9279911},{"id":"8587090017","name":"EMEF Prof. Martim Frederico Raschke","tags":"addr:street:Avenida José Antônio de Oliveira Neto,amenity:school","lat":-29.6132788,"lng":-50.927893},{"id":"8588129206","name":"EMEI Pequeno Príncipe","tags":"amenity:school","lat":-29.6140074,"lng":-50.9205465},{"id":"8588137091","name":"Centro Comercial Bela Vista","tags":"shop:mall","lat":-29.6143129,"lng":-50.9275581}]