[{"id":"1513036916","name":"Mercado Tibola","tags":"shop:supermarket","lat":-28.2683728,"lng":-52.4597927},{"id":"2576933858","name":"Mercado Parobe","tags":"shop:supermarket","lat":-28.286019,"lng":-52.4365834},{"id":"2777301033","name":"Mercado Rodriguez","tags":"shop:convenience","lat":-28.2816602,"lng":-52.440974},{"id":"5844824914","name":"Museu do Automobilismo Brasileiro","tags":"tourism:museum,wikidata:Q10333876","lat":-28.2665274,"lng":-52.431804},{"id":"7026526785","name":"Restaurante Mangiare","tags":"amenity:restaurant,internet_access:wlan,name:en:Mangiare Restaurant","lat":-28.2759392,"lng":-52.4486057},{"id":"10032218207","name":"EMEI Ari Schaeffer","tags":"amenity:school","lat":-28.2589682,"lng":-52.455102}]