[{"id":"2402980568","name":"Banrisul","tags":"amenity:bank,atm:yes","lat":-29.4002677,"lng":-51.9456228},{"id":"2402980569","name":"Correios","tags":"amenity:post_office","lat":-29.402476,"lng":-51.9440395},{"id":"2402980571","name":"Sicredi","tags":"amenity:bank,atm:yes","lat":-29.4018027,"lng":-51.9439231},{"id":"2402980572","name":"Supermercado Languiru","tags":"addr:street:Rua Doutor João Carlos Machado,atm:yes,shop:supermarket","lat":-29.3995184,"lng":-51.9464501},{"id":"2402980577","name":"Colégio Bom Jesus","tags":"amenity:school","lat":-29.4015932,"lng":-51.9475515},{"id":"2402980578","name":"Banco do Brasil","tags":"amenity:bank,atm:yes","lat":-29.4034107,"lng":-51.9440207},{"id":"2402980579","name":"Hospital São José","tags":"amenity:hospital","lat":-29.4025649,"lng":-51.9464822},{"id":"2402981987","name":"Escola Estadual Guararapes","tags":"amenity:school","lat":-29.4000735,"lng":-51.9469999},{"id":"2837745708","name":"Mercado Bom Gosto","tags":"addr:street:ERS-130,opening_hours:Mo-Sa 07:30-19:00; Su 07:30-11:00,phone:+55 51 3716-5013,shop:supermarket","lat":-29.411262,"lng":-51.9613225},{"id":"2837745709","tags":"amenity:restaurant","lat":-29.4113399,"lng":-51.9613832},{"id":"4293722063","tags":"amenity:place_of_worship,building:church,denomination:pentecostal,religion:christian","lat":-29.3997763,"lng":-51.9446262},{"id":"4293747893","name":"Bradesco","tags":"amenity:bank,atm:yes","lat":-29.4006533,"lng":-51.9470086},{"id":"4293747896","name":"Farmácia Drogativa","tags":"amenity:pharmacy","lat":-29.404607,"lng":-51.94372},{"id":"4293747897","name":"Farmácia Francibel","tags":"amenity:pharmacy","lat":-29.3999611,"lng":-51.9459614},{"id":"4293747898","name":"Farmácia Agafarma","tags":"addr:postcode:95940-000,addr:street:Rua Júlio de Castilhos,amenity:pharmacy","lat":-29.4022168,"lng":-51.9464339},{"id":"4293747899","name":"Farmácia Noite e Dia","tags":"amenity:pharmacy","lat":-29.4005128,"lng":-51.9453522},{"id":"4293747900","name":"Farmácia Petternina","tags":"amenity:pharmacy","lat":-29.3996499,"lng":-51.9466477},{"id":"4293747903","name":"Mercado Airton","tags":"opening_hours:Mo-Sa 08:00-12:00, 14:00-22:00; Su 08:00-12:00, 15:00-22:00,phone:+55 51 3716-1285,shop:supermarket","lat":-29.4001547,"lng":-51.947595},{"id":"4293747904","name":"Mercado Redefort","tags":"shop:supermarket","lat":-29.4035749,"lng":-51.9437241},{"id":"4293747909","name":"Kadernus","tags":"shop:books","lat":-29.4021248,"lng":-51.9435912},{"id":"4293770359","name":"Polícia Civil","tags":"amenity:police","lat":-29.40033,"lng":-51.9475408},{"id":"4297203588","name":"Igreja Matriz","tags":"amenity:place_of_worship,building:church,denomination:lutheran,religion:christian","lat":-29.4016346,"lng":-51.9451067},{"id":"4299301913","name":"Museu Público Municipal de Arroio do Meio","tags":"tourism:museum","lat":-29.4022492,"lng":-51.9452338},{"id":"4688735565","name":"Restaurante do Baldo","tags":"amenity:restaurant","lat":-29.4007834,"lng":-51.9468689},{"id":"4745788515","name":"EMEF Campestre","tags":"addr:city:Lajeado,addr:housenumber:488,addr:postcode:95900-000,addr:street:Rua Paul Harris,addr:suburb:Campestre,amenity:school,internet_access:yes,level:1","lat":-29.438364,"lng":-51.9751212},{"id":"4839265223","name":"Ki-Ponto Lanches","tags":"addr:postcode:95940-000,addr:street:Rua Visconde do Rio Branco,amenity:restaurant,cuisine:burger,internet_access:wlan,phone:+55 51 3716-2775","lat":-29.4031483,"lng":-51.9442821},{"id":"4896147321","name":"Restaurante e Lancheria do Vale","tags":"addr:postcode:95940-000,addr:street:Rua José Wunibaldo Thomas,amenity:restaurant,cuisine:brazilian,internet_access:wlan,phone:+55 51 99575-6771","lat":-29.4043077,"lng":-51.958758},{"id":"4917872021","tags":"amenity:bar","lat":-29.4373701,"lng":-51.9718594},{"id":"7340906274","name":"Amor Animal Pet Shop","tags":"addr:city:Lajeado,addr:housenumber:165,addr:street:Rua João Goulart,addr:suburb:Campestre,phone:+55 51 3748-0842,shop:pet,website:https://www.facebook.com/amoranimalpetshoplajeado/","lat":-29.4373247,"lng":-51.971591},{"id":"7346147376","name":"Mercado e Açougue JL","tags":"addr:city:Arroio do Meio,addr:housenumber:842,addr:postcode:95900-000,addr:street:Rua Afonso Schneider,addr:suburb:Barra do Forqueta,phone:+55 51 99953-8317,shop:supermarket","lat":-29.4076931,"lng":-51.9662954},{"id":"7863183185","name":"Márcia Souza Espaço da Beleza","tags":"addr:housenumber:686,addr:postcode:95940-000,addr:street:Rua São Cristóvão,name:pt:Márcia Souza Espaço da Beleza,phone:+5551998404215,shop:beauty","lat":-29.4080162,"lng":-51.9672025}]