[{"id":"1218651063","name":"Banco do Brasil","tags":"amenity:bank,atm:yes,operator:Banco do Brasil","lat":-29.4676066,"lng":-51.8097841},{"id":"1218659711","name":"Supermercado Languiru","tags":"amenity:parking","lat":-29.4680966,"lng":-51.8114961},{"id":"1218659890","name":"Estacionamento da cooperativa Languiru","tags":"access:public,amenity:parking","lat":-29.4680686,"lng":-51.8098116},{"id":"1491754672","name":"Theutos","tags":"amenity:restaurant","lat":-29.4486498,"lng":-51.8071501},{"id":"1491755686","name":"Super Zart","tags":"shop:convenience","lat":-29.4482156,"lng":-51.8035712},{"id":"1491766168","name":"Restaurante Paladar","tags":"amenity:restaurant","lat":-29.4707194,"lng":-51.8085931},{"id":"1656305200","name":"Restaurante União","tags":"amenity:restaurant,website:http://www.hruniao.com.br","lat":-29.4684738,"lng":-51.8085343},{"id":"1678188543","tags":"leisure:sports_centre,sport:soccer","lat":-29.4471598,"lng":-51.8020967},{"id":"2147926587","name":"Supermercado Gottardi","tags":"shop:convenience","lat":-29.4467651,"lng":-51.8111592},{"id":"2147941989","name":"Durayski Gourmet","tags":"amenity:restaurant","lat":-29.4483767,"lng":-51.805253},{"id":"2147941991","name":"Posto da Dani","tags":"amenity:cafe,cuisine:coffee_shop","lat":-29.4696618,"lng":-51.8113082},{"id":"2167564443","name":"Caixa Econômica Federal","tags":"amenity:bank,atm:yes","lat":-29.4709161,"lng":-51.8085788},{"id":"2167564938","name":"Correio","tags":"amenity:post_office,operator:ECT","lat":-29.4725507,"lng":-51.8083265},{"id":"2387686696","name":"Farmácia Languiru","tags":"amenity:pharmacy","lat":-29.468513,"lng":-51.809483},{"id":"2468042916","name":"Banco Banrisul","tags":"amenity:bank","lat":-29.4489717,"lng":-51.8059486},{"id":"2592701297","tags":"amenity:parking","lat":-29.4687601,"lng":-51.8103035}]