[{"id":"1491754671","name":"Rodoviária de Canabarro","tags":"amenity:bus_station,bus:yes,local_ref:Rodoviária de Canabarro,public_transport:station","lat":-29.5093967,"lng":-51.8075734},{"id":"2387688289","name":"Farmácia 24hrs Canabarro","tags":"amenity:pharmacy,healthcare:pharmacy","lat":-29.505159,"lng":-51.8068285},{"id":"2387692321","name":"Escola Reinaldo Afonso Augustin","tags":"amenity:school","lat":-29.512991,"lng":-51.807968},{"id":"2387692328","name":"Esporte Clube Canabarrense","tags":"leisure:stadium","lat":-29.504263,"lng":-51.808983},{"id":"2387692331","name":"Colégio Cenecista","tags":"amenity:school","lat":-29.50452,"lng":-51.807587},{"id":"2387694811","name":"Mercado Bauer","tags":"shop:supermarket","lat":-29.5023822,"lng":-51.8059848},{"id":"2435511049","name":"Restaurante Matinho","tags":"amenity:restaurant","lat":-29.4927955,"lng":-51.8069549},{"id":"2437413217","tags":"amenity:bar","lat":-29.5074671,"lng":-51.8071985}]