[{"id":"2635533848","name":"Restaurante Bell Piatto","tags":"amenity:restaurant","lat":-29.1888866,"lng":-51.5058706},{"id":"2715415822","name":"Lavagem e Borracharia Santo Antão","tags":"amenity:car_wash,shop:car_repair","lat":-29.1916839,"lng":-51.5117126},{"id":"5332271318","name":"AABB","tags":"addr:suburb:verona,brand:AABB,brand:wikidata:Q9633503,leisure:sports_centre,name:en:Banco do Brasil Athletic Association,name:pt:Associação Atlética Banco do Brasil,short_name:AABB","lat":-29.1891165,"lng":-51.5182282},{"id":"6259902623","name":"Ristorante Del Filippi","tags":"amenity:restaurant,website:https://www.facebook.com/restaurantedellfilippi","lat":-29.2066355,"lng":-51.5170111},{"id":"6260023628","name":"Casa Amarela Eventos","tags":"amenity:restaurant","lat":-29.205394,"lng":-51.5308916},{"id":"6260031463","name":"Clube Botafogo - Sede Campestre","tags":"leisure:sports_centre","lat":-29.2098885,"lng":-51.531827},{"id":"6456300215","name":"Dona Carolina","tags":"amenity:restaurant","lat":-29.2113729,"lng":-51.5175932},{"id":"6456300217","name":"Casa DiPaolo","tags":"amenity:restaurant","lat":-29.2118269,"lng":-51.5176109},{"id":"8917857812","name":"Casa Rigo","tags":"amenity:restaurant","lat":-29.1797926,"lng":-51.5118032}]