[{"id":"6715570764","name":"Alice Girardi Academia","tags":"addr:city:Cotiporã,addr:housenumber:143,addr:postcode:95335-000,addr:street:Rua Andrea Argenta,addr:suburb:Centro,leisure:fitness_centre,sport:Musculação;fitness","lat":-28.9963567,"lng":-51.6983849},{"id":"6715754953","name":"Atlética Fitness","tags":"addr:city:Cotiporã,addr:housenumber:740,addr:postcode:95335-000,addr:street:Avenida Independência,addr:suburb:Centro,leisure:fitness_centre,sport:Musculação;Ginástica;aeróbica","lat":-28.9944644,"lng":-51.6990676},{"id":"6716142381","name":"Banrisul","tags":"addr:city:Cotiporã,addr:housenumber:46,addr:postcode:95335-000,addr:street:Praça Maurício Cardoso,addr:suburb:Centro,amenity:bank,brand:Banrisul,brand:wikidata:Q4857098,brand:wikipedia:en:Banrisul,operator:Banco do Estado do RS","lat":-28.9950967,"lng":-51.696942},{"id":"6716160151","name":"Bar e Restaurante do Clube Juvenil","tags":"addr:city:Cotiporã,addr:housenumber:127,addr:postcode:95335-000,addr:street:Avenida Independência,addr:suburb:Centro,amenity:restaurant,cuisine:Almoços;Jantares","lat":-28.9933858,"lng":-51.6964054},{"id":"6716284218","name":"Catia Pancotto","tags":"addr:city:Cotiporã,addr:housenumber:215,addr:postcode:95335-000,addr:street:Rua João Zardo,addr:suburb:Centro,beauty:nails,shop:beauty","lat":-28.996132,"lng":-51.6990162},{"id":"6716409732","name":"Farmácia N Sra da Saúde","tags":"addr:city:Cotiporã,addr:housenumber:120 Sala 01,addr:postcode:95335-000,addr:street:Praça Maurício Cardoso,addr:suburb:Centro,amenity:pharmacy,dispensing:yes,healthcare:pharmacy,operator:Cleber e Gabriel","lat":-28.9959631,"lng":-51.6967767},{"id":"6716465574","name":"Agropecuária Santa Clara","tags":"addr:city:Cotiporã,addr:housenumber:125,addr:postcode:95335-000,addr:street:R 10 de Novembro,addr:suburb:Centro,operator:Cooperativa Santa Clara,shop:supermarket","lat":-28.9948325,"lng":-51.6946647},{"id":"6716479270","name":"Conexão Vida Personal","tags":"addr:city:Cotiporã,addr:housenumber:711,addr:postcode:95335-000,addr:street:Rua Souza Lobo,addr:suburb:Centro,leisure:fitness_centre,sport:yoga","lat":-28.9932968,"lng":-51.6974104},{"id":"6716513476","name":"Sicredi","tags":"addr:city:Cotiporã,addr:housenumber:20,addr:postcode:95335-000,addr:street:Praça Maurício Cardoso,addr:suburb:Centro,amenity:bank,brand:Sicredi,brand:wikidata:Q3483060,brand:wikipedia:pt:Sistema de Crédito Cooperativo,operator:Cooperativa de Crédito","lat":-28.9947373,"lng":-51.6969463},{"id":"6716515145","name":"Santa Clara","tags":"addr:city:Cotiporã,addr:housenumber:115,addr:postcode:95335-000,addr:street:Rua 10 de Novembro,addr:suburb:Centro,operator:Cooperativa Santa Clara,shop:supermarket","lat":-28.9950992,"lng":-51.6946241},{"id":"6716537331","name":"Depósito de Agrotóxicos","tags":"addr:city:Cotiporã,addr:housenumber:1186,addr:postcode:95335-000,addr:street:Linha Independência,addr:suburb:Interior,operator:Cooperativa Santa Clara,shop:supermarket","lat":-28.995597,"lng":-51.712069},{"id":"6723522502","name":"Darlei N Machado","tags":"addr:city:Cotiporã,addr:housenumber:81,addr:street:Rua Pedro Breda,addr:suburb:Centro,amenity:car_wash","lat":-28.9894961,"lng":-51.696046},{"id":"6723664920","name":"Drogaria La Flores","tags":"addr:city:Cotiporã,addr:housenumber:478 Sala 01,addr:postcode:95335-000,addr:street:Avenida Independência,addr:suburb:Centro,amenity:pharmacy,dispensing:yes,healthcare:pharmacy","lat":-28.9945701,"lng":-51.696292},{"id":"6723799387","name":"Eliete Rangel Sachini","tags":"addr:city:Cotiporã,addr:housenumber:sn,addr:postcode:95335-000,addr:street:Linha Brasil,addr:suburb:Interior,beauty:nails,operator:Eliete R R Sachini,shop:beauty","lat":-29.0027707,"lng":-51.7018052},{"id":"6724534717","name":"Correios","tags":"addr:city:Cotiporã,addr:housenumber:111 Sala 01,addr:postcode:95335-000,addr:street:Rua Silveira Martins,addr:suburb:Centro,amenity:post_office,brand:Correios,brand:wikidata:Q3375004,brand:wikipedia:en:Correios","lat":-28.9939215,"lng":-51.6962895},{"id":"6724541548","name":"Eloísa Giacomelli","tags":"addr:city:Cotiporã,addr:housenumber:16,addr:postcode:95335-000,addr:street:Rua 10 de Novembro,addr:suburb:Centro,shop:beauty","lat":-28.9953253,"lng":-51.6957852},{"id":"6724933309","name":"Monte Vêneto","tags":"addr:city:Cotiporã,addr:housenumber:544,addr:postcode:95335-000,addr:street:Avenida Independência,addr:suburb:Centro,operator:Supermercado Monte Vêneto,shop:supermarket","lat":-28.9945132,"lng":-51.6968905},{"id":"6732111171","name":"Livraria Central","tags":"addr:city:Cotiporã,addr:housenumber:62,addr:postcode:95335-000,addr:street:Rua 10 de Novembro,addr:suburb:Centro,operator:Orfeu Merlo,shop:books","lat":-28.9953342,"lng":-51.6953512},{"id":"6732520336","name":"Marcelo de Brito","tags":"addr:city:Cotiporã,addr:housenumber:291 Sala 05,addr:postcode:95335-000,addr:street:Rua Silveira Martins,addr:suburb:Centro,amenity:car_wash","lat":-28.9920706,"lng":-51.6966933},{"id":"6732663505","name":"Bar das Manas","tags":"addr:city:Cotiporã,addr:housenumber:105,addr:postcode:95335-000,addr:street:Rua Marcílio Dias,addr:suburb:Centro,amenity:restaurant","lat":-28.9957721,"lng":-51.6978889},{"id":"6734984957","name":"Minimercado Zanette","tags":"addr:city:Cotiporã,addr:postcode:95335-000,addr:street:Avenida Independência,addr:suburb:Centro,shop:supermarket","lat":-28.9947996,"lng":-51.7013023},{"id":"6735229786","name":"Cantina Di Vêneto","tags":"addr:city:Cotiporã,addr:housenumber:20,addr:postcode:95335-000,addr:street:Rua 1º de Maio,addr:suburb:Centro,amenity:restaurant","lat":-28.9962591,"lng":-51.6971017},{"id":"6735291544","name":"Rosemeri M Lazarini","tags":"addr:city:Cotiporã,addr:housenumber:291 Sala 04,addr:postcode:95335-000,addr:street:Rua Silveira Martins,addr:suburb:Centro,amenity:car_wash,operator:Vendedor","lat":-28.9921154,"lng":-51.6967169},{"id":"6735336779","name":"Silvane Zanella Marcon","tags":"addr:city:Cotiporã,addr:housenumber:16,addr:postcode:95335-000,addr:street:Praça Guido Duvina,addr:suburb:Centro,amenity:school,operator:Professora Particular","lat":-28.9979799,"lng":-51.6961933},{"id":"6735345868","name":"Supermercado Pôr-do-Sol","tags":"addr:city:Cotiporã,addr:housenumber:59,addr:postcode:95335-000,addr:street:Rua José Della Pasqua,addr:suburb:Centro,operator:Tereza Scussel,shop:supermarket","lat":-28.9940242,"lng":-51.6974664},{"id":"6823841796","name":"Bar e Restaurante do Clube Juvenil","tags":"addr:city:Cotiporã,addr:postcode:95335-000,addr:street:Avenida Independência,addr:suburb:Centro,amenity:restaurant","lat":-28.9945205,"lng":-51.6953803}]