[{"id":"1325405140","name":"Mascaron Restaurante","tags":"amenity:restaurant","lat":-28.8625427,"lng":-51.5525962},{"id":"6004913637","name":"Clube Gaúcho","tags":"leisure:sports_centre","lat":-28.8658428,"lng":-51.5507148},{"id":"6004913639","name":"Colégio Estadual Dosolina Boff","tags":"amenity:school","lat":-28.8607168,"lng":-51.5517553},{"id":"6004913640","name":"Villa do Pão","tags":"tourism:attraction","lat":-28.8614309,"lng":-51.5509989},{"id":"6004913641","name":"Escola Municipal Doze de Maio","tags":"amenity:school","lat":-28.8593167,"lng":-51.5535578}]