[{"id":"4403534589","name":"Memorial Padre Theodor Amstad","tags":"addr:street:Rua Antônio Schoeler,tourism:museum","lat":-29.3600623,"lng":-51.0495885},{"id":"4779765397","name":"Pista Aeromodelismo","tags":"sport:model_aerodrome,tourism:attraction","lat":-29.366857,"lng":-51.0223278},{"id":"4779765690","name":"Armazém Rosa Mosqueta","tags":"shop:beauty","lat":-29.3600378,"lng":-51.0474824},{"id":"4988659685","name":"Jardim Mais Alto da Serra Gaúcha","tags":"tourism:attraction","lat":-29.3732502,"lng":-51.0288153},{"id":"4988659705","name":"Museu Capela Menino Jesus de Praga","tags":"tourism:museum","lat":-29.3729523,"lng":-51.0287501},{"id":"5927183329","name":"Escola Estadual Ensino Fundamental Padre Amstad","tags":"amenity:school","lat":-29.3596417,"lng":-51.0494544}]