[{"id":"1614840488","name":"Ecoparque Sperry - Parque da Bergamota","tags":"addr:city:Gramado,tourism:attraction","lat":-29.3956578,"lng":-50.8339937},{"id":"1998475547","name":"Correios","tags":"amenity:post_office,brand:Correios,brand:wikidata:Q3375004,brand:wikipedia:en:Correios","lat":-29.3594992,"lng":-50.8113682},{"id":"2900215440","name":"Toca da Bruxa","tags":"addr:city:Canela,addr:housenumber:25,addr:street:Praça Matriz,amenity:restaurant,cuisine:pizza,website:http://www.tocadabruxa.com.br/","lat":-29.3632757,"lng":-50.809472},{"id":"3167710905","name":"Olímpia Restaurante","tags":"amenity:restaurant","lat":-29.3624211,"lng":-50.8186218},{"id":"3167710912","name":"Skillo Lanches","tags":"amenity:restaurant","lat":-29.3638614,"lng":-50.8130125},{"id":"3170959226","name":"Bom Gosto Restaurante","tags":"amenity:restaurant","lat":-29.3616413,"lng":-50.8117669},{"id":"3170959227","name":"Brigada Militar","tags":"amenity:police","lat":-29.3617824,"lng":-50.8154363},{"id":"3170959229","name":"Caixa","tags":"amenity:atm,operator:Caixa","lat":-29.3625884,"lng":-50.8180329},{"id":"3170959230","name":"Caixa Econômica Federal","tags":"amenity:bank,atm:yes,brand:Caixa Econômica Federal,brand:wikidata:Q835283,brand:wikipedia:pt:Caixa Econômica Federal","lat":-29.3639484,"lng":-50.8110718},{"id":"3170959233","name":"Piazza Pizzaria Choperia","tags":"amenity:restaurant,cuisine:pizza","lat":-29.3625572,"lng":-50.8192659},{"id":"3170959238","name":"Santander","tags":"amenity:bank,atm:yes,brand:Santander,brand:wikidata:Q5835668,brand:wikipedia:en:Santander Bank","lat":-29.3615765,"lng":-50.8129563},{"id":"3170959240","name":"Tempero Caseiro Restaurante","tags":"amenity:restaurant","lat":-29.363821,"lng":-50.813404},{"id":"3170959243","name":"Xizao Lanches","tags":"amenity:restaurant","lat":-29.3574815,"lng":-50.8092116},{"id":"3173675746","name":"La em Casa Restaurante","tags":"amenity:restaurant","lat":-29.3645819,"lng":-50.8238191},{"id":"3182307965","name":"Supermercado do Povo","tags":"shop:supermarket","lat":-29.3708785,"lng":-50.8382495},{"id":"3744618181","name":"Maria Fumaça","tags":"tourism:attraction","lat":-29.3639994,"lng":-50.8140343},{"id":"3744929761","name":"Multimercados Serrano","tags":"shop:supermarket","lat":-29.3591881,"lng":-50.8131519},{"id":"3744930004","name":"Magnólia Cine Gastrô Bar","tags":"addr:city:Canela,addr:housenumber:255,addr:street:Rua Dona Carlinda,addr:suburb:Centro,amenity:restaurant,internet_access:yes,phone:+55 54 3278-0102,website:https://www.magnoliacanela.com.br/","lat":-29.3605934,"lng":-50.8110022},{"id":"5322911023","tags":"amenity:restaurant,cuisine:italian_pizza,name:en:The petit","lat":-29.3627638,"lng":-50.8183081},{"id":"5325739885","name":"Raffa's","tags":"amenity:restaurant,cuisine:brazilian","lat":-29.3632996,"lng":-50.8175645},{"id":"5425120186","name":"Bradesco","tags":"amenity:bank,atm:yes,brand:Bradesco,brand:wikidata:Q806181,brand:wikipedia:en:Banco Bradesco","lat":-29.3624964,"lng":-50.8125674},{"id":"5709707120","name":"Pórtico de Canela","tags":"tourism:attraction","lat":-29.3599817,"lng":-50.8432179},{"id":"5743626285","name":"Castelli Escola Superior de Hotelaria","tags":"amenity:university,website:https://www.castelli.edu.br/","lat":-29.3608168,"lng":-50.823205},{"id":"5764210355","name":"Restaurante Serra Grill","tags":"amenity:restaurant","lat":-29.3633804,"lng":-50.8171901},{"id":"5910577571","name":"Esporte Clube Serrano","tags":"leisure:sports_centre","lat":-29.3585966,"lng":-50.8145869},{"id":"5911678640","name":"Itaú","tags":"amenity:bank,brand:Itaú Unibanco,brand:wikidata:Q1424293,brand:wikipedia:pt:Itaú Unibanco","lat":-29.3616269,"lng":-50.8114731},{"id":"5911689175","name":"São João","tags":"amenity:pharmacy,brand:São João,brand:wikidata:Q62663306,dispensing:yes,healthcare:pharmacy","lat":-29.3610047,"lng":-50.8124122},{"id":"5912423003","name":"Super Gulla","tags":"amenity:restaurant","lat":-29.363691,"lng":-50.8043584},{"id":"5912423004","name":"Mini Mercado Silva Jardim","tags":"shop:supermarket","lat":-29.3636723,"lng":-50.8040446},{"id":"5912515413","tags":"amenity:atm,operator:Banco24horas","lat":-29.3630967,"lng":-50.8153428},{"id":"5912541784","name":"Ristorante Dile Valduga","tags":"amenity:restaurant","lat":-29.3633547,"lng":-50.8101174},{"id":"5913704382","name":"Dia","tags":"brand:Dia,brand:wikidata:Q925132,brand:wikipedia:es:Supermercados DIA,shop:supermarket","lat":-29.3565543,"lng":-50.8052334},{"id":"5927563715","name":"Agafarma","tags":"amenity:pharmacy,dispensing:yes,healthcare:pharmacy","lat":-29.3638976,"lng":-50.8126365},{"id":"6437381838","name":"Containner Bistrot","tags":"amenity:restaurant,cuisine:burger;coffee_shop;asian;thai;international,outdoor_seating:yes","lat":-29.3628859,"lng":-50.8101578},{"id":"6437381844","name":"São João","tags":"amenity:pharmacy,dispensing:yes,healthcare:pharmacy","lat":-29.3638941,"lng":-50.8118374},{"id":"6437702048","name":"Restaurante Galangal","tags":"amenity:restaurant,cuisine:japanese;indian;asian;thai;sushi;chinese,outdoor_seating:no","lat":-29.3630846,"lng":-50.8174072},{"id":"6830548846","name":"Escola Estadual de Ensino Fundamental Pedro Oscar Selbach","tags":"amenity:school","lat":-29.3645559,"lng":-50.8273618},{"id":"6830548847","name":"Escola Municipal de Educação Infantil Serafina Seibt","tags":"amenity:school","lat":-29.3654206,"lng":-50.8295987},{"id":"7017982345","name":"Super da Vizinhança Redefort","tags":"shop:supermarket","lat":-29.3581137,"lng":-50.8131528},{"id":"7017999412","name":"Maxxi Econômica","tags":"amenity:pharmacy,dispensing:yes,healthcare:pharmacy","lat":-29.3618815,"lng":-50.8129516},{"id":"7018035748","name":"Academia Fitwell","tags":"leisure:fitness_centre","lat":-29.3588224,"lng":-50.8158901},{"id":"7018068960","name":"EMEF Santa Terezinha","tags":"amenity:school","lat":-29.3724597,"lng":-50.8093618},{"id":"9008910315","name":"Agafarma","tags":"amenity:pharmacy,brand:Agafarma,brand:wikidata:Q93735939,dispensing:yes,healthcare:pharmacy","lat":-29.3632438,"lng":-50.8159016},{"id":"9030103717","name":"Braziliano canela","tags":"addr:housenumber:664,addr:street:Rua Dona Carlinda,amenity:cafe","lat":-29.3642844,"lng":-50.8114626},{"id":"9044000101","name":"Toca da Bruxa","tags":"amenity:restaurant,cuisine:pizza","lat":-29.3636096,"lng":-50.8071194},{"id":"9685710017","name":"Sabor de Casa","tags":"amenity:restaurant","lat":-29.3564175,"lng":-50.803977}]