[{"id":"2705213847","tags":"amenity:restaurant","lat":-29.1462128,"lng":-51.1982046},{"id":"2705213854","tags":"amenity:restaurant","lat":-29.1464572,"lng":-51.198198},{"id":"4977494465","name":"Banrisul","tags":"amenity:bank,atm:yes,brand:Banrisul,brand:wikidata:Q4857098,brand:wikipedia:en:Banrisul","lat":-29.1795457,"lng":-51.2165322},{"id":"4977499078","name":"Banco do Brasil","tags":"amenity:bank,brand:Banco do Brasil,brand:wikidata:Q610817,brand:wikipedia:en:Banco do Brasil","lat":-29.176932,"lng":-51.2164154},{"id":"4977500404","name":"Caixa Econômica Federal","tags":"amenity:bank,brand:Caixa Econômica Federal,brand:wikidata:Q835283,brand:wikipedia:pt:Caixa Econômica Federal","lat":-29.1780941,"lng":-51.2147856},{"id":"5238653289","name":"Taiyo Sushi Bar","tags":"amenity:restaurant","lat":-29.1552671,"lng":-51.1998715},{"id":"5415064647","name":"Andreazza","tags":"addr:street:Rua Ciro Luiz Pancera,shop:supermarket","lat":-29.1721663,"lng":-51.2332422},{"id":"5415064648","name":"Escola Municipal de Ensino Fundamental Érico Cavinato","tags":"addr:housenumber:687,addr:street:Rua Francisco Lorenzi,amenity:school,operator:Muncípio,operator:type:public","lat":-29.1708008,"lng":-51.2324148},{"id":"5417054715","name":"Mercado Multi Ouro Branco","tags":"addr:street:Rua Doutor Calixto Maximiliano Rasia,shop:supermarket","lat":-29.1678098,"lng":-51.2353428},{"id":"5417202669","name":"Escola Municipal de Ensino Fundamental Cidade Nova","tags":"amenity:school","lat":-29.164986,"lng":-51.23449},{"id":"5418445444","name":"S.E.R Gralha Azul","tags":"leisure:park","lat":-29.1653202,"lng":-51.2303351},{"id":"5418445446","name":"Disk Pizza","tags":"amenity:restaurant,cuisine:pizza","lat":-29.1719039,"lng":-51.2350006},{"id":"5535793838","name":"Mercado Continente","tags":"shop:supermarket","lat":-29.1752527,"lng":-51.2009487},{"id":"5712283869","name":"Sociedade Recreativa, Cultural e Esportiva AZ de Ouro","tags":"description:https://www.facebook.com/sociedadeazdeouro/,leisure:sports_centre,sport:bocha","lat":-29.1774796,"lng":-51.1969817},{"id":"5712308249","name":"Serra Shopping Caxias","tags":"shop:mall,website:http://www.serrashoppingcaxias.com.br/","lat":-29.174061,"lng":-51.2087294},{"id":"5736442685","name":"Associação Atlética Banco do Brasil (AABB)","tags":"brand:AABB,brand:wikidata:Q9633503,leisure:sports_centre,name:en:Banco do Brasil Athletic Association,name:pt:Associação Atlética Banco do Brasil,short_name:AABB","lat":-29.1717614,"lng":-51.2057363},{"id":"5749860975","name":"Correios Centro de Distribuição Domiciliar","tags":"amenity:post_office,operator:Correios,operator:wikidata:Q3375004,operator:wikipedia:en:Correios","lat":-29.1744921,"lng":-51.2272752},{"id":"5749868250","name":"Instituto de Menores Infratores (FASE)","tags":"amenity:school","lat":-29.1612276,"lng":-51.2258427},{"id":"5749888581","name":"Centro Municipal de Esporte e Lazer Joel Bastos de Souza","tags":"leisure:sports_centre","lat":-29.1574715,"lng":-51.2028696},{"id":"5750162641","name":"Clube Calhambeque - Sede Campestre","tags":"leisure:sports_centre,website:http://www.clubecalhambeque.com.br/","lat":-29.1589063,"lng":-51.2391554},{"id":"5752783377","name":"Bohrer Tennis Indoor","tags":"leisure:sports_centre","lat":-29.1549576,"lng":-51.1968772},{"id":"5752783378","name":"NatuSport Futebol Society","tags":"leisure:sports_centre","lat":-29.1554831,"lng":-51.1966739},{"id":"5752783664","name":"Panvel","tags":"amenity:pharmacy,brand:Panvel,brand:wikidata:Q10344254,brand:wikipedia:pt:Panvel,dispensing:yes,healthcare:pharmacy","lat":-29.1536213,"lng":-51.2000005},{"id":"5752783665","name":"São João","tags":"amenity:pharmacy,brand:São João,brand:wikidata:Q62663306,dispensing:yes,healthcare:pharmacy","lat":-29.1536155,"lng":-51.2009589},{"id":"5752790738","name":"EEEM Santa Catarina","tags":"amenity:school","lat":-29.1568109,"lng":-51.1969612},{"id":"5760629639","name":"Caminho do Saber","tags":"amenity:school","lat":-29.1784722,"lng":-51.2140836},{"id":"5760767576","name":"EEEF Eng. Dario Granja Sant Anna","tags":"amenity:school","lat":-29.1779088,"lng":-51.208231},{"id":"5760951956","name":"Atacadão","tags":"brand:Atacadão,brand:wikidata:Q2868739,brand:wikipedia:en:Atacadão,shop:supermarket,website:https://www.atacadao.com.br/","lat":-29.1791711,"lng":-51.2316992},{"id":"5762608358","name":"Rodapizza Giordani","tags":"amenity:restaurant,cuisine:pizza,website:http://www.giordani.com.br/","lat":-29.15,"lng":-51.2023019},{"id":"5765060809","name":"Caixa Econômica Federal","tags":"amenity:bank","lat":-29.1549644,"lng":-51.1993369},{"id":"5765060810","name":"Grêmio Esportivo Gianella","tags":"amenity:restaurant","lat":-29.1542259,"lng":-51.199963},{"id":"5782609275","name":"Nella Pietra Pizza","tags":"amenity:restaurant","lat":-29.1503484,"lng":-51.1964993},{"id":"5784803062","name":"Stok Center","tags":"shop:supermarket,website:www.stokcenter.com.br/","lat":-29.1775943,"lng":-51.2361847},{"id":"5895137230","name":"Escola Nivaldo Kercher","tags":"amenity:school","lat":-29.1704067,"lng":-51.2333416},{"id":"5895146184","name":"Escola Municipal de Ensino Fundamental Paulo Freire","tags":"amenity:school","lat":-29.1679809,"lng":-51.2250511},{"id":"5898842233","name":"Escola Municipal Ensino Fundamental Luiz Covolan","tags":"amenity:school","lat":-29.1605882,"lng":-51.2030816},{"id":"5915884930","name":"EEEM Maria Araci Trindade Rojas","tags":"amenity:school","lat":-29.154341,"lng":-51.211802},{"id":"5915899123","name":"Escola Infantil Comunitária Crescer e Aprender","tags":"amenity:school","lat":-29.1536102,"lng":-51.2119951},{"id":"6042177541","name":"Bistrô D Luka","tags":"amenity:restaurant","lat":-29.1503453,"lng":-51.1977908},{"id":"6080934969","name":"Monastério Pizzaria","tags":"amenity:restaurant","lat":-29.1504654,"lng":-51.1978796},{"id":"6110187649","name":"Escola Municipal Ensino Fundamental Machado de Assis","tags":"amenity:school","lat":-29.1614231,"lng":-51.223241},{"id":"6263667650","name":"Escola de Educação Infantil Tia Laura","tags":"amenity:school,website:https://www.facebook.com/pages/category/Day-Care/Escola-de-Educa%C3%A7%C3%A3o-Infantil-Tia-Laura-875864962451306/","lat":-29.1677232,"lng":-51.1980709},{"id":"6297324535","name":"Multi Mercados","tags":"shop:supermarket","lat":-29.1516963,"lng":-51.2005685},{"id":"6325391344","name":"Bio Center","tags":"addr:street:Rua Jacob Luchesi,leisure:fitness_centre,sport:swimming;gym","lat":-29.1529014,"lng":-51.2015341},{"id":"6485693785","name":"Cabanha's Churrascaria (FECHADO)","tags":"amenity:restaurant","lat":-29.1679209,"lng":-51.1963287},{"id":"6525063663","name":"Churrascaria RS","tags":"amenity:restaurant,cuisine:steak_house","lat":-29.1703685,"lng":-51.199611},{"id":"6558499422","name":"Andreazza","tags":"shop:supermarket","lat":-29.1406102,"lng":-51.1995866},{"id":"6567948074","name":"Café & Prosa","tags":"amenity:cafe","lat":-29.1793076,"lng":-51.2313691},{"id":"6574841188","name":"Forquetense","tags":"amenity:restaurant","lat":-29.1740735,"lng":-51.2086437},{"id":"6574906755","name":"Panvel","tags":"amenity:pharmacy,brand:Panvel,brand:wikidata:Q10344254,brand:wikipedia:pt:Panvel,dispensing:yes,healthcare:pharmacy,operator:Banco24Horas","lat":-29.1768185,"lng":-51.219072},{"id":"6574906756","name":"Itaú","tags":"amenity:bank,brand:Itaú Unibanco,brand:wikidata:Q1424293,brand:wikipedia:pt:Itaú Unibanco","lat":-29.176219,"lng":-51.2200698},{"id":"6577626177","name":"Cantina Dela Colina","tags":"amenity:restaurant,website:https://www.facebook.com/Cantina-Dela-Colina-192348860785515","lat":-29.1516832,"lng":-51.2035406},{"id":"6581003119","name":"EMEF Arnaldo Balvê","tags":"amenity:school","lat":-29.1521419,"lng":-51.2181317},{"id":"6581036294","name":"Restaurante Don Claudino","tags":"amenity:restaurant","lat":-29.1401422,"lng":-51.2020327},{"id":"6581036295","name":"Belgrano Pizzaria","tags":"amenity:restaurant,cuisine:pizza","lat":-29.1395997,"lng":-51.2004823},{"id":"6581047332","name":"Vida Farmácias","tags":"amenity:pharmacy,dispensing:yes,healthcare:pharmacy","lat":-29.1503471,"lng":-51.2007224},{"id":"6785953643","name":"Engenharia do Corpo","tags":"leisure:fitness_centre","lat":-29.1759654,"lng":-51.2143767},{"id":"6794203513","name":"Academia ao ar livre","tags":"leisure:fitness_centre","lat":-29.1780555,"lng":-51.1996164},{"id":"6857466185","name":"Saraiva","tags":"alt_name:Livraria Saraiva,brand:Saraiva,brand:wikidata:Q10319337,shop:books","lat":-29.1761,"lng":-51.2202271},{"id":"6857466186","name":"Banco24Horas","tags":"amenity:atm,brand:Banco24Horas,brand:wikidata:Q4854069,operator:Banco24horas","lat":-29.176838,"lng":-51.2203439},{"id":"6857466187","name":"Banco24Horas","tags":"amenity:atm,brand:Banco24Horas,brand:wikidata:Q4854069,operator:Banco24horas","lat":-29.1746872,"lng":-51.2139711},{"id":"6865050151","name":"Alameda Pizzeria","tags":"amenity:restaurant,cuisine:pizza,website:http://alamedapizzeria.com.br/","lat":-29.1545783,"lng":-51.1999641},{"id":"6984482300","name":"Petz","tags":"brand:Petz,brand:wikidata:Q28680851,shop:pet,website:https://www.petz.com.br/","lat":-29.1744388,"lng":-51.2083047},{"id":"6984482301","name":"Central de Rações","tags":"shop:pet","lat":-29.1736533,"lng":-51.2092352},{"id":"7001481615","name":"Novo Aroma","tags":"amenity:restaurant","lat":-29.1552655,"lng":-51.1988164},{"id":"7015165020","name":"Super QualiBem","tags":"shop:supermarket","lat":-29.153459,"lng":-51.2113248},{"id":"7172041059","name":"Puerto del Toro","tags":"amenity:restaurant","lat":-29.1772266,"lng":-51.2202379},{"id":"7263575704","name":"Nox Versus","tags":"amenity:nightclub","lat":-29.1766012,"lng":-51.2126133},{"id":"7320763536","name":"São João","tags":"amenity:pharmacy,brand:São João,brand:wikidata:Q62663306,dispensing:yes,healthcare:pharmacy","lat":-29.1562103,"lng":-51.1982522},{"id":"7447914790","name":"São João","tags":"amenity:pharmacy,brand:São João,brand:wikidata:Q62663306,dispensing:yes,healthcare:pharmacy","lat":-29.1778851,"lng":-51.2357597},{"id":"7574901971","name":"Villaggio Pizzaria e Restaurante","tags":"amenity:restaurant,cuisine:pizza,website:https://www.facebook.com/pizzasvillaggio/","lat":-29.179181,"lng":-51.2164607},{"id":"7613133101","name":"Supermercado Medianeira","tags":"shop:supermarket","lat":-29.17121,"lng":-51.1980196},{"id":"7681377638","name":"Mercado e Açougue Lucena","tags":"shop:supermarket","lat":-29.1628387,"lng":-51.2230748},{"id":"7733836275","name":"Casa do Queijo Sgorla","tags":"shop:convenience,website:https://pt-br.facebook.com/CasadoqueijoSgorla/","lat":-29.1790858,"lng":-51.1973382},{"id":"7733836276","name":"Giacomin Mini Mercado","tags":"shop:convenience","lat":-29.1772429,"lng":-51.1975951},{"id":"7818221289","name":"Boate Castelo","tags":"amenity:nightclub,website:http://boatecastelo.com/","lat":-29.150965,"lng":-51.2147773},{"id":"7974529506","name":"Supermercado Treviso","tags":"shop:supermarket","lat":-29.1662091,"lng":-51.1988891},{"id":"8164032676","name":"São João","tags":"amenity:pharmacy,brand:São João,brand:wikidata:Q62663306,dispensing:yes,healthcare:pharmacy","lat":-29.1728997,"lng":-51.2333658},{"id":"8164415871","name":"Farmácia do Trabalhador","tags":"amenity:pharmacy,dispensing:yes,healthcare:pharmacy","lat":-29.1721102,"lng":-51.2333806},{"id":"8180808331","name":"UERGS - Universidade Estadual do Rio Grande do Sul","tags":"amenity:university,website:https://www.uergs.edu.br/","lat":-29.1677444,"lng":-51.2021486},{"id":"8340263310","name":"Super Andreazza","tags":"shop:supermarket","lat":-29.153694,"lng":-51.2171641},{"id":"8340263311","name":"Multi Fernandes","tags":"shop:supermarket","lat":-29.1481546,"lng":-51.2240081},{"id":"8480215562","name":"Sacolão Dia & Noite","tags":"shop:supermarket,website:https://www.facebook.com/pg/Sacol%C3%A3o-dia-e-noite-santa-L%C3%BAcia-113082670442867/","lat":-29.1532665,"lng":-51.2176448},{"id":"8568767692","name":"Escola Estadual de Ensino Fundamental Silvio Dal Zotto","tags":"amenity:school","lat":-29.1602979,"lng":-51.2001965},{"id":"8613915601","name":"E.E.I. Ana Aurora do Amaral Lisboa","tags":"amenity:school","lat":-29.1749969,"lng":-51.204373},{"id":"8734814972","name":"Droga Raia","tags":"amenity:pharmacy,brand:Droga Raia,brand:wikidata:Q10357101,brand:wikipedia:pt:RaiaDrogasil,dispensing:yes,healthcare:pharmacy","lat":-29.1784648,"lng":-51.2163687},{"id":"8735005532","name":"São João","tags":"amenity:pharmacy,brand:São João,brand:wikidata:Q62663306,dispensing:yes,healthcare:pharmacy","lat":-29.1770112,"lng":-51.219246},{"id":"8884083912","name":"Garagym CT","tags":"addr:city:Caxias do sul,addr:housenumber:287,addr:postcode:95012370,addr:street:Rua dos Manacás,addr:suburb:Cinquentenário,leisure:fitness_centre,opening_hours:24/7,sport:fitness;soccer;basketball;skateboard;volleyball;multi;gymnastics;exercise,website:https://instagram.com/maggionitreinador","lat":-29.1707754,"lng":-51.2078953},{"id":"8884091478","name":"Garagym Centro de Treinamento","tags":"addr:city:Caxias do sul,addr:housenumber:287,addr:postcode:95012370,addr:street:Rua dos Manacás,addr:suburb:Cinquentenário,leisure:fitness_centre,opening_hours:24/7,sport:fitness;multi;soccer;gymnastics;swimming;baseball;basketball;athletics;running,website:https://instagram.com/maggionitreinador","lat":-29.170809,"lng":-51.2078383},{"id":"9068839992","name":"Mercado Cavion","tags":"shop:supermarket","lat":-29.1720081,"lng":-51.1996023},{"id":"9095829263","tags":"amenity:atm,operator:Saque e Pague","lat":-29.1776992,"lng":-51.2360674},{"id":"9095829264","name":"Banco24Horas","tags":"amenity:atm,brand:Banco24Horas,brand:wikidata:Q4854069,brand:wikipedia:pt:Banco24Horas,operator:Banco24Horas","lat":-29.1777318,"lng":-51.2363476},{"id":"9470226848","name":"Cafeteria Pão de Queijo","tags":"amenity:cafe,cuisine:coffee_shop","lat":-29.177357,"lng":-51.2182409},{"id":"9987089607","name":"Preço Popular","tags":"amenity:pharmacy,dispensing:yes,healthcare:pharmacy","lat":-29.1718978,"lng":-51.2334213},{"id":"9987136459","name":"Farmácia Sonda - Total Farma","tags":"amenity:pharmacy,dispensing:yes,healthcare:pharmacy","lat":-29.1710802,"lng":-51.2349782},{"id":"10292358332","name":"Cowe Cafés Especiais","tags":"amenity:cafe,cuisine:coffee_shop","lat":-29.1785809,"lng":-51.196905},{"id":"10734839840","name":"GaraGym-CT","tags":"addr:city:Caxias do sul,addr:housenumber:287,addr:postcode:95012370,addr:street:Rua dos Manacás,addr:suburb:Cinquentenário,leisure:fitness_centre,opening_hours:Mo-Su 10:00-21:00,website:https://instagram.com/maggionitreinador","lat":-29.1707631,"lng":-51.2079333},{"id":"10743239348","name":"Uniftec","tags":"amenity:university","lat":-29.1795263,"lng":-51.2157279}]