[{"id":"1587290987","name":"Pórtico de Ana Rech","tags":"tourism:attraction","lat":-29.1178098,"lng":-51.1147921},{"id":"5739791417","name":"Sede Campestre Mundial","tags":"leisure:sports_centre","lat":-29.1305783,"lng":-51.1244739},{"id":"5756042609","tags":"leisure:park","lat":-29.1127581,"lng":-51.1211843},{"id":"5774255023","name":"EMEF José Protázio Soares de Souza","tags":"amenity:school","lat":-29.1135299,"lng":-51.1246609},{"id":"6682380367","name":"EMEF Afonso Secco","tags":"amenity:school","lat":-29.0927114,"lng":-51.1116473},{"id":"6682418124","name":"EMEF Engº Dario Granja Sant'Anna","tags":"amenity:school","lat":-29.1046516,"lng":-51.1280462},{"id":"6823420668","name":"Supermercado Multi Safra Serrano","tags":"shop:supermarket","lat":-29.1118655,"lng":-51.1253747},{"id":"6990881512","name":"Escola Municipal de Ensino Fundamental Bento Gonçalves da Silva","tags":"amenity:school","lat":-29.1328338,"lng":-51.120356},{"id":"7078850304","name":"E.E.I. Geny Adélia Dalle Molle","tags":"amenity:school","lat":-29.1212083,"lng":-51.1174621},{"id":"7078850305","name":"E.M.E.F. Professora Marianinha de Queiroz","tags":"amenity:school","lat":-29.1205193,"lng":-51.1152342},{"id":"7100329553","name":"Xiclé Restaurante","tags":"amenity:restaurant","lat":-29.1180469,"lng":-51.1143034},{"id":"7512477819","name":"E.E.E.M Victorio Webber","tags":"amenity:school","lat":-29.1208346,"lng":-51.1338305},{"id":"7550133803","name":"EMEF Laurindo Luiz Formolo","tags":"amenity:school","lat":-29.1274398,"lng":-51.138167},{"id":"9598384884","name":"Farmácias Capilé","tags":"amenity:pharmacy,dispensing:yes,healthcare:pharmacy","lat":-29.1174812,"lng":-51.1295851},{"id":"9598394671","name":"Super Mercado Serafina","tags":"shop:convenience","lat":-29.1068609,"lng":-51.1218125},{"id":"9598400476","name":"E.E.E.M. Dr. Assis Antônio Mariani","tags":"amenity:school","lat":-29.1168791,"lng":-51.1203855},{"id":"9598401785","name":"Farmácia São Ciro","tags":"amenity:pharmacy,dispensing:yes,healthcare:pharmacy","lat":-29.1136144,"lng":-51.125481},{"id":"9598401786","name":"São João","tags":"amenity:pharmacy,brand:São João,brand:wikidata:Q62663306,dispensing:yes,healthcare:pharmacy","lat":-29.1126044,"lng":-51.1246736},{"id":"9611628303","name":"Escola de Ensino Fundamental São José","tags":"amenity:school","lat":-29.1278823,"lng":-51.1310588}]