[{"id":"2916658668","name":"Hospital Beneficente Nossa Senhora Aparecida","tags":"addr:city:Paraí,addr:housenumber:15,addr:postcode:95360-000,addr:street:Rua Henrique Lenzi,addr:suburb:Centro,amenity:hospital,emergency:yes,healthcare:hospital,operator:HOSPITAL BENEFICENTE NOSSA SENHORA APARECIDA,operator:type:community","lat":-28.59357,"lng":-51.7868564},{"id":"2916701319","name":"Agência de Correios Paraí","tags":"addr:housenumber:1060,addr:postcode:95360-970,addr:street:Avenida Presidente Castelo Branco,amenity:post_office,contact:phone:+55 54 3477-1166,opening_hours:Mo-Fr 09:00-17:00; Sa 09:00-13:00,operator:EBCT,short_name:AC Paraí","lat":-28.5980511,"lng":-51.7865762},{"id":"2916731502","name":"GERCAN","tags":"addr:city:Paraí,addr:housenumber:345,addr:postcode:95360-000,addr:street:Rua Ipanema,leisure:sports_centre,sport:multi","lat":-28.5989906,"lng":-51.7911352},{"id":"6152411278","name":"Santa Clara","tags":"opening_hours:Mo-Sa 08:00-19:00,shop:supermarket","lat":-28.5971022,"lng":-51.7844548},{"id":"6152734685","name":"Ginásio de esportes","tags":"leisure:sports_centre,sport:volleyball;soccer;basketball","lat":-28.6008371,"lng":-51.7883481}]