[{"id":"4567863091","name":"Rodoviaria de Balneário Pinhal","tags":"DER:RS:categoria_rodoviaria:quarta,DER:RS:zona_de_fiscalizacao:16,addr:housenumber:531,addr:postcode:95595-000,addr:street:Avenida General Osório,addr:suburb:Centro,amenity:bus_station,bus:yes,contact:phone:+55 55 3682-1330;+55 55 99725-8309,network:BR:RS,official_name:Balneario Pinhal,operator:Rodoviária de Cidreira Ltda,public_transport:station,ref:vatin:BR7621061000387","lat":-30.246599,"lng":-50.2317377},{"id":"8019842782","tags":"amenity:hospital,healthcare:hospital","lat":-30.2562666,"lng":-50.2424924},{"id":"8019859766","name":"EMEI Golfinho do Mar","tags":"amenity:school","lat":-30.2460171,"lng":-50.2423694},{"id":"8019980603","name":"Leve Mais","tags":"shop:supermarket","lat":-30.243712,"lng":-50.2422692},{"id":"8019993018","name":"Banco24Horas","tags":"amenity:atm,brand:Banco24Horas,brand:wikidata:Q4854069,operator:Banco24Horas","lat":-30.2438751,"lng":-50.2423665},{"id":"9421661138","name":"Asun","tags":"shop:supermarket","lat":-30.2521019,"lng":-50.2365015},{"id":"10652156120","name":"Restaurante e Pizzaria Gabriela","tags":"amenity:restaurant","lat":-30.2584611,"lng":-50.2388475}]