[{"id":"3513058373","name":"Rede Polo Supermercados","tags":"shop:supermarket","lat":-29.7472348,"lng":-50.0113215},{"id":"4844390022","name":"Dia","tags":"brand:Dia,brand:wikidata:Q925132,brand:wikipedia:es:Supermercados DIA,name:en:Dia,shop:supermarket","lat":-29.7485684,"lng":-50.0192246},{"id":"6382449325","name":"EMEF Ana Maria Bauer Felicio","tags":"amenity:school","lat":-29.7478222,"lng":-50.0242829},{"id":"6382449326","tags":"amenity:school","lat":-29.7483519,"lng":-50.0246712},{"id":"6382449327","tags":"amenity:school","lat":-29.7490046,"lng":-50.0249238},{"id":"8041133007","name":"Stok Center","tags":"shop:supermarket","lat":-29.7437387,"lng":-50.0306091},{"id":"8041186391","name":"Unidade de Isolamento no combate ao Covid-19","tags":"addr:housenumber:111,addr:street:Rua dos Escoteiros,amenity:hospital,healthcare:hospital","lat":-29.7499619,"lng":-50.0263817},{"id":"8041193762","name":"EMEI Carrossel","tags":"amenity:school","lat":-29.7495365,"lng":-50.027086},{"id":"8041193764","name":"APAE","tags":"amenity:school","lat":-29.7497554,"lng":-50.025246},{"id":"9345008246","name":"Supermercados Andreazza","tags":"shop:supermarket","lat":-29.7477887,"lng":-50.0125267}]