[{"id":"2611143825","name":"Capitão Chaves Bistrô","tags":"addr:city:São Francisco de Paula,addr:housenumber:811,addr:postcode:95400-000,addr:street:Avenida Júlio de Castilhos,addr:suburb:Centro,amenity:cafe","lat":-29.4438253,"lng":-50.58052},{"id":"4392862976","name":"Monumento ao Carreteiro","tags":"historic:monument,tourism:attraction","lat":-29.4446155,"lng":-50.5805853},{"id":"4848721508","name":"Restaurante Sabor da Serra","tags":"addr:city:São Francisco de Paula,addr:housenumber:657,addr:postcode:95400-000,addr:street:Avenida Júlio de Castilhos,addr:suburb:Centro,amenity:restaurant","lat":-29.4452599,"lng":-50.5810441},{"id":"4848824505","name":"São João","tags":"addr:city:São Francisco de Paula,addr:housenumber:40,addr:postcode:95400-000,addr:street:Rua Pinheiro Machado,addr:suburb:Centro,amenity:pharmacy","lat":-29.4463678,"lng":-50.5793171},{"id":"5016624380","name":"Tchê Farmácias","tags":"addr:city:São Francisco de Paula,addr:housenumber:705,addr:postcode:95400-000,addr:street:Avenida Júlio de Castilhos,addr:suburb:Centro,amenity:pharmacy","lat":-29.4448477,"lng":-50.5808935},{"id":"7569549544","tags":"leisure:fitness_centre","lat":-29.4518138,"lng":-50.5741858},{"id":"7906988539","name":"Padaria da julia","tags":"addr:city:São Francisco de Paula,addr:postcode:95400-000,addr:street:Rua da Laje,addr:suburb:cipó,amenity:cafe,bar:yes,cuisine:regional;coffee_shop,internet_access:yes,internet_access:fee:yes,internet_access:ssid:padaria julia,natural:valley,opening_hours:covid19:Mo-Su 08:00-20:00,outdoor_seating:yes,wheelchair:yes","lat":-29.4439862,"lng":-50.5672722},{"id":"7906988540","name":"bar sombra da parreira","tags":"addr:city:São Francisco de Paula,addr:postcode:95400-000,addr:street:Rua da Laje,addr:suburb:Cipó,amenity:bar,brewery:yes;Heineken,min_age:18,opening_hours:Mo-Su 08:00-22:00,opening_hours:covid19:Mo-Su 08:00-20:00","lat":-29.4443421,"lng":-50.5682704},{"id":"7906988541","name":"mercado do alemão","tags":"addr:city:São Francisco de Paula,addr:postcode:95400-000,addr:street:Rua da Laje,addr:suburb:cipo,opening_hours:Mo-Su 08:00-22:00,opening_hours:covid19:Mo-Su 08:00-20:00,operator:Alemão Alexandre,payment:cash:yes,payment:credit_cards:yes,payment:mastercard:yes,payment:telephone_cards:yes,payment:visa:yes,payment:visa_debit:yes,shop:supermarket,wheelchair:yes","lat":-29.4440337,"lng":-50.5679517},{"id":"7906988542","name":"Da lage","tags":"addr:city:São Francisco de Paula,addr:postcode:95400-000,addr:street:Rua da Laje,addr:suburb:Cipó,air_conditioning:yes,level:9,opening_hours:Mo-Su 08:00-22:00,opening_hours:covid19:Mo-Sa 10:00-19:00,payment:cards:yes,payment:cash:yes,payment:credit_cards:yes,payment:debit_cards:yes,payment:maestro:yes,payment:mastercard:yes,payment:telephone_cards:yes,payment:visa:yes,payment:visa_debit:yes,shop:supermarket,stroller:yes,wheelchair:yes","lat":-29.4444072,"lng":-50.5686588},{"id":"7906988544","name":"parada de carros","tags":"addr:city:São Francisco de Paula,addr:postcode:95400-000,addr:street:Rua da Laje,landuse:grass,leisure:park,opening_hours:sunrise-sunset,opening_hours:covid19:restricted","lat":-29.4441884,"lng":-50.5676274}]