[{"id":"9657156693","name":"Papa Rancho Supermercado","tags":"shop:supermarket","lat":-29.1568002,"lng":-49.5794876},{"id":"9672713344","name":"Vintage Restaurante","tags":"amenity:restaurant","lat":-29.1546313,"lng":-49.5728107},{"id":"9673012919","name":"Farmácia São Sebastião","tags":"amenity:pharmacy,dispensing:yes,healthcare:pharmacy","lat":-29.1572751,"lng":-49.5772726},{"id":"9673012920","tags":"amenity:post_office,operator:Correios,operator:wikidata:Q3375004,operator:wikipedia:en:Correios","lat":-29.1579778,"lng":-49.5778573},{"id":"9673012922","tags":"amenity:school","lat":-29.1628295,"lng":-49.5873205},{"id":"9673018989","name":"Bradesco","tags":"amenity:bank,brand:Bradesco,brand:wikidata:Q806181,brand:wikipedia:en:Banco Bradesco","lat":-29.1566172,"lng":-49.5776314},{"id":"9673029169","name":"Supermercado Cooperja","tags":"shop:supermarket","lat":-29.1530249,"lng":-49.5830659},{"id":"9673034669","name":"Sicoob","tags":"amenity:bank","lat":-29.1558046,"lng":-49.5795663},{"id":"9696472196","name":"Estação Saúde","tags":"leisure:fitness_centre","lat":-29.1537957,"lng":-49.585112}]