[{"id":"3237269846","name":"Rodoviária Urussanga","tags":"amenity:bus_station,bus:yes,public_transport:station","lat":-28.524086,"lng":-49.3178961},{"id":"3237269858","name":"Bradesco","tags":"amenity:bank,atm:yes,brand:Bradesco,brand:wikidata:Q806181,brand:wikipedia:en:Banco Bradesco","lat":-28.5211818,"lng":-49.320984},{"id":"3237269860","name":"Papos e Tragos","tags":"amenity:restaurant","lat":-28.5282434,"lng":-49.3207129},{"id":"3237270461","name":"São Pedro 3","tags":"shop:supermarket","lat":-28.5290173,"lng":-49.3201318},{"id":"3237270472","name":"Polícia Militar","tags":"amenity:police","lat":-28.523705,"lng":-49.3179758},{"id":"3237270473","name":"Monsenhor","tags":"amenity:school","lat":-28.5265422,"lng":-49.3268669},{"id":"3237270474","name":"Barão do Rio Branco","tags":"amenity:school","lat":-28.522338,"lng":-49.3223048},{"id":"3237282385","name":"Althoff","tags":"shop:supermarket","lat":-28.5220138,"lng":-49.3230928},{"id":"3237282388","name":"Caixa Econômica Federal","tags":"amenity:bank,atm:yes","lat":-28.5257993,"lng":-49.321718},{"id":"4295451125","name":"Piato D'oro","tags":"amenity:restaurant","lat":-28.5218875,"lng":-49.3172131},{"id":"8637983702","name":"Museu Histórico Municipal de Urussanga","tags":"tourism:museum","lat":-28.5256169,"lng":-49.3237536}]