[{"id":"1822366919","name":"Mercado Amílton","tags":"shop:convenience","lat":-28.2147452,"lng":-48.6731336},{"id":"1822366924","name":"Mercado Eskina","tags":"shop:convenience","lat":-28.2164256,"lng":-48.673528},{"id":"1822378785","name":"Althoff Supermercado","tags":"shop:supermarket","lat":-28.2400618,"lng":-48.6661986},{"id":"1822378786","name":"Banco do Brasil","tags":"amenity:bank","lat":-28.240305,"lng":-48.667631},{"id":"1822378796","name":"Colégio Álvaro Catão","tags":"amenity:school","lat":-28.2168595,"lng":-48.6701897},{"id":"3270618868","name":"Escola Básica Henrique Lage","tags":"amenity:school","lat":-28.2414052,"lng":-48.66648},{"id":"3270618869","name":"Terminal Urbano de Imbituba","tags":"amenity:bus_station","lat":-28.2410437,"lng":-48.6669574},{"id":"3270618871","name":"Usina","tags":"tourism:attraction","lat":-28.2438508,"lng":-48.6693982},{"id":"3270624834","name":"Franca Farma","tags":"amenity:pharmacy","lat":-28.2409262,"lng":-48.6673041},{"id":"4673928024","name":"Biblioteca Municipal Cônego Itamar Luiz da Costa","tags":"access:public,addr:housenumber:276,addr:street:Rua Nereu Ramos,amenity:library,contact:email:biblioteca@imbituba.sc.gov.br,contact:phone:+55 48 3255-2151,opening_hours:Mo-Fr 13:00-19:15; Sa,Su,PH off,start_date:1975","lat":-28.237882,"lng":-48.6642834},{"id":"5358020157","name":"Tieli","tags":"shop:supermarket","lat":-28.238139,"lng":-48.6704541},{"id":"5358020166","name":"Polícia Militar de Santa Catarina","tags":"amenity:police","lat":-28.2383745,"lng":-48.6608958},{"id":"5404330674","name":"O Jangadeiro","tags":"amenity:restaurant,tourism:guest_house","lat":-28.2420102,"lng":-48.6599216},{"id":"5404458889","name":"Kinka's Bar & Petisqueria","tags":"amenity:bar","lat":-28.2435115,"lng":-48.6638473},{"id":"5465407547","name":"Mini Mercado da Zeza","tags":"shop:supermarket","lat":-28.2402027,"lng":-48.6697275},{"id":"6181684189","tags":"amenity:parking","lat":-28.2162782,"lng":-48.6684787}]