[{"id":"1306711132","name":"Bachillerato Común 8","tags":"addr:city:Mojón Grande,addr:postcode:N3357,addr:street:Avenida San Martín,amenity:school,description:CUISE: 1819 ,isced:level:2,operator:type:public,ref:cue:540087500,short_name:Bachilletato 8","lat":-27.7157989,"lng":-55.1552347},{"id":"3011977556","name":"Escuela 193","tags":"addr:city:Mojón Grande,addr:street:Islas Malvinas,alt_name:Escuela Andres Guacurarí,amenity:school,grades:1-7,official_name:Escuela Provincial Nº 193 Andres Guacurarí,ref:cue:540025400","lat":-27.7101593,"lng":-55.1574198},{"id":"4991287409","tags":"addr:city:Mojón Grande,addr:postcode:3315,addr:street:Avenida San Martín,amenity:atm,check_date:2022-04-19,network:Banelco,operator:Banco Macro","lat":-27.7132578,"lng":-55.157022},{"id":"4991307402","name":"Comisaría Mojón Grande UR-VI","tags":"addr:city:Mojón Grande,addr:postcode:3315,addr:street:Juan José Paso,amenity:police,contact:centrex:4359,operator:Policía de la Provincia de Misiones,phone:+54 3754 497062","lat":-27.7120841,"lng":-55.1588657},{"id":"5034337202","name":"Biblioteca Popular Del Conocimiento al Saber","tags":"addr:city:Mojón Grande,addr:country:AR,addr:full:Avenida San Martín y Entre Ríos,addr:postcode:3315,addr:province:Misiones,addr:street:Avenida San Martín,amenity:library,description:Registro: 4214,opening_hours:Mo-Fr 07:00-11:00,website:https://www.conabip.gob.ar/bipop/6824","lat":-27.714438,"lng":-55.1561481},{"id":"6175540057","name":"Salto Las Mujeres","tags":"addr:city:Mojón Grande,is_in:river:Arroyo de las Mujeres,natural:cliff,tourism:attraction,waterway:waterfall","lat":-27.7278382,"lng":-55.1692536},{"id":"8742818123","name":"Escuela de la Familia Agrícola San Pedro y San Pablo","tags":"addr:city:Mojón Grande,addr:postcode:3315,addr:street:Manuel Belgrano,amenity:school,email:sanpedroysanpablo@yahoo.com,isced:level:2,operator:type:private,ref:cue:540202000,short_name:EFA","lat":-27.7114964,"lng":-55.1569152}]