[{"id":"2379697448","name":"Escola Municipal de Ensino Fundamental Germano Dockhorn","tags":"amenity:school","lat":-27.7607792,"lng":-54.2396414},{"id":"2379698371","name":"Churrascaria Avenida","tags":"amenity:restaurant","lat":-27.7663568,"lng":-54.2379302},{"id":"2380144823","name":"Delegacia de Polícia de Três de Maio","tags":"amenity:police","lat":-27.7715897,"lng":-54.2342637},{"id":"2380144826","name":"Pizzaria Mordomia","tags":"amenity:restaurant","lat":-27.7673415,"lng":-54.2380831},{"id":"5694008921","name":"Mercado Paulus","tags":"shop:convenience","lat":-27.7671162,"lng":-54.2445336},{"id":"5694008922","name":"Mercado HI","tags":"shop:convenience","lat":-27.7663347,"lng":-54.2436737},{"id":"9925930719","tags":"amenity:atm","lat":-27.7647387,"lng":-54.2409228}]