[{"id":"1354447219","name":"Pizzaria Camilo","tags":"amenity:restaurant,cuisine:italian","lat":-27.6421977,"lng":-54.4052953},{"id":"4989131386","name":"Escola Municipal Especial Padre Pedro Stoelben","tags":"amenity:school","lat":-27.6595377,"lng":-54.4420668},{"id":"4989131389","tags":"amenity:hospital","lat":-27.6595478,"lng":-54.4436036},{"id":"4989131645","name":"EE Davi Bortoli","tags":"amenity:school","lat":-27.6572941,"lng":-54.4410633},{"id":"4989131646","tags":"amenity:post_office","lat":-27.6575385,"lng":-54.4418993},{"id":"5873954528","name":"Rodoviária de Tucunduva","tags":"DER:RS:categoria_rodoviaria:quarta,DER:RS:zona_de_fiscalizacao:14,addr:door:05,addr:housenumber:83,addr:postcode:98930-000,addr:street:Travessa Os Atuais,addr:suburb:Centro,amenity:bus_station,contact:email:rod.tuc@gmail.com,contact:phone:+55 55 3542-1020;+55 55 3542-1272,network:BR:RS,official_name:Tucunduva,operator:Ivete Hartmann-Me,public_transport:station,ref:vatin:BR92681683000108","lat":-27.6578352,"lng":-54.4453266},{"id":"6621804019","name":"Escola Estadual de Ensino Médio Bento Gonçalves","tags":"amenity:school","lat":-27.662353,"lng":-54.4415734},{"id":"6621804023","name":"Clube comercial","tags":"amenity:restaurant","lat":-27.6580422,"lng":-54.4379531},{"id":"6621804025","name":"Estádio dos Veteranos","tags":"leisure:stadium","lat":-27.6513541,"lng":-54.4313264},{"id":"6621804026","tags":"amenity:grave_yard,religion:christian","lat":-27.6502004,"lng":-54.430562}]