[{"id":"4844658214","tags":"amenity:place_of_worship,building:church,religion:christian","lat":-27.6708632,"lng":-54.1068967},{"id":"4844658219","tags":"amenity:post_office","lat":-27.6702572,"lng":-54.1091171},{"id":"4844658220","tags":"amenity:police,operator:Polícia Civil","lat":-27.6735685,"lng":-54.1097716},{"id":"4844658221","tags":"amenity:school","lat":-27.6697655,"lng":-54.1123009},{"id":"4844658234","tags":"amenity:place_of_worship,building:church,religion:christian","lat":-27.6691122,"lng":-54.1108686},{"id":"4862727361","name":"Rodoviaria de Boa Vista do Buricá","tags":"DER:RS:categoria_rodoviaria:quarta,DER:RS:zona_de_fiscalizacao:14,addr:door:Sala 01,addr:housenumber:350,addr:postcode:98918-000,addr:street:Rua Getúlio Vargas,addr:suburb:Centro,amenity:bus_station,contact:email:rodoviariaboavista@gmail.com,contact:phone:+55 55 99719-9067;+55 55 99689-0856,network:BR:RS,official_name:Boa Vista do Buricá,operator:Bvb Estação Rodoviária Ltda ME,public_transport:station,ref:vatin:BR22768435/0001-13","lat":-27.6713647,"lng":-54.1074837},{"id":"6177421487","name":"Pórtico de Boa Vista do Buricá","tags":"tourism:attraction","lat":-27.673204,"lng":-54.1081948},{"id":"6769608218","name":"Restaurante RS 210","tags":"addr:city:Boa Vista do Buricá,addr:housenumber:1705,addr:postcode:98918-000,addr:street:Rua Aparecida,amenity:restaurant,cuisine:pizza,phone:+55 55 99696-3474","lat":-27.6714091,"lng":-54.1052248},{"id":"8547130023","tags":"amenity:school","lat":-27.6741508,"lng":-54.1137393}]