[{"id":"3764735903","name":"Farmácia Santa Inês","tags":"amenity:pharmacy,dispensing:yes,healthcare:pharmacy","lat":-26.9878151,"lng":-53.5345714},{"id":"3766502219","name":"Althernativo","tags":"amenity:restaurant,delivery:yes,outdoor_seating:yes,smoking:outside","lat":-26.9930867,"lng":-53.5343817},{"id":"3766502232","name":"Farmavida","tags":"amenity:pharmacy,dispensing:yes,drive_through:no,healthcare:pharmacy,opening_hours:sunrise-sunset","lat":-26.9893304,"lng":-53.5343053},{"id":"5729687795","name":"Mercado Jundiá","tags":"shop:supermarket","lat":-26.9874047,"lng":-53.5386225},{"id":"5729735832","name":"Bar e Mercearia Neumann","tags":"amenity:bar","lat":-26.9879036,"lng":-53.5405876},{"id":"7524734238","name":"Polícia Militar do Estado de Santa Catarina","tags":"amenity:police","lat":-26.9868912,"lng":-53.5335561},{"id":"8626278863","tags":"amenity:grave_yard","lat":-27.0192007,"lng":-53.5435293}]