[{"id":"1200867105","name":"Hospital Ministro Costa Cavalcante","tags":"addr:housenumber:580,addr:postcode:85860-460,addr:street:Avenida Gramado,addr:suburb:Vila \\A\\,amenity:hospital,contact:phone:+55 45 3576-8000,emergency:yes,healthcare:speciality:general","lat":-25.497776,"lng":-54.5681313},{"id":"1398624729","name":"Academia Boa Forma","tags":"addr:city:Foz do Iguaçu,addr:housenumber:1736,addr:street:Avenida Garibaldi,addr:suburb:Jardim Lancaster,leisure:fitness_centre","lat":-25.4952302,"lng":-54.5570443},{"id":"1471276262","tags":"amenity:restaurant","lat":-25.520016,"lng":-54.5626871},{"id":"1471276274","tags":"amenity:restaurant","lat":-25.5213618,"lng":-54.5629124},{"id":"1473637657","name":"Colégio Cooperativa","tags":"amenity:school","lat":-25.522934,"lng":-54.5623471},{"id":"2431370361","name":"Delegacia de Polícia Rodoviária Federal","tags":"amenity:police,operator:Polícia Rodoviária Federal,owner:Ministério da Justiça","lat":-25.5128298,"lng":-54.5576154},{"id":"3139250114","name":"Castelo Libanês","tags":"addr:housenumber:520,addr:street:Rua Vinícius de Morais,amenity:restaurant,phone:+55 45 35261218","lat":-25.5178889,"lng":-54.5798257},{"id":"4429990907","name":"Casa da Picanha Mocellin","tags":"addr:city:Foz do Iguaçu,addr:housenumber:1142,addr:street:Avenida Garibaldi,addr:suburb:Jardim Lancaster II,amenity:restaurant","lat":-25.5005859,"lng":-54.5566437},{"id":"4702457660","name":"Banco24Horas","tags":"amenity:atm","lat":-25.5209128,"lng":-54.5638338},{"id":"4901402221","name":"Mahatta Hookan Bar","tags":"addr:housenumber:1984,addr:street:Avenida Garibaldi,amenity:bar,cuisine:fish;regional;ice_cream;grill;seafood;friture;local;beef_bowl;fine_dining;fish_and_chips;diner;chicken;brazilian,internet_access:wlan,name:en:Mahatta Hookan Bar,name:pt:Mahatta Hookan Bar,opening_hours:Tu-Su 17:00-00:00","lat":-25.500102,"lng":-54.5567316},{"id":"4993558521","name":"Restaurante Barracão","tags":"addr:city:Foz do Iguaçu,addr:housenumber:1010,addr:street:Avenida Anhembi,addr:suburb:Jardim Santa Rosa,amenity:restaurant,cuisine:brazilian","lat":-25.4952647,"lng":-54.5712296},{"id":"5105346425","name":"Ubud Cafe","tags":"amenity:restaurant","lat":-25.5208886,"lng":-54.5636278},{"id":"5105388324","name":"Subway","tags":"amenity:restaurant","lat":-25.5207402,"lng":-54.5634687},{"id":"5105388325","name":"Doce Delicia","tags":"amenity:restaurant","lat":-25.5208093,"lng":-54.5635486},{"id":"5105390521","name":"Santa Maria","tags":"amenity:pharmacy","lat":-25.5209721,"lng":-54.5637024},{"id":"5208825509","name":"Atacadão","tags":"addr:city:Foz do Iguaçu,addr:housenumber:350,addr:postcode:85865-228,addr:street:Rua Nelson da Cunha Júnior,addr:suburb:Vila Perola,opening_hours:Mo-Sa 07:00-22:00,phone:+55 45 21053200,shop:supermarket,website:https://www.atacadao.com.br/","lat":-25.5105348,"lng":-54.5777799},{"id":"5218302538","name":"Giva Restaurantes","tags":"addr:city:Foz do Iguaçu,addr:street:Avenida Brodoski,addr:suburb:Jd Santa Rosa,amenity:restaurant,capacity:20,cuisine:regional,delivery:yes,opening_hours:Mo-Fr 09:00-18:00,smoking:outside,takeaway:yes","lat":-25.4944556,"lng":-54.5673904},{"id":"5253225921","name":"Bettos pizza","tags":"amenity:restaurant,cuisine:pizza","lat":-25.4898903,"lng":-54.5711715},{"id":"5514586821","name":"Luna II","tags":"shop:supermarket","lat":-25.5007821,"lng":-54.5567778},{"id":"5516810846","name":"Escola Municipal Professora Josinete Holler A. dos Santos","tags":"addr:city:Foz do Iguaçu,addr:housenumber:5221,addr:postcode:85.860-290,addr:street:Avenida Paraná,addr:suburb:Vila A,amenity:school","lat":-25.5018134,"lng":-54.5750043},{"id":"5860978386","name":"JD Supermercado","tags":"shop:supermarket","lat":-25.5145442,"lng":-54.556842},{"id":"6286673285","name":"Super Muffato Vila A","tags":"addr:city:Foz do Iguaçu,addr:housenumber:3004,addr:street:Avenida Silvio Américo Sadelli,addr:suburb:Jardim Lancaster,shop:supermarket","lat":-25.4941842,"lng":-54.5542087},{"id":"6545909990","name":"MAX Supermercado","tags":"shop:supermarket","lat":-25.5115607,"lng":-54.5522708},{"id":"6558155770","name":"Colégio Estadual Almiro Sartori","tags":"addr:city:Foz do Iguaçu,addr:housenumber:400,addr:postcode:85.859-490,addr:street:Rua Pombas,addr:suburb:Portal da Foz,amenity:school,website:http://www.fozalmirosartori.seed.pr.gov.br/modules/liaise/","lat":-25.5076992,"lng":-54.539076},{"id":"6558203471","name":"Colégio Estadual Ayrton Senna da Silva","tags":"addr:city:Foz do Iguaçu,addr:housenumber:54,addr:postcode:85.869-570,addr:street:Rua Poços de Caldas,addr:suburb:Jardim Lancaster,amenity:school,website:http://www.fozcataratas.seed.pr.gov.br/modules/liaise/","lat":-25.4948708,"lng":-54.5510798},{"id":"6570818583","name":"Escola de Educação Especial Cristian Eduardo Hack Cardozo","tags":"addr:city:Foz do Iguaçu,addr:housenumber:18,addr:postcode:85.869-100,addr:street:Rua Mandaguari,addr:suburb:Jardim Santa Rosa,amenity:school,website:http://www.fozcehcardozo.seed.pr.gov.br/modules/liaise/","lat":-25.4939121,"lng":-54.5716898},{"id":"6570946364","name":"Escola de Educação Especial Karin Knebel","tags":"addr:city:Foz do Iguaçu,addr:housenumber:646,addr:postcode:85.864-510,addr:street:Rua Ariano Suassuna,addr:suburb:Jardim Central,amenity:school,website:http://www.fozkknebel.seed.pr.gov.br/modules/liaise/","lat":-25.5156248,"lng":-54.578393},{"id":"6573126440","name":"APAE - Associação de Pais e Amigos do Excepcionais","tags":"addr:city:Foz do Iguaçu,addr:housenumber:1536,addr:postcode:85.863-720,addr:street:Avenida Paraná,addr:suburb:Jardim Pólo Centro,amenity:school,website:https://fozdoiguacu.apaepr.org.br/","lat":-25.5199116,"lng":-54.5743833},{"id":"6573215411","name":"Colégio Estadual Pioneiros","tags":"addr:city:Foz do Iguaçu,addr:housenumber:S/N,addr:postcode:85.858-660,addr:street:Rua Paulo Shertner,addr:suburb:Jardim Itália,amenity:school,website:http://www.fozpioneiros.seed.pr.gov.br/modules/conteudo/conteudo.php?conteudo=1","lat":-25.5243883,"lng":-54.5470829},{"id":"6574744265","name":"C.E. Tancredo Almeida Neves","tags":"addr:city:Foz do Iguaçu,addr:housenumber:1866,addr:postcode:85.859-020,addr:street:Rua José Carlos Pace,addr:suburb:Parque Morumbi III,amenity:school,website:http://www.foztancredoneves.seed.pr.gov.br/modules/liaise/","lat":-25.519831,"lng":-54.5389032},{"id":"6661768504","name":"Colégio Estadual Barão do Rio Branco","tags":"addr:city:Foz do Iguaçu,addr:housenumber:85,addr:postcode:85.863-759,addr:street:Rua Silvino Dal Bó,addr:suburb:Jardim Pólo Centro,amenity:school,website:http://www.fozriobranco.seed.pr.gov.br/modules/liaise/","lat":-25.5251398,"lng":-54.5742733},{"id":"6992212092","name":"Beduíno's Comida Árabe","tags":"addr:city:Foz do Iguaçu,addr:housenumber:2351,addr:street:Avenida Silvio Américo Sadelli,addr:suburb:Vila A,amenity:restaurant,cuisine:kebab","lat":-25.494185,"lng":-54.5627252},{"id":"7017099091","name":"polícia civil","tags":"amenity:police","lat":-25.5012086,"lng":-54.5678067},{"id":"7040855932","name":"Mesquita Omar Ibn Al-Khattab","tags":"addr:city:Foz do Iguaçu,addr:housenumber:599,addr:street:Rua Meca,addr:suburb:Jardim Central,tourism:attraction","lat":-25.5207769,"lng":-54.5786445},{"id":"7040920989","name":"Chicken Pizza","tags":"addr:city:Foz do Iguaçu,addr:housenumber:941,addr:street:Rua Perdigão,addr:suburb:Vila A,amenity:restaurant,cuisine:pizza","lat":-25.4953871,"lng":-54.5771884},{"id":"7040920990","name":"C7 sushi","tags":"addr:city:Foz do Iguaçu,addr:housenumber:574,addr:street:Avenida Silvio Américo Sadelli,addr:suburb:Vila A,amenity:restaurant,cuisine:sushi","lat":-25.4953152,"lng":-54.577446},{"id":"7040920991","name":"Líder Supermercado","tags":"addr:city:Foz do Iguaçu,addr:housenumber:1943,addr:street:Avenida Silvio Américo Sadelli,addr:suburb:Vila A,shop:supermarket","lat":-25.4942724,"lng":-54.5644498},{"id":"7040920992","name":"Farmácias Mini Preço","tags":"addr:city:Foz do Iguaçu,addr:housenumber:1720,addr:street:Avenida Silvio Américo Sadelli,addr:suburb:Vila A,amenity:pharmacy,dispensing:yes,healthcare:pharmacy","lat":-25.4946558,"lng":-54.5645481},{"id":"7040920993","name":"Ponto Certo Restaurante e Pizzaria","tags":"addr:city:Foz do Iguaçu,addr:housenumber:925,addr:street:Avenida Hildemar Leite Franca,addr:suburb:Vila A,amenity:restaurant","lat":-25.4937307,"lng":-54.5643077},{"id":"7040920994","name":"Farmácia Farmautil","tags":"addr:city:Foz do Iguaçu,addr:housenumber:1999,addr:street:Avenida Silvio Américo Sadelli,addr:suburb:Vila A,amenity:pharmacy,dispensing:yes,healthcare:pharmacy","lat":-25.4942571,"lng":-54.5637405},{"id":"7040920997","name":"Farma A","tags":"addr:city:Foz do Iguaçu,addr:housenumber:2349,addr:street:Avenida Silvio Américo Sadelli,addr:suburb:Vila A,amenity:pharmacy,dispensing:yes,healthcare:pharmacy","lat":-25.4940901,"lng":-54.5606092},{"id":"7040920998","name":"Restaurante Don Liro","tags":"addr:city:Foz do Iguaçu,addr:housenumber:2487,addr:street:Avenida Silvio Américo Sadelli,addr:suburb:Vila A,amenity:restaurant","lat":-25.4940409,"lng":-54.5591671},{"id":"7040920999","name":"Moka Temakeria & Sushi","tags":"addr:city:Foz do Iguaçu,addr:housenumber:2487,addr:street:Avenida Silvio Américo Sadelli,addr:suburb:Vila A,amenity:restaurant,cuisine:sushi","lat":-25.4940385,"lng":-54.5592026},{"id":"7040921000","name":"Pronatu's Saúde","tags":"addr:city:Foz do Iguaçu,addr:housenumber:2170,addr:street:Avenida Silvio Américo Sadelli,addr:suburb:Vila A,amenity:restaurant","lat":-25.4943995,"lng":-54.5596644},{"id":"7040921001","name":"Farmacias Nissei","tags":"addr:city:Foz do Iguaçu,addr:housenumber:1820,addr:street:Avenida Garibaldi,addr:suburb:Jardim Lancaster,amenity:pharmacy,dispensing:yes,healthcare:pharmacy","lat":-25.4942814,"lng":-54.557134},{"id":"7044988385","name":"Santander","tags":"amenity:bank","lat":-25.4946876,"lng":-54.5645338},{"id":"7058716287","name":"Trigo & Cia","tags":"amenity:restaurant,opening_hours:24/7","lat":-25.5176516,"lng":-54.5742698},{"id":"7101590769","name":"Martignoni Pizzaria","tags":"addr:city:Foz do Iguaçu,addr:housenumber:3535,addr:street:Avenida Paraná,amenity:restaurant,cuisine:pizza","lat":-25.5162655,"lng":-54.5753531},{"id":"7149914780","name":"Sushi Gold","tags":"addr:city:Foz do Iguaçu,addr:street:Avenida Costa e Silva,amenity:restaurant,cuisine:japanese,delivery:yes,takeaway:yes","lat":-25.529482,"lng":-54.5699903},{"id":"7205818786","name":"Odara Artigos Religiosos","tags":"shop:convenience","lat":-25.532168,"lng":-54.5404626},{"id":"7282870085","name":"lanches","tags":"amenity:restaurant","lat":-25.4979596,"lng":-54.5691706},{"id":"7569648585","name":"Mercado Luna","tags":"shop:supermarket","lat":-25.4905362,"lng":-54.5712049},{"id":"7658566486","name":"casa 7 poderes","tags":"addr:housenumber:722,addr:street:Rua Canindé,opening_hours:Mo-Fr 09:00-18:00; Sa-Su 09:00-12:00,phone:+5545991545805,shop:convenience","lat":-25.5290234,"lng":-54.5370355},{"id":"7801503885","name":"Polícia Civil","tags":"addr:street:Avenida Paraná,amenity:police","lat":-25.523114,"lng":-54.5760476},{"id":"7825708686","name":"Santander","tags":"addr:street:Avenida Silvio Américo Sadelli,amenity:bank,opening_hours:Mo-Fr 09:00-18:00","lat":-25.4947647,"lng":-54.5663916},{"id":"7837157785","name":"tend tudo","tags":"addr:housenumber:2070,addr:street:Rua Mané Garrincha,phone:+554535784493,shop:convenience","lat":-25.5179792,"lng":-54.5373433},{"id":"7951288586","name":"fábrica da pizza 10","tags":"amenity:restaurant","lat":-25.5271944,"lng":-54.5374082},{"id":"8112944417","name":"arabian food","tags":"addr:street:Avenida Paraná,amenity:restaurant","lat":-25.493856,"lng":-54.5739229},{"id":"9049527322","name":"Delegacia PRF em Foz do Iguaçu","tags":"amenity:police,opening_hours:Mo-Fr 08:00-17:00,operator:Polícia Rodoviária Federal,operator:wikidata:Q1158853,operator:wikipedia:pt:Polícia Rodoviária Federal,phone:+55 45 3522 3847","lat":-25.5135009,"lng":-54.5738433},{"id":"9661513954","name":"Escola Municipal Professora Rosália de Amorim Silva","tags":"addr:city:Foz do Iguaçu,addr:housenumber:883,addr:postcode:85.869-150,addr:street:Rua Cacique,addr:suburb:Jardim Canadá II,amenity:school","lat":-25.4970075,"lng":-54.5483702},{"id":"9661516051","name":"Escola Municipal Gabriela Mistral","tags":"addr:city:Foz do Iguaçu,addr:housenumber:950,addr:postcode:85.869-260,addr:street:Avenida Engenheiro Hidelmar Leite Franca,addr:suburb:Jardim Lancaster,amenity:school","lat":-25.4936176,"lng":-54.5640199},{"id":"9675146671","name":"Centro Municipal de Educação Infantil Zilda Arns Neumann","tags":"addr:city:Foz do Iguaçu,addr:housenumber:2169,addr:postcode:85.859-040,addr:street:Rua Barão da Serra Negra,addr:suburb:Parque Residencial Morumbi II,amenity:school","lat":-25.5188986,"lng":-54.5424837},{"id":"9675148087","name":"Escola Municipal Papa João Paulo I","tags":"addr:city:Foz do Iguaçu,addr:housenumber:16,addr:postcode:85.863-040,addr:street:Alameda Humaitá,addr:suburb:Jardim Itamaraty,amenity:school","lat":-25.516572,"lng":-54.5639367},{"id":"9677993769","name":"Centro Municipal de Educação Infantil Campos do Iguaçu","tags":"addr:city:Foz do Iguaçu,addr:housenumber:1695,addr:postcode:85.857-240,addr:street:Rua Capibaribe,addr:suburb:Campos do Iguaçu,amenity:school","lat":-25.5265084,"lng":-54.5539313},{"id":"9697866364","name":"Centro Municipal de Educação Infantil São Francisco","tags":"addr:city:Foz do Iguaçu,addr:housenumber:1215,addr:postcode:85.858-420,addr:street:Rua Canindé,addr:suburb:Parque Residencial Morumbi II,amenity:school","lat":-25.5247976,"lng":-54.5375432},{"id":"9697942999","name":"Centro Municipal de Educação Infantil Victorio Basso","tags":"addr:city:Foz do Iguaçu,addr:housenumber:299,addr:postcode:85.862-020,addr:street:Rua Engenho Novo,addr:suburb:Parque Imperatriz,amenity:school","lat":-25.5025441,"lng":-54.5444347},{"id":"9698490675","name":"Escola Municipal Carlos Gomes","tags":"addr:city:Foz do Iguaçu,addr:housenumber:184,addr:postcode:85.857-370,addr:street:Alameda Pontal,addr:suburb:Campos do Iguaçu,amenity:school","lat":-25.5239412,"lng":-54.5570174},{"id":"9698524814","name":"Escola Municipal Doutor Dirceu Lopes","tags":"addr:city:Foz do Iguaçu,addr:housenumber:185,addr:postcode:85.859-580,addr:street:Rua das Águias,addr:suburb:Portal da Foz,amenity:school","lat":-25.5073316,"lng":-54.5404832},{"id":"9698542189","name":"Escola Municipal Duque de Caxias","tags":"addr:city:Foz do Iguaçu,addr:housenumber:2739,addr:postcode:85.859-000,addr:street:Avenida Mário Filho,addr:suburb:Parque Residencial Morumbi III,amenity:school","lat":-25.5151303,"lng":-54.5431363},{"id":"9698605772","name":"Escola Municipal Olímpio Rafagnin","tags":"addr:city:Foz do Iguaçu,addr:housenumber:32,addr:postcode:85.862-060,addr:street:Rua Luz Marina,addr:suburb:Parque Imperatriz,amenity:school","lat":-25.500494,"lng":-54.5408732},{"id":"9701103192","name":"Centro Municipal de Educação Infantil Professora Nilva de Jesus","tags":"addr:city:Foz do Iguaçu,addr:housenumber:594,addr:postcode:85.868-010,addr:street:Rua Bento Gonçalves,addr:suburb:Jardim Karla,amenity:school","lat":-25.4894314,"lng":-54.5773293},{"id":"10555480009","name":"Restaurante e Lanchonete do Amarildo","tags":"amenity:restaurant","lat":-25.5197298,"lng":-54.563082}]