[{"id":"4823051160","tags":"amenity:post_office","lat":-27.6685156,"lng":-52.6483865},{"id":"4823051162","tags":"amenity:school","lat":-27.6694309,"lng":-52.6490377},{"id":"4823051179","name":"Posto de Saúde","tags":"amenity:hospital","lat":-27.6702224,"lng":-52.6503251},{"id":"5893679782","name":"Escola de Ensino Fundamental Mario Quintana","tags":"amenity:school","lat":-27.6737611,"lng":-52.6506343},{"id":"10255500819","name":"Praça","tags":"leisure:park","lat":-27.6684763,"lng":-52.6482472},{"id":"10255500820","name":"Restaurante Maroli","tags":"amenity:restaurant","lat":-27.6700202,"lng":-52.6495723},{"id":"10255500821","name":"Comercial Fontana","tags":"shop:supermarket","lat":-27.6692362,"lng":-52.6494661}]