[{"id":"3018005708","name":"Farmácia Altos da Sete","tags":"amenity:pharmacy,healthcare:pharmacy","lat":-27.6477229,"lng":-52.2673771},{"id":"3027375901","tags":"amenity:restaurant,cuisine:regional","lat":-27.6579127,"lng":-52.2791347},{"id":"5300199129","name":"Polícia Rodoviária Estadual","tags":"amenity:police,police:traffic_police","lat":-27.679216,"lng":-52.2903478},{"id":"5300209921","name":"Lavagem e Borracharia","tags":"amenity:car_wash","lat":-27.6465698,"lng":-52.2640713},{"id":"9456798881","name":"Studio Eduardo Pasquali","tags":"addr:city:Erechim,addr:housenumber:260,addr:postcode:99700228,addr:street:Rua Euclides da Cunha,addr:suburb:Centro,leisure:fitness_centre,opening_hours:Mo-Su 08:00-22:00,sport:fitness;exercise","lat":-27.642493,"lng":-52.2731033},{"id":"10257935279","name":"UERGS","tags":"addr:city:Erechim,addr:housenumber:250,addr:street:Rua Doutor José Bisognin,addr:suburb:São Cristovão,amenity:university,internet_access:yes,website:https://uergs.edu.br","lat":-27.6483254,"lng":-52.2749807},{"id":"10257935298","name":"EMEI São Cristóvão","tags":"addr:city:Erechim,addr:street:Rua Doutor José Bisognin,addr:suburb:São Cristovão,amenity:school","lat":-27.6496054,"lng":-52.2748747}]