[{"id":"1786680685","name":"Banco do Brasil","tags":"amenity:bank,atm:yes,brand:Banco do Brasil,brand:wikidata:Q610817,brand:wikipedia:en:Banco do Brasil","lat":-27.3565568,"lng":-53.3968768},{"id":"1786680700","name":"Caixa Econômica Federal","tags":"amenity:bank,atm:yes,brand:Caixa Econômica Federal,brand:wikidata:Q835283","lat":-27.3575336,"lng":-53.3956912},{"id":"1786684014","name":"Correios","tags":"amenity:post_office,brand:Correios,brand:wikidata:Q3375004,brand:wikipedia:en:Correios,operator:Correios,operator:wikidata:Q3375004","lat":-27.3543816,"lng":-53.394275},{"id":"1788018695","name":"Escola José Cañellas","tags":"amenity:school","lat":-27.3589567,"lng":-53.4101326},{"id":"1788021917","name":"Restaurante Oliveira","tags":"amenity:restaurant,cuisine:italian","lat":-27.3598615,"lng":-53.3986855},{"id":"1788021921","name":"Restaurante Sanpa","tags":"amenity:restaurant,cuisine:italian","lat":-27.3584144,"lng":-53.3960719},{"id":"1788025123","name":"Universidade Regional Integrada (URI)","tags":"amenity:school","lat":-27.3603059,"lng":-53.4076752},{"id":"1788030098","name":"Biblioteca Municipal","tags":"amenity:library","lat":-27.3602054,"lng":-53.3962945},{"id":"1788030099","name":"Livraria Ícaro","tags":"shop:books","lat":-27.3574564,"lng":-53.3959083},{"id":"1788030119","name":"Supermercado Bertoletti","tags":"shop:supermarket","lat":-27.3605914,"lng":-53.3944277},{"id":"1788030125","name":"Sicredi","tags":"amenity:bank,atm:yes,brand:Sicredi,brand:wikidata:Q3483060","lat":-27.3577327,"lng":-53.3967559},{"id":"1788030129","name":"Sicredi","tags":"amenity:bank,atm:yes,brand:Sicredi,brand:wikidata:Q3483060,brand:wikipedia:pt:Sistema de Crédito Cooperativo","lat":-27.3589524,"lng":-53.3940308},{"id":"1788032666","name":"Bradesco","tags":"amenity:bank,atm:yes,brand:Bradesco,brand:wikidata:Q806181,brand:wikipedia:en:Banco Bradesco","lat":-27.3557126,"lng":-53.3951144},{"id":"1788032667","name":"Banrisul","tags":"amenity:bank,atm:yes,brand:Banrisul,brand:wikidata:Q4857098,brand:wikipedia:en:Banrisul","lat":-27.3559699,"lng":-53.3957367},{"id":"1788032669","name":"Restaurante e Café Sol","tags":"amenity:restaurant,cuisine:regional","lat":-27.3580662,"lng":-53.3961229},{"id":"1978960291","name":"Supermercado Barril","tags":"shop:supermarket","lat":-27.3538456,"lng":-53.3965636},{"id":"1978960482","name":"Vitrola","tags":"amenity:cafe","lat":-27.3563184,"lng":-53.394611},{"id":"1978962183","name":"Museu Municipal","tags":"tourism:museum","lat":-27.3602442,"lng":-53.3964939},{"id":"1978964836","name":"Supermercado Cotrifred","tags":"shop:supermarket","lat":-27.3587625,"lng":-53.3996803},{"id":"1978975177","tags":"shop:convenience","lat":-27.3626891,"lng":-53.3955902},{"id":"1978976594","tags":"amenity:pharmacy,healthcare:pharmacy","lat":-27.359811,"lng":-53.3941531},{"id":"1978978380","name":"Farmácia Botânica Farma","tags":"amenity:pharmacy,healthcare:pharmacy","lat":-27.3556855,"lng":-53.4012229},{"id":"1978978383","name":"Supermercado Silva","tags":"shop:supermarket","lat":-27.3587919,"lng":-53.3985836},{"id":"1978978393","tags":"amenity:pharmacy,healthcare:pharmacy","lat":-27.3587538,"lng":-53.3987874},{"id":"1978978395","tags":"amenity:pharmacy,healthcare:pharmacy","lat":-27.3581436,"lng":-53.3995124},{"id":"1978978398","tags":"amenity:bar","lat":-27.3555807,"lng":-53.4015233},{"id":"2060111513","tags":"amenity:pharmacy,healthcare:pharmacy","lat":-27.3615885,"lng":-53.3946278},{"id":"2060111515","name":"Mercado Ediles","tags":"shop:convenience","lat":-27.3669101,"lng":-53.4011885},{"id":"2060111517","name":"Bela Vita Farmácia","tags":"amenity:pharmacy,healthcare:pharmacy","lat":-27.3558046,"lng":-53.3949551},{"id":"2060111519","tags":"shop:convenience","lat":-27.3665433,"lng":-53.3994934},{"id":"2060111521","tags":"amenity:pharmacy,healthcare:pharmacy","lat":-27.3559618,"lng":-53.3950302},{"id":"2060111528","name":"Panvel","tags":"amenity:pharmacy,branch:Famácias,brand:Panvel,brand:wikidata:Q10344254,healthcare:pharmacy","lat":-27.3569052,"lng":-53.3954271},{"id":"2060111529","name":"Farma Centro - Filial","tags":"amenity:pharmacy,healthcare:pharmacy","lat":-27.3568242,"lng":-53.3953896},{"id":"2060111531","name":"Farmácia São João","tags":"amenity:pharmacy,brand:Farmácia São João,brand:wikidata:Q65164556,healthcare:pharmacy","lat":-27.3569766,"lng":-53.3954486},{"id":"2060111534","name":"Supermercado Sorriso - Matriz","tags":"shop:supermarket","lat":-27.3565716,"lng":-53.3952501},{"id":"2060111535","name":"Cruz Azul Farmácias","tags":"amenity:pharmacy,healthcare:pharmacy","lat":-27.3568909,"lng":-53.3960601},{"id":"2060111537","name":"Farma Centro - Matriz 24h","tags":"amenity:pharmacy,healthcare:pharmacy","lat":-27.3558046,"lng":-53.3951804},{"id":"2060119687","tags":"amenity:parking,operator:Hospital Divina Providência","lat":-27.3559284,"lng":-53.4014245},{"id":"2060119689","tags":"shop:supermarket","lat":-27.3631178,"lng":-53.3974334},{"id":"2060119692","tags":"amenity:parking","lat":-27.3589967,"lng":-53.3995577},{"id":"2060119695","tags":"shop:convenience","lat":-27.3652998,"lng":-53.3977875},{"id":"2060119700","tags":"amenity:pharmacy,healthcare:pharmacy","lat":-27.3603022,"lng":-53.3979806},{"id":"2060119702","tags":"amenity:parking","lat":-27.3586156,"lng":-53.3961299},{"id":"2060119704","tags":"shop:convenience","lat":-27.3508446,"lng":-53.4030392},{"id":"2061050649","tags":"amenity:restaurant","lat":-27.3596774,"lng":-53.3940238},{"id":"2061050664","tags":"amenity:restaurant","lat":-27.3766181,"lng":-53.398766},{"id":"2061050673","tags":"amenity:car_wash","lat":-27.3602015,"lng":-53.3939755},{"id":"2061050920","name":"Livraria Jegalera","tags":"shop:books","lat":-27.3557039,"lng":-53.401019},{"id":"2061050922","name":"Farmácia Carati","tags":"amenity:pharmacy,healthcare:pharmacy","lat":-27.3564948,"lng":-53.3972317},{"id":"2061050923","name":"Mercador Jardel","tags":"shop:convenience","lat":-27.3556514,"lng":-53.4015984},{"id":"2102759930","name":"Farmácia Dermapele","tags":"amenity:pharmacy,healthcare:pharmacy","lat":-27.3573603,"lng":-53.3956364},{"id":"2102759934","name":"Farmácia Dermatobel","tags":"amenity:pharmacy,healthcare:pharmacy","lat":-27.3555833,"lng":-53.3948693},{"id":"2102759935","name":"Kioki da Praça","tags":"amenity:bar","lat":-27.3578126,"lng":-53.3964555},{"id":"2102763675","tags":"amenity:restaurant","lat":-27.3526479,"lng":-53.3963643},{"id":"2103118603","tags":"amenity:parking","lat":-27.3603958,"lng":-53.4083987},{"id":"2103118606","tags":"amenity:parking","lat":-27.3602672,"lng":-53.4070093},{"id":"2111219505","tags":"leisure:sports_centre","lat":-27.3576624,"lng":-53.3960759},{"id":"2111229734","tags":"amenity:school","lat":-27.3702305,"lng":-53.40247},{"id":"2208864694","tags":"amenity:parking","lat":-27.3608311,"lng":-53.3941874},{"id":"2208864695","tags":"amenity:restaurant","lat":-27.3607739,"lng":-53.3948204},{"id":"2208864699","tags":"amenity:parking","lat":-27.3605547,"lng":-53.3947667},{"id":"2393054778","name":"Bifão","tags":"amenity:restaurant","lat":-27.3549684,"lng":-53.3951966},{"id":"2393054794","name":"Cia dos Pães","tags":"amenity:cafe,cuisine:coffee_shop","lat":-27.3549064,"lng":-53.3943491},{"id":"2393054799","name":"Fornalha","tags":"amenity:restaurant,cuisine:pizza","lat":-27.3602712,"lng":-53.3935927},{"id":"2393054803","name":"Cia dos Pães","tags":"amenity:restaurant","lat":-27.3549302,"lng":-53.3944563},{"id":"2393054806","tags":"amenity:hospital,healthcare:hospital","lat":-27.3603763,"lng":-53.3976576},{"id":"2393054812","name":"Restaurante Barbosa","tags":"amenity:restaurant,cuisine:regional","lat":-27.358737,"lng":-53.3964428},{"id":"5172021574","name":"Hospital Santo Antônio","tags":"amenity:hospital,healthcare:hospital","lat":-27.3546753,"lng":-53.395615},{"id":"6360369528","name":"Mercado Longo","tags":"shop:supermarket","lat":-27.3496485,"lng":-53.4050263}]