[{"id":"1804259052","name":"Terminal de Transporte Urbano Municipal Prefeito João Destri Patrãozinho","tags":"addr:housename:Terminal Urbano de Ônibus,addr:street:Rua Clevelândia - E,amenity:bus_station,bus:yes,crossing:uncontrolled,crossing_ref:zebra,direction:both,kerb:yes,official_name:Terminal Urbano de Ônibus Prefeito João Destri \\Patrãozinho\\,operator:Prefeitura Municipal de Chapecó;Auto Viação Chapecó,public_transport:stop_position,tactile_paving:no","lat":-27.1063077,"lng":-52.6129018},{"id":"1835656188","name":"Superalfa","tags":"addr:city:Chapecó,addr:housenumber:2690,addr:postcode:89805-902,addr:street:Avenida Fernando Machado - D,addr:suburb:Passo dos Fortes,email:atendimento.superalfa@cooperalfa.com.br,operator:Cooperativa Agroindustrial Alfa,phone:+55-49-3321-7010,shop:supermarket,website:https://www.superalfa.coop.br/","lat":-27.0820416,"lng":-52.622832},{"id":"1957289330","name":"Estrela Azul","tags":"addr:housenumber:180,addr:street:Rua Marechal Deodoro da Fonseca - D,amenity:restaurant,cuisine:pizza;regional,microbrewery:no,outdoor_seating:no,phone:+55-49-3329-5079,smoking:no,stars:2,takeaway:yes,wheelchair:yes","lat":-27.1001618,"lng":-52.6136491},{"id":"1957289333","name":"Panela de Ferro","tags":"addr:housenumber:163,addr:street:Rua Benjamin Constant - D,amenity:restaurant,cuisine:pizza;regional,microbrewery:no,opening_hours:11:30-14:00; 19:00-22:00; Su off,outdoor_seating:no,phone:+55-49-3324-0002,stars:4,website:http://www.restaurantepaneladeferro.com.br/,wheelchair:yes","lat":-27.0986625,"lng":-52.6143111},{"id":"1957289350","name":"Uno Paladar Restaurante","tags":"addr:housenumber:187,addr:postcode:89802-140,addr:street:Rua Marechal Deodoro da Fonseca - D,alt_name:Restaurante Unopaladar,amenity:restaurant,cuisine:regional,phone:+55-49-3323-5504,stars:1","lat":-27.0998794,"lng":-52.613736},{"id":"1958573537","name":"Capone Choperia","tags":"addr:street:Rua Sete de Setembro - E,amenity:bar","lat":-27.0957273,"lng":-52.6180098},{"id":"2038233855","name":"Crista Restaurante e Pizzaria","tags":"addr:street:Rua Benjamin Constant - E,amenity:restaurant,cuisine:pizza","lat":-27.1002819,"lng":-52.6215393},{"id":"2045124166","name":"Don Vilella","tags":"amenity:restaurant,cuisine:pizza,phone:+55-49-3323-0515","lat":-27.0938079,"lng":-52.6175548},{"id":"2045277370","name":"Posto de Lavagem Cacau","tags":"amenity:car_wash","lat":-27.0998891,"lng":-52.6209487},{"id":"2424350144","name":"Mercado Sapiranga","tags":"addr:housenumber:180,addr:street:Rua José Linhares,shop:convenience","lat":-27.0976004,"lng":-52.6309947},{"id":"2424350156","tags":"amenity:car_wash","lat":-27.0956615,"lng":-52.6302437},{"id":"2424362459","name":"Supermercado Popiolski","tags":"addr:housename:Popiosky,addr:housenumber:1420,addr:street:Avenida São Pedro - E,shop:supermarket","lat":-27.0956264,"lng":-52.6310771},{"id":"2424399656","name":"Bradesco","tags":"addr:housenumber:1300,addr:street:Avenida São Pedro - E,amenity:bank,brand:Bradesco,brand:wikidata:Q806181,brand:wikipedia:en:Banco Bradesco,old_name:Banco Brasileiro de Descontos","lat":-27.0962681,"lng":-52.6299415},{"id":"2486832632","name":"Don Sini Restaurante e Pizzaria","tags":"addr:housenumber:315,addr:postcode:89801-020,addr:street:Avenida Nereu Ramos - E,amenity:restaurant,capacity:140,cuisine:italian;pizza,email:donsini@donsini.com.br,microbrewery:no,opening_hours:18:30-23:30; Mo-Sa 11:30-13:30,outdoor_seating:no,phone:+55-49-3328-6633;0800-643-0808,smoking:no,stars:2,website:http://donsini.com.br,wheelchair:limited","lat":-27.0997536,"lng":-52.6133287},{"id":"2486845386","name":"Cantina Galpão","tags":"addr:street:Avenida Getúlio Vargas - N,amenity:restaurant,operator:Galpão Grill,stars:4","lat":-27.0928473,"lng":-52.6179279},{"id":"2494511247","name":"Caixa Econômica Federal - Agência Condá","tags":"addr:street:Rua Rui Barbosa - E,amenity:bank,atm:yes","lat":-27.1015885,"lng":-52.6113487},{"id":"2609910681","name":"Polícia Civil - Delegacia de Proteção à Criança, Adolescente, Mulher e Idoso","tags":"addr:housenumber:73,addr:street:Rua Comandante Carlos Gonçalves Pinho,amenity:police,operator:Polícia Civil de Santa Catarina,short_name:Polícia Civil - DPCAMI","lat":-27.1043499,"lng":-52.6155266},{"id":"2725781526","name":"Banco do Brasil","tags":"addr:housenumber:99,addr:postcode:89809-450,addr:street:Servidão Ferdinando Ricieri Tussetti,addr:suburb:Jardins,amenity:bank,atm:yes,brand:Banco do Brasil,brand:wikidata:Q610817,brand:wikipedia:en:Banco do Brasil,description:Agência 3542 - Bairro São Cristóvão,email:age3542@bb.com.br,opening_hours:Mo-Fr 11:00-16:00,operator:Banco do Brasil S/A,phone:+55-49-3328-6788,short_name:BB","lat":-27.0944557,"lng":-52.6375387},{"id":"3406572292","name":"Restaurante Francescon","tags":"addr:city:Chapecó,addr:housenumber:311,addr:street:Rua Benjamin Constant - D,addr:suburb:Centro,amenity:restaurant,cuisine:regional,phone:+55-49-3323-3554,smoking:no","lat":-27.0983776,"lng":-52.6128016},{"id":"3731874681","name":"Royal Presidente Médici","tags":"addr:street:Rua Sete de Setembro - D,addr:suburb:Presidente Médici,shop:supermarket","lat":-27.0936703,"lng":-52.6102462},{"id":"3770926225","name":"Nativa Churrascaria","tags":"addr:city:Chapecó,addr:housenumber:1510,addr:postcode:89803-000,addr:street:Avenida Fernando Machado - D,addr:suburb:Centro,amenity:restaurant,cuisine:steak_house,opening_hours:Tu-Su 11:00-14:00,19:00-23:00; Mo 11:00-14:00,phone:+55 49 3328-1040","lat":-27.0919835,"lng":-52.6195165},{"id":"3832576187","name":"Soka Lanchonete e Restaurante","tags":"addr:housenumber:1548,addr:street:Avenida Getúlio Vargas - N,amenity:restaurant,contact:instagram:https://www.instagram.com/restaurantesoka/,contact:phone:+55 49 3322-3486,cuisine:sandwich;regional;burger,outdoor_seating:yes","lat":-27.0913455,"lng":-52.6177959},{"id":"3881850135","name":"Farmácias São Rafael","tags":"addr:city:Chapecó,addr:street:Rua Borges de Medeiros - E,addr:suburb:Passo dos Fortes,amenity:pharmacy,healthcare:pharmacy","lat":-27.083603,"lng":-52.6123588},{"id":"3882237284","name":"IV's Perfumes","tags":"addr:housenumber:54,addr:postcode:89802-140,addr:street:Rua Marechal Deodoro da Fonseca - D,email:atendimento@ivsperfumes.com.br,phone:+55-49-3329-7882,shop:beauty,website:http://www.ivsperfumes.com.br","lat":-27.1004669,"lng":-52.6149636},{"id":"3889442126","name":"Dezessete Petiscaria & Restaurante","tags":"addr:housenumber:481,addr:street:Avenida Porto Alegre - D,amenity:restaurant,cuisine:seafood;regional,microbrewery:no,outdoor_seating:yes,phone:+55-49-3323-9161,smoking:no,wheelchair:limited","lat":-27.1014184,"lng":-52.6189991},{"id":"3902359525","name":"Caixa Econômica Federal","tags":"addr:street:Avenida Fernando Machado - D,amenity:bank,atm:yes,brand:Caixa","lat":-27.0738169,"lng":-52.6266104},{"id":"3995666591","name":"Farmácia São João","tags":"addr:city:Chapecó,addr:street:Rua Borges de Medeiros - E,addr:suburb:Passo dos Fortes,amenity:pharmacy,brand:Farmácia São João,healthcare:pharmacy","lat":-27.0860959,"lng":-52.6115913},{"id":"3995666593","name":"Mercado Economia","tags":"shop:supermarket","lat":-27.0856,"lng":-52.6114114},{"id":"4002604597","name":"Correios Desbravador","tags":"addr:housenumber:1277,addr:postcode:89801-974,addr:street:Rua Rui Barbosa - E,amenity:post_office,description:Agência de Correios Franqueada,opening_hours:Mo-Fr 08:30-17:30,phone:+55-49-3323-4050;+55-49-3329-5932;+55-49-3329-2835,wheelchair:yes","lat":-27.0929568,"lng":-52.6141163},{"id":"4003143546","name":"Supermercado Ideal","tags":"addr:street:Rua Peru,shop:supermarket","lat":-27.0782068,"lng":-52.6167401},{"id":"4009815228","name":"Cher","tags":"addr:housenumber:1349,addr:postcode:89802-002,addr:street:Avenida Getúlio Vargas - N,amenity:nightclub,phone:+55-49-3025-2525,source:url:http://www.cherchapeco.com.br/contato.php,website:http://www.cherchapeco.com.br","lat":-27.0930014,"lng":-52.617824},{"id":"4097488147","name":"Delegacia de Polícia de Fronteira","tags":"addr:housenumber:200,addr:postcode:89805-092,addr:street:Rua Lisboa,amenity:police,email:2dpchapeco@pc.sc.gov.br,operator:Polícia Civil,phone:+55-49-2049-7893,short_name:DPFRON,website:https://www.policiacivil.sc.gov.br/","lat":-27.0783557,"lng":-52.6229964},{"id":"4431337997","name":"Banco do Brasil","tags":"addr:housenumber:1801,addr:postcode:89803-000,addr:street:Avenida Fernando Machado - D,addr:suburb:São Cristóvão,amenity:bank,atm:yes,brand:Banco do Brasil,brand:wikidata:Q610817,brand:wikipedia:en:Banco do Brasil,description:Agência 5267 - 25 de Agosto,email:age5267@bb.com.br,opening_hours:Mo-Fr 11:00-16:00; PH off,operator:Banco do Brasil S/A,phone:+55-49-3323-3232,wheelchair:yes","lat":-27.0898925,"lng":-52.6206943},{"id":"4442130270","name":"Mercado João 23","tags":"addr:housenumber:750,addr:street:Rua Nicácio Portela Diniz,alt_name:Supermercado João XXIII,brand:Rede Oeste,building:yes,shop:supermarket","lat":-27.1084444,"lng":-52.6276219},{"id":"4751345242","tags":"addr:street:Rua Marechal Deodoro da Fonseca - D,leisure:fitness_centre","lat":-27.0984195,"lng":-52.6072305},{"id":"4755521545","name":"Nova Acrópole - Escola de Filosofia","tags":"addr:housenumber:343,addr:place:Nova Acrópole de Chapecó,addr:postcode:89801-400,addr:street:Rua Pará,amenity:school,phone:+55 49 3328-8903,website:https://nova-acropole.org.br/","lat":-27.099241,"lng":-52.6055332},{"id":"4760829394","name":"Restaurante Sabor e Tradição","tags":"addr:street:Rua Marechal Deodoro da Fonseca - D,amenity:restaurant","lat":-27.0986728,"lng":-52.6082862},{"id":"4784343158","name":"Correios","tags":"amenity:post_office,brand:Correios,brand:wikidata:Q3375004,brand:wikipedia:en:Correios","lat":-27.0992077,"lng":-52.6124792},{"id":"4784514121","name":"Farmácias São Rafael","tags":"addr:city:Chapecó,addr:housenumber:652,addr:street:Rua Marechal Deodoro da Fonseca - D,addr:suburb:Maria Goretti,amenity:pharmacy,healthcare:pharmacy,opening_hours:Mo-Sa 07:30-21:00; Su 09:00-12:00, 17:00-21:00,phone:+55 49 3329 3522,website:https://www.farmasaorafael.com.br/","lat":-27.0991543,"lng":-52.6090527},{"id":"4924364091","name":"Supermercado Cristo Rei","tags":"addr:housenumber:420,addr:street:Rua Ibirama,email:atendimento@supercristorei.com.br,operator:Cristo Rei Alimentos Ltda,phone:+55-49-3324-0065,shop:supermarket,website:http://www.supercristorei.com.br/","lat":-27.0710723,"lng":-52.6319389},{"id":"5144266121","name":"Fisk","tags":"addr:housenumber:40,addr:street:Rua Independência - E,amenity:school,brand:Fisk,phone:+55-49-3323-0707,start_date:2006,website:https://fiskchapeco.com.br/","lat":-27.1068328,"lng":-52.621922},{"id":"5499578841","name":"Restaurante Bar dos Bar","tags":"addr:street:Rua Marechal Deodoro da Fonseca - D,amenity:restaurant","lat":-27.0984015,"lng":-52.6071029},{"id":"5499982206","name":"Mercado Antonini","tags":"shop:supermarket","lat":-27.1065225,"lng":-52.6084963},{"id":"5499982207","name":"Farmácia Brasil Poupa Lar","tags":"addr:city:Chapecó,addr:housenumber:549,addr:street:Rua Uruguai - E,addr:suburb:Centro,amenity:pharmacy,healthcare:pharmacy","lat":-27.1064413,"lng":-52.6081368},{"id":"5499989724","name":"Bar do Galo","tags":"amenity:bar","lat":-27.1062873,"lng":-52.6074918},{"id":"5599122784","name":"Banrisul","tags":"addr:housenumber:96,addr:street:Rua Barão do Rio Branco - D,amenity:bank,brand:Banrisul,brand:wikidata:Q4857098,brand:wikipedia:en:Banrisul,drive_through:no,operator:Banco do Estado do Rio Grande do Sul S.A.,phone:+55-49-3700-6800,website:http://www.banrisul.com.br/","lat":-27.1029042,"lng":-52.6138889},{"id":"5824387351","name":"Droga Raia","tags":"addr:city:Chapecó,addr:country:BR,addr:housenumber:324,addr:postcode:89802-001,addr:street:Avenida Getúlio Vargas - S,addr:suburb:Bairro Líder,amenity:pharmacy,brand:Droga Raia,brand:wikidata:Q10357101,brand:wikipedia:pt:RaiaDrogasil,dispensing:yes,healthcare:pharmacy,opening_hours:Mo-Fr 07:00-23:00, Sa 07:00-23:00; Su 08:00-22:00,phone:+55 49 3329-2274,website:https://www.drogaraia.com.br/","lat":-27.1077127,"lng":-52.6138566},{"id":"5827145683","name":"Farmácia Popular","tags":"amenity:pharmacy,brand:Farmácia Popular,healthcare:pharmacy","lat":-27.0989476,"lng":-52.6094323},{"id":"5902446165","tags":"amenity:atm,cash_in:no,currency:BRL:yes,drive_through:no,network:MasterCard;Visa;Maestro;Cirrus;Plus;AmEx;Diners,operator:Banco24Horas","lat":-27.0954659,"lng":-52.6376168},{"id":"6286781685","name":"Atacado Machado","tags":"addr:street:Avenida São Pedro - D,shop:supermarket","lat":-27.0915584,"lng":-52.6164638},{"id":"6286781687","name":"Pizza Mais Delivery","tags":"amenity:restaurant,cuisine:pizza","lat":-27.0918843,"lng":-52.6155384},{"id":"6294506526","name":"Casa Chef","tags":"amenity:restaurant,phone:+55 49 9 9934 0390","lat":-27.0973705,"lng":-52.6084406},{"id":"6296250217","name":"Farmácia Popular","tags":"amenity:pharmacy,brand:Farmácia Popular,healthcare:pharmacy","lat":-27.0904134,"lng":-52.6115151},{"id":"6297870520","name":"Bar e Cabaré das Coleguinhas 2","tags":"amenity:bar","lat":-27.0958805,"lng":-52.6334997},{"id":"6297876535","name":"Banco Itaú","tags":"addr:housenumber:950,addr:street:Avenida São Pedro - E,amenity:bank","lat":-27.0946054,"lng":-52.6268585},{"id":"6297905507","name":"Banco Itaú","tags":"amenity:bank","lat":-27.10069,"lng":-52.6156614},{"id":"6297909307","name":"Farmácia Popular","tags":"addr:housenumber:534,addr:street:Avenida Getúlio Vargas - N,amenity:pharmacy,brand:Farmácia Popular,healthcare:pharmacy","lat":-27.1000645,"lng":-52.6153421},{"id":"6297911489","name":"Farmácia São João","tags":"amenity:pharmacy,brand:Farmácia São João,healthcare:pharmacy","lat":-27.1015798,"lng":-52.6154219},{"id":"6297911761","name":"SPfarma","tags":"addr:housenumber:280,addr:street:Rua Marechal Floriano Peixoto - L,amenity:pharmacy,healthcare:pharmacy","lat":-27.1042852,"lng":-52.6114734},{"id":"6299063093","name":"Farmácia Sesi","tags":"addr:housenumber:150,addr:street:Avenida Getúlio Vargas - N,amenity:pharmacy,healthcare:pharmacy","lat":-27.103403,"lng":-52.614436},{"id":"6299063095","name":"Farmácia São João","tags":"amenity:pharmacy,brand:Farmácia São João,healthcare:pharmacy","lat":-27.1032669,"lng":-52.6144561},{"id":"6299063100","name":"Café Catedral","tags":"addr:housenumber:100,addr:street:Avenida Getúlio Vargas - N,amenity:cafe","lat":-27.1038939,"lng":-52.6142737},{"id":"6342905601","name":"Lava Car","tags":"amenity:car_wash","lat":-27.0974855,"lng":-52.6030455},{"id":"6342905602","name":"Milliuma Preço Baixo","tags":"shop:convenience","lat":-27.0974321,"lng":-52.6027847},{"id":"6365687062","name":"CEIM Cantinho da Criança","tags":"amenity:school","lat":-27.0835526,"lng":-52.6305789},{"id":"6551042184","name":"Taquaras Bar","tags":"addr:city:Chapecó,addr:housenumber:565,addr:street:Avenida Nereu Ramos - D,addr:suburb:Centro,amenity:bar","lat":-27.1090448,"lng":-52.6107902},{"id":"6629511261","name":"Restaurante Terrace","tags":"amenity:restaurant","lat":-27.1052715,"lng":-52.6144867},{"id":"6657942969","name":"Burguer Marta Maria","tags":"addr:housenumber:200,addr:street:Rua Assis Brasil E,amenity:restaurant,phone:+55 49 3312 2240","lat":-27.1024165,"lng":-52.6054673},{"id":"6658013622","name":"Pet da Jana","tags":"addr:housenumber:46,addr:street:Rua Assis Brasil,shop:pet","lat":-27.1023331,"lng":-52.6051712},{"id":"6660460884","name":"hiperfesta","tags":"addr:street:Avenida General Osório - D,shop:supermarket","lat":-27.0967695,"lng":-52.6217788},{"id":"6660484114","name":"Centro Educacional Contemporâneo","tags":"addr:housenumber:990,addr:street:Avenida General Osório - D,amenity:school","lat":-27.0970577,"lng":-52.6213706},{"id":"6772488288","tags":"amenity:bank","lat":-27.1060067,"lng":-52.6032316},{"id":"6789234399","tags":"amenity:restaurant","lat":-27.0900552,"lng":-52.6164304},{"id":"6867060999","name":"Fonseca","tags":"amenity:restaurant","lat":-27.0848689,"lng":-52.6247706},{"id":"6867068268","name":"Panela Velha","tags":"amenity:restaurant","lat":-27.0857775,"lng":-52.6239584},{"id":"6872903508","name":"Restaurante Pimenta Preta","tags":"addr:street:Rua Uruguai,amenity:restaurant","lat":-27.1085738,"lng":-52.6161949},{"id":"6874338057","name":"Restaurante Dom Gabriel","tags":"addr:housenumber:576,addr:street:Avenida Nereu Ramos,amenity:restaurant","lat":-27.0992077,"lng":-52.6135724},{"id":"6874338675","tags":"addr:housenumber:560,addr:street:Avenida Nereu Ramos,amenity:parking","lat":-27.0994698,"lng":-52.6134757},{"id":"6874356608","name":"Restaurante Veg Tao","tags":"addr:housenumber:705,addr:street:Avenida Nereu Ramos,amenity:restaurant","lat":-27.0983714,"lng":-52.6140916},{"id":"6937445005","name":"Famintos Restaurante","tags":"amenity:restaurant","lat":-27.1029481,"lng":-52.6069039},{"id":"6955737975","name":"Galpão Grill e Pizza","tags":"addr:housenumber:1353,addr:street:Avenida Fernando Machado,amenity:restaurant,phone:+55 49 3324-6575,website:galpaogrill.com.br","lat":-27.0933838,"lng":-52.6198238},{"id":"6984900753","name":"Supermercado Mercosul","tags":"addr:city:Chapecó,addr:housenumber:312,addr:postcode:89810-090,addr:street:Rua São Francisco do Sul,phone:+55-49-3324-0221,shop:supermarket","lat":-27.0704753,"lng":-52.632215},{"id":"6992066509","name":"Basso Pet Shop","tags":"addr:housenumber:1277,addr:street:Avenida São Pedro,shop:pet","lat":-27.0962556,"lng":-52.6297653},{"id":"7023378108","name":"Farmácia Popular","tags":"addr:housenumber:614,addr:street:Avenida Fernando Machado - D,amenity:pharmacy,brand:Farmácia Popular,healthcare:pharmacy","lat":-27.0997009,"lng":-52.6176359},{"id":"7024035613","name":"Farma e Farma Popular","tags":"amenity:pharmacy,healthcare:pharmacy","lat":-27.1023518,"lng":-52.6172657},{"id":"7053379237","name":"Fratelli","tags":"amenity:restaurant","lat":-27.093375,"lng":-52.6172268},{"id":"7141852304","name":"Guarda Municipal Chapecó","tags":"addr:city:Chapecó,addr:housenumber:413,addr:postcode:89802-265,addr:street:Avenida General Osório - D,addr:suburb:Jardim Itália,amenity:police,email:guardamunicipal@chapeco.sc.gov.br,level:0,opening_hours:24/7,operator:Prefeitura Municipal de Chapecó,wheelchair:yes","lat":-27.1022427,"lng":-52.6203704},{"id":"7141852305","name":"Fiscalização de Trânsito Chapecó","tags":"addr:city:Chapecó,addr:housenumber:413,addr:postcode:89802-265,addr:street:Avenida General Osório - D,addr:suburb:Jardim Itália,amenity:police,email:transito@chapeco.sc.gov.br,level:0,operator:Prefeitura Municipal de Chapecó,wheelchair:yes","lat":-27.1022714,"lng":-52.6203647},{"id":"7141852306","name":"Vigias Municipais Chapecó","tags":"addr:city:Chapecó,addr:housenumber:413,addr:postcode:89802-265,addr:street:Avenida General Osório - D,addr:suburb:Jardim Itália,amenity:police,level:0,opening_hours:24/7,operator:Prefeitura Municipal de Chapecó,wheelchair:yes","lat":-27.1023111,"lng":-52.6203514},{"id":"7498880758","tags":"amenity:restaurant,cuisine:pizza","lat":-27.0951164,"lng":-52.610523},{"id":"7656924071","name":"Bigolin Supermercado","tags":"shop:supermarket","lat":-27.0741646,"lng":-52.6363215},{"id":"7821061154","name":"Portilho Celebrity Colors","tags":"addr:city:Chapecó,addr:housenumber:1050,addr:postcode:89801-022,addr:street:Avenida Nereu Ramos - E,addr:suburb:Centro,hairdresser:women,shop:beauty","lat":-27.0950352,"lng":-52.6147348},{"id":"7821061156","name":"Graziela Lima Estúdio de Beleza","tags":"addr:city:Chapecó,addr:housenumber:202,addr:postcode:89801-145,addr:street:Rua Sete de Setembro - D,addr:suburb:Centro,beauty:tanning,shop:beauty","lat":-27.0949466,"lng":-52.6146302},{"id":"7844734688","name":"Restaurante Bonno","tags":"addr:housenumber:448,addr:street:Rua Barão do Rio Branco - E,amenity:restaurant","lat":-27.1034942,"lng":-52.6178259},{"id":"7847772076","name":"Farmácia São Rafael","tags":"addr:street:Rua Marechal Deodoro da Fonseca - E,amenity:pharmacy,dispensing:yes,healthcare:pharmacy","lat":-27.1010498,"lng":-52.6187954},{"id":"7973729785","tags":"name:en:Fort Atacadista,shop:supermarket","lat":-27.093701,"lng":-52.6367273},{"id":"7975011015","name":"Espetiño","tags":"amenity:restaurant","lat":-27.0917351,"lng":-52.6176882},{"id":"7975011016","name":"Farmácia São Vicente","tags":"amenity:pharmacy,dispensing:yes,healthcare:pharmacy","lat":-27.0918588,"lng":-52.6176508},{"id":"7975011017","name":"Natura e Cia","tags":"shop:chemist","lat":-27.0918022,"lng":-52.6176708},{"id":"7993805232","name":"Horizonte Restaurante","tags":"amenity:restaurant","lat":-27.0906693,"lng":-52.6179853},{"id":"8089295955","name":"Maybelline","tags":"level:0,shop:beauty","lat":-27.0704329,"lng":-52.6263678},{"id":"8125188722","name":"Arcanjo Express","tags":"amenity:post_office","lat":-27.089556,"lng":-52.6168689},{"id":"8174766398","name":"Cavalli & Filhos","tags":"amenity:car_wash","lat":-27.0900848,"lng":-52.6149642},{"id":"8253186119","tags":"amenity:school","lat":-27.0975251,"lng":-52.6154225},{"id":"8368985375","name":"Showpanas Casa de Show","tags":"addr:housenumber:361,addr:street:Rua Martinho Lutero,amenity:bar","lat":-27.0854455,"lng":-52.6249674},{"id":"8636263031","name":"Biblioteca Pública Municipal Neiva Maria Andreatta Costella","tags":"amenity:library","lat":-27.0993369,"lng":-52.6169808},{"id":"8716037679","name":"Academia Olimpus","tags":"addr:city:Chapecó,addr:housenumber:06,addr:postcode:89814-470,addr:street:Avenida Fernando Machado - D,addr:suburb:Centro,leisure:fitness_centre","lat":-27.1050294,"lng":-52.6161583},{"id":"8874589168","tags":"amenity:parking","lat":-27.0977883,"lng":-52.6043207},{"id":"8986704832","name":"Camarim 62","tags":"beauty:nails;hair;eyebrow;pedicure;eyelash;massage;perfumery;makeup;haircut;balayage;highlights,contact:instagram:https://www.instagram.com/camarim_62,contact:phone:+55 49 99900-4199,opening_hours:Mo-Sa 08:00-18:00,opening_hours:covid19:open,operator:Pablo,payment:cash:yes,payment:mastercard:yes,payment:visa:yes,shop:beauty","lat":-27.105445,"lng":-52.6062826},{"id":"9503199198","name":"Restaurante Laminuta","tags":"amenity:restaurant","lat":-27.1061861,"lng":-52.617705},{"id":"9701858939","name":"Droga Raia","tags":"addr:city:Chapecó,addr:housenumber:1110,addr:street:Avenida Nereu Ramos - D,amenity:pharmacy,brand:Droga Raia,brand:wikidata:Q10357101,dispensing:yes,healthcare:pharmacy","lat":-27.1140082,"lng":-52.609905},{"id":"9847057251","name":"Farmácia Preço Popular","tags":"addr:city:Chapecó,addr:housenumber:1310,addr:street:Avenida São Pedro - E,addr:suburb:São Cristóvão,amenity:pharmacy,dispensing:yes,healthcare:pharmacy,operator:Farmácia Preço Popular","lat":-27.0958168,"lng":-52.6298797},{"id":"9973577052","name":"Instituto Embelleze","tags":"addr:city:Chapecó,addr:housenumber:900,addr:postcode:89802111,addr:street:Avenida Fernando Machado - D,addr:suburb:Centro,amenity:school","lat":-27.0973775,"lng":-52.6182928},{"id":"9973662986","name":"Revestir Acabamentos","tags":"addr:city:Chapecó,addr:housenumber:72,addr:street:Rua Guaporé - E,addr:suburb:Centro,air_conditioning:yes,internet_access:wlan,shop:convenience,stroller:yes,wheelchair:yes","lat":-27.0965296,"lng":-52.6173733}]