[{"id":"2184072201","name":"Maltaria","tags":"addr:postcode:89825-000,addr:street:Rua Amélio José Panizzi,amenity:bar","lat":-26.9587017,"lng":-52.5430558},{"id":"6193589047","name":"Sicoob","tags":"amenity:bank,brand:Sicoob,brand:wikidata:Q28679754,brand:wikipedia:pt:Sistema de Cooperativas de Crédito do Brasil","lat":-26.9540138,"lng":-52.5295626},{"id":"6193591887","name":"Rio Sul","tags":"amenity:restaurant","lat":-26.9494205,"lng":-52.5287513},{"id":"6221728650","name":"Farmácia são Rafael","tags":"amenity:pharmacy,healthcare:pharmacy","lat":-26.9558039,"lng":-52.5302801},{"id":"6371315272","tags":"amenity:restaurant,cuisine:pizza","lat":-26.9609483,"lng":-52.5347394},{"id":"6371315274","tags":"amenity:bar","lat":-26.9614121,"lng":-52.5328404},{"id":"6371315275","tags":"amenity:pharmacy,dispensing:yes,healthcare:pharmacy","lat":-26.9616894,"lng":-52.5326527},{"id":"6371315281","tags":"amenity:restaurant","lat":-26.960854,"lng":-52.5331605},{"id":"6371315283","name":"Brasão","tags":"addr:housenumber:810,addr:street:Avenida Luiz Lunardi,brand:Brasão,operator:Brasao Supermercados S/A,phone:+55-49-3353-2323,shop:supermarket,website:http://brasaosupermercados.com.br","lat":-26.9623619,"lng":-52.5340727},{"id":"6371315886","name":"Sicoob","tags":"addr:street:Rua Cândido Teston,amenity:bank,branch:Maxicrédito,brand:Sicoob,brand:wikidata:Q28679754","lat":-26.9621956,"lng":-52.5346048},{"id":"7015844006","name":"Cresol","tags":"amenity:bank,atm:yes","lat":-26.9593341,"lng":-52.5341828},{"id":"7015844009","name":"Caixa Econômica Federal","tags":"addr:housenumber:710,addr:street:Avenida Plínio Arlindo de Nes,amenity:bank,atm:yes,brand:Caixa Econômica Federal,brand:wikidata:Q835283,operator:Caixa Econômica Federal,short_name:CEF,wheelchair:limited","lat":-26.9585404,"lng":-52.5350894},{"id":"8636271459","name":"Biblioteca Pública Municipal Desembargador Alves Pedrosa","tags":"amenity:library","lat":-26.9610305,"lng":-52.5303461}]