[{"id":"2641700893","name":"Copérdia","tags":"shop:supermarket","lat":-27.0546485,"lng":-52.0868693},{"id":"2641700894","name":"Sicoob Crediauc","tags":"amenity:bank","lat":-27.0545697,"lng":-52.0866977},{"id":"2641700895","name":"Banco do Brasil","tags":"amenity:bank,brand:Banco do Brasil,brand:wikidata:Q610817,brand:wikipedia:en:Banco do Brasil","lat":-27.0530863,"lng":-52.0860459},{"id":"8626378805","name":"Hospital Doutora Izolde Dalmora","tags":"amenity:hospital,healthcare:hospital","lat":-27.0512558,"lng":-52.0870403},{"id":"8636271452","name":"Biblioteca Pública Municipal Affonso Dalmora","tags":"amenity:library","lat":-27.0517851,"lng":-52.0834875}]