[{"id":"2625118155","name":"14 Delegacia Regional de Polícia","tags":"addr:housenumber:121,addr:postcode:89700-000,addr:street:Rua Adolfo Schiavini,amenity:police,contact:phone:+55 49 3442-1750","lat":-27.2233203,"lng":-52.0168862},{"id":"2625122540","name":"Copérdia","tags":"addr:city:Concórdia,addr:housename:Supermecado Copérdia,addr:housenumber:311,addr:postcode:89700-000,addr:street:Rua Adolfo Schiavini,shop:supermarket","lat":-27.222242,"lng":-52.0161919},{"id":"2626319631","name":"Farmacia Concórdia","tags":"addr:city:Concórdia,addr:housename:Farmácia Concórdia,addr:housenumber:80,addr:postcode:89700-000,addr:street:Rua Doutor Maruri,amenity:pharmacy,healthcare:pharmacy","lat":-27.2316493,"lng":-52.0309011},{"id":"3717945525","name":"Zat Supermercados","tags":"addr:city:Concórdia,addr:housenumber:1420,addr:street:Rua Marcelino Ramos,phone:+55 49 34423715,shop:supermarket","lat":-27.2450691,"lng":-52.0226755},{"id":"4238597508","name":"Supermercado Passarela","tags":"addr:housenumber:293,addr:street:Rua Marcelino Ramos,shop:supermarket","lat":-27.2376678,"lng":-52.0296974},{"id":"5225485121","name":"Pastello","tags":"amenity:restaurant","lat":-27.2305619,"lng":-52.0214781},{"id":"5225492322","name":"Sicoob Crediauc","tags":"amenity:bank","lat":-27.2290194,"lng":-52.0202044},{"id":"5225492521","name":"Pastekolandia","tags":"amenity:restaurant","lat":-27.228605,"lng":-52.0199472},{"id":"8636271454","name":"Biblioteca Pública Municipal Júlio da Costa Neves","tags":"amenity:library","lat":-27.2331157,"lng":-52.0311262}]