[{"id":"1380813451","name":"Escola Inspetor Eurico Rauen","tags":"amenity:school","lat":-27.0140088,"lng":-51.1429366},{"id":"1701831599","name":"Terminal Urbano","tags":"amenity:bus_station,bus:yes,public_transport:station","lat":-27.0104052,"lng":-51.1504224},{"id":"2130103582","name":"Correios","tags":"amenity:post_office,brand:Correios,brand:wikidata:Q3375004,brand:wikipedia:en:Correios","lat":-27.0056323,"lng":-51.1521414},{"id":"2595967893","name":"Itaú","tags":"amenity:bank,brand:Itaú Unibanco,brand:wikidata:Q1424293,brand:wikipedia:pt:Itaú Unibanco","lat":-27.0059261,"lng":-51.1515061},{"id":"4879044580","name":"Delegacia de Polícia Civil","tags":"addr:city:Videira,addr:postcode:89560-000,addr:street:Rua Alberto Zoller,addr:suburb:Alvorada,amenity:police","lat":-27.0095273,"lng":-51.1467777},{"id":"4904122640","name":"Delegacia Regional de Polícia Civil","tags":"amenity:police","lat":-27.0066493,"lng":-51.1520385},{"id":"5379486812","name":"Sicoob","tags":"addr:city:Videira,addr:postcode:89560-000,addr:street:Rua Saul Brandalise,addr:suburb:Centro,amenity:bank,atm:yes,brand:Sicoob,brand:wikidata:Q28679754,brand:wikipedia:pt:Sistema de Cooperativas de Crédito do Brasil","lat":-27.0061455,"lng":-51.151304},{"id":"6571049879","name":"Terminal Rodoviário Irio Zardo","tags":"alt_name:Rodoviária de Videira,amenity:bus_station,bus:yes,public_transport:station","lat":-27.0253617,"lng":-51.1453374},{"id":"6574895785","name":"Banrisul","tags":"amenity:bank,brand:Banrisul,brand:wikidata:Q4857098,brand:wikipedia:en:Banrisul","lat":-27.0061755,"lng":-51.1494105},{"id":"6574898845","name":"Cresol","tags":"amenity:bank","lat":-27.0092197,"lng":-51.1466904},{"id":"6579308586","tags":"amenity:parking,parking:garage_boxes","lat":-27.0008312,"lng":-51.1418495},{"id":"6579308587","tags":"amenity:parking,parking:garage_boxes","lat":-27.0005827,"lng":-51.1416865},{"id":"6579308630","name":"Aeroclube de Videira","tags":"aeroway:aerodrome","lat":-27.0014742,"lng":-51.1487405},{"id":"6744804375","name":"Via Atacadista","tags":"shop:supermarket","lat":-26.9989356,"lng":-51.1166319}]