[{"id":"3729971054","name":"Santa Catarina","tags":"shop:supermarket","lat":-26.7806746,"lng":-51.0232097},{"id":"3729971085","name":"Farmácia Bairro Santelmo","tags":"amenity:pharmacy,healthcare:pharmacy","lat":-26.7797193,"lng":-51.0225699},{"id":"5350051397","name":"O Velho Oeste","tags":"amenity:bar","lat":-26.785297,"lng":-51.0218546},{"id":"5809558553","name":"Mercado Martinez","tags":"shop:supermarket","lat":-26.7710402,"lng":-51.0237926},{"id":"6148646785","name":"FisioEstét","tags":"phone:+55 49 3567-1312,shop:beauty","lat":-26.7824984,"lng":-51.0229594},{"id":"6148646790","name":"Pet Shop Fernando Souza","tags":"phone:+55 49 3567-5922,shop:pet","lat":-26.7782841,"lng":-51.0222352},{"id":"6148646792","name":"Clínica Veterinária Caçador","tags":"shop:pet","lat":-26.7780015,"lng":-51.0215163}]