[{"id":"1883243902","name":"Parque das Quedas","tags":"tourism:attraction","lat":-26.5512867,"lng":-52.3239544},{"id":"1910332033","name":"Avenida Beira Rio","tags":"tourism:attraction","lat":-26.5567684,"lng":-52.3303376},{"id":"2451642133","name":"Polícia Militar","tags":"addr:housenumber:2590,addr:postcode:89830-000,addr:street:Rua Nossa Senhora das Graças,amenity:police,contact:phone:+55 49 3445-4190,email:2bpm4c3p@pm.sc.gov.br,opening_hours:24/7,website:https://www.pm.sc.gov.br/","lat":-26.5665619,"lng":-52.3341007},{"id":"5266877964","name":"Restaurante Cesira","tags":"addr:street:Rua Adelar Benigni,amenity:restaurant,capacity:100,cuisine:regional,opening_hours:Mo-Fr 07:00-19:00,takeaway:yes","lat":-26.5652006,"lng":-52.3302011},{"id":"8626378786","name":"Hospital Nossa Senhora Aparecida","tags":"amenity:hospital","lat":-26.5745088,"lng":-52.328811},{"id":"8636265439","name":"Biblioteca Pública Municipal Rui Barbosa","tags":"amenity:library","lat":-26.5667071,"lng":-52.3268301}]