[{"id":"1473656664","name":"Maternidade N. Sra. da Luz","tags":"amenity:hospital,emergency:yes,healthcare:hospital","lat":-25.296806,"lng":-54.0997676},{"id":"1482435633","name":"UTFPR - Campus Medianeira","tags":"addr:postcode:85.884-000 - Caixa Postal 271,addr:street:Avenida Brasil,amenity:university,toilets:wheelchair:yes","lat":-25.3011366,"lng":-54.1148774},{"id":"1682712171","name":"Policia Militar","tags":"amenity:police","lat":-25.2997929,"lng":-54.1104794},{"id":"2507165704","name":"Mercado Lar","tags":"shop:supermarket,toilets:wheelchair:yes","lat":-25.3009284,"lng":-54.1175311},{"id":"2568495606","name":"Parque Ecológico da Frimesa","tags":"leisure:park","lat":-25.2820628,"lng":-54.1062802},{"id":"3792086999","name":"Hospital São Carlos","tags":"addr:city:medianeira,addr:housenumber:600,addr:postcode:85884000,addr:street:Avenida Brasília,amenity:hospital,dispensing:yes,healthcare:hospital,toilets:wheelchair:yes","lat":-25.2830929,"lng":-54.0972926},{"id":"4088030180","name":"COOPERFARMA","tags":"amenity:pharmacy,healthcare:pharmacy","lat":-25.3020034,"lng":-54.1171195},{"id":"6597217537","name":"CEEBJA de Medianeira","tags":"addr:city:Medianeira,addr:housenumber:2641,addr:postcode:85.884-000,addr:street:Rua Pará,addr:suburb:São Cristóvão,amenity:school,website:http://www.mdnceebjamedianeira.seed.pr.gov.br/modules/liaise/","lat":-25.2934145,"lng":-54.1010174},{"id":"6677693786","name":"Colégio Estadual Naira Fellini","tags":"addr:city:Medianeira,addr:housenumber:312,addr:postcode:85.884-000,addr:street:Rua 11,addr:suburb:Jardim Irene,amenity:school,website:http://www.mdnnairafellini.seed.pr.gov.br/modules/liaise/","lat":-25.2879093,"lng":-54.115651},{"id":"6677697076","name":"Colégio Estadual Tancredo Neves","tags":"addr:city:Medianeira,addr:housenumber:4589,addr:postcode:85.884-000,addr:street:Rua Paraná,addr:suburb:Parque Independência,amenity:school,website:http://www.mdntancredoneves.seed.pr.gov.br/modules/liaise/","lat":-25.3017476,"lng":-54.1183913},{"id":"6677701622","name":"Escola Estadual Olavo Bilac","tags":"addr:city:Medianeira,addr:housenumber:2641,addr:postcode:85.884-000,addr:street:Rua Pará,addr:suburb:São Cristóvão,amenity:school,website:http://www.mdnolavobilac.seed.pr.gov.br/modules/liaise/","lat":-25.2934666,"lng":-54.1005278},{"id":"9138296766","name":"Enjoy Academic Bar","tags":"amenity:bar","lat":-25.301917,"lng":-54.1153106},{"id":"9257637467","name":"Supermercado Lar","tags":"shop:supermarket","lat":-25.2973505,"lng":-54.1017434}]