[{"id":"2969415992","name":"Hospital Doutor Aurélio","tags":"amenity:hospital,healthcare:hospital","lat":-24.5287251,"lng":-53.2556679},{"id":"2969415993","name":"Correios","tags":"amenity:post_office,brand:Correios,brand:wikidata:Q3375004,brand:wikipedia:en:Correios","lat":-24.5268267,"lng":-53.2588276},{"id":"2969415994","name":"Supermercado Cassaro","tags":"shop:supermarket","lat":-24.5260726,"lng":-53.2586586},{"id":"2969415997","name":"Bradesco","tags":"addr:postcode:85410-000,amenity:bank,atm:yes,brand:Bradesco,brand:wikidata:Q806181,brand:wikipedia:en:Banco Bradesco","lat":-24.5272512,"lng":-53.2575321},{"id":"2969416000","name":"Banco do Brasil","tags":"addr:postcode:85410-000,amenity:bank,atm:yes,brand:Banco do Brasil,brand:wikidata:Q610817,brand:wikipedia:en:Banco do Brasil","lat":-24.5273147,"lng":-53.2565745},{"id":"2969427516","name":"Escola Jorge Nacli","tags":"amenity:school","lat":-24.5237666,"lng":-53.2599407},{"id":"2969432721","name":"Banco Itau","tags":"amenity:bank","lat":-24.5288007,"lng":-53.2563331},{"id":"2969432723","name":"Restaurante Aconchego","tags":"amenity:restaurant","lat":-24.5289789,"lng":-53.2538065},{"id":"2969432724","name":"Sicredi Nossa Terra","tags":"amenity:bank","lat":-24.5265778,"lng":-53.2606568},{"id":"2969451041","name":"Farmacia do Povo","tags":"amenity:pharmacy,healthcare:pharmacy","lat":-24.5283005,"lng":-53.2572585},{"id":"2969465087","name":"Clube Beletti","tags":"amenity:nightclub","lat":-24.5271927,"lng":-53.2514542},{"id":"4675770885","name":"Pátio de Máquinas da Prefeitura","tags":"amenity:parking","lat":-24.5277926,"lng":-53.2527125},{"id":"6281015985","name":"Restaurante Soberano","tags":"addr:housenumber:965,addr:street:Avenida São Luiz,amenity:restaurant,cuisine:brazilian,internet_access:wlan,phone:+55 45 3243 1050","lat":-24.5275361,"lng":-53.255741}]