[{"id":"3648989996","name":"Tempero Brasileiro","tags":"amenity:restaurant","lat":-24.0082645,"lng":-53.1475504},{"id":"7838256432","tags":"amenity:parking","lat":-24.0045469,"lng":-53.1472954},{"id":"8147294226","name":"Érica Corte Studio de Beleza","tags":"addr:city:Mariluz,addr:housenumber:1446,addr:postcode:87470-000,addr:street:Avenida Marília,addr:suburb:Centro,shop:beauty","lat":-24.0040604,"lng":-53.1478141},{"id":"8149979982","name":"Farmácia do SUS","tags":"amenity:pharmacy,dispensing:yes,healthcare:pharmacy","lat":-24.0034247,"lng":-53.1471237},{"id":"8151177664","name":"Salão Visual","tags":"addr:city:Mariluz,addr:postcode:87470-000,addr:street:Avenida Marília,addr:suburb:Centro,shop:beauty","lat":-24.0049117,"lng":-53.1475522},{"id":"8151466850","name":"Farmácia Santa Maria","tags":"addr:city:Mariluz,addr:housenumber:1408,addr:postcode:87470-000,addr:street:Avenida Marília,addr:suburb:Centro Cívico,amenity:pharmacy,dispensing:yes,healthcare:pharmacy","lat":-24.0073021,"lng":-53.1481745},{"id":"8185587645","name":"Caixa Aqui","tags":"addr:city:Mariluz,addr:housenumber:1718,addr:postcode:87470-000,addr:street:Avenida Marília,addr:suburb:Centro,amenity:bank,brand:Caixa Econômica Federal,brand:wikidata:Q835283,brand:wikipedia:pt:Caixa Econômica Federal","lat":-24.0085795,"lng":-53.1483202}]