[{"id":"1834760674","tags":"amenity:cafe","lat":-24.0437909,"lng":-52.3960185},{"id":"1834760678","tags":"amenity:parking","lat":-24.0442269,"lng":-52.39582},{"id":"1834929835","name":"Condor Hipermercado","tags":"addr:housenumber:371,addr:street:Avenida Perimetral Tancredo de Almeida Neves,name:pt:Hipermercado Condor,old_name:Hipermercado Big,shop:supermarket,short_name:Hiper Condor,website:https://www.condor.com.br/","lat":-24.0424497,"lng":-52.3945728},{"id":"3447170323","name":"Restaurante e Lanchonete Tio Patinhas","tags":"amenity:restaurant","lat":-24.0529438,"lng":-52.3831171},{"id":"3999531311","name":"Secretaria de Saúde","tags":"addr:street:Rua Francisco Albuquerque, 1999,amenity:hospital,healthcare:hospital,operator:A","lat":-24.0399661,"lng":-52.3832922},{"id":"5049887323","name":"Colégio Estadual","tags":"amenity:school,name:pt:Colégio Estadual","lat":-24.0422637,"lng":-52.3877673},{"id":"5049887324","tags":"amenity:pharmacy,healthcare:pharmacy","lat":-24.045163,"lng":-52.3831503},{"id":"5049887423","name":"Casa de Cultura","tags":"amenity:library,name:pt:Casa de Cultura","lat":-24.0437395,"lng":-52.3862427},{"id":"5049887424","name":"Mercado Municipal","tags":"name:pt:Mercado Municipal,shop:supermarket,toilets:wheelchair:no,wheelchair:yes","lat":-24.0448233,"lng":-52.3855214},{"id":"5050854022","name":"Paraná Supermercado","tags":"name:pt:Paraná Supermercados,shop:supermarket","lat":-24.0460679,"lng":-52.3945702},{"id":"5055012722","name":"E.E. Vinícius de Moraes","tags":"amenity:school,name:pt:E.E. Vinícius de Moraes","lat":-24.0557644,"lng":-52.4184506},{"id":"5055013121","name":"Escola Municipal Monteiro Lobato","tags":"amenity:school,name:pt:Escola Municipal Monteiro Lobato","lat":-24.0465338,"lng":-52.3983124},{"id":"5056769323","name":"Delegacia de Policia de Campo Mourão","tags":"amenity:police,name:pt:Delegacia de Policia de Campo Mourão","lat":-24.048825,"lng":-52.3870874},{"id":"5261903329","name":"Restaurante Universitário Utfpr","tags":"amenity:restaurant,cuisine:regional","lat":-24.0621952,"lng":-52.3856702},{"id":"5908330416","tags":"amenity:school","lat":-24.0493066,"lng":-52.4031861}]