[{"id":"1835364208","tags":"amenity:bar","lat":-24.0274919,"lng":-52.3640023},{"id":"1835364210","tags":"amenity:pharmacy,healthcare:pharmacy","lat":-24.0274674,"lng":-52.3645655},{"id":"1835364224","tags":"amenity:parking","lat":-24.027335,"lng":-52.3647531},{"id":"1835364226","tags":"amenity:cafe","lat":-24.0275409,"lng":-52.3640344},{"id":"1835364246","tags":"amenity:restaurant","lat":-24.0275041,"lng":-52.3639486},{"id":"5055003123","tags":"shop:supermarket","lat":-24.0008622,"lng":-52.3600066},{"id":"5056739628","name":"Colégio Estadual Professora Ivone Soares","tags":"amenity:school","lat":-24.0080127,"lng":-52.3505955},{"id":"5056775221","name":"Colégio Estadual Unidade Polo","tags":"amenity:school,name:pt:Colégio Estadual Unidade Polo","lat":-24.0327346,"lng":-52.3705735},{"id":"5056775623","name":"Escola Municipal Ethanil Bento de Assis","tags":"amenity:school,name:pt:Escola Municipal Ethanil Bento de Assis","lat":-23.9976963,"lng":-52.3639331},{"id":"5298645921","name":"Escola Municipal Ethanil Bento de Assis","tags":"amenity:school","lat":-23.9976326,"lng":-52.3632149},{"id":"5655024345","name":"Shopping Piu Bello","tags":"shop:mall","lat":-24.0379172,"lng":-52.3739326},{"id":"5655034317","name":"Shopping Paraná Família","tags":"shop:mall","lat":-24.0277652,"lng":-52.3647849},{"id":"6036585285","name":"colégio estadual professora Ivone Soares Castanharo","tags":"amenity:school","lat":-24.0073835,"lng":-52.3508788},{"id":"6644501714","name":"Health Performance & Personal Trainer","tags":"addr:city:Campo Mourão,addr:housenumber:1899,addr:postcode:87303110,addr:street:Avenida Goioerê,addr:suburb:Centro,leisure:fitness_centre","lat":-24.0376586,"lng":-52.3762017}]