[{"id":"3251971338","name":"Banco do Brasil","tags":"amenity:bank,brand:Banco do Brasil,brand:wikidata:Q610817,brand:wikipedia:en:Banco do Brasil","lat":-23.658996,"lng":-52.6076288},{"id":"4352655642","name":"Creme Café","tags":"amenity:cafe,cuisine:coffee_shop,internet_access:yes,smoking:outside","lat":-23.6481413,"lng":-52.6100573},{"id":"5283838856","name":"Praça Raposo Tavares","tags":"leisure:park","lat":-23.6590207,"lng":-52.6111709},{"id":"5283838857","name":"Praça Moraes de Barros","tags":"leisure:park","lat":-23.6594517,"lng":-52.608257},{"id":"5283838858","name":"Praça Visconde de Mauá","tags":"leisure:park","lat":-23.6653917,"lng":-52.6096792},{"id":"5283838874","name":"Praça 26 de Julho","tags":"leisure:park","lat":-23.6566556,"lng":-52.6064779},{"id":"5335029310","name":"Parque Cinturão Verde - Alpha Club","tags":"leisure:park","lat":-23.6458195,"lng":-52.6151223},{"id":"5543942101","name":"Colégio Estadual Prof. Caio Mário Moreira EFM","tags":"addr:city:Cianorte,addr:street:Rua Iguaçu,amenity:school,operator:Secretaría de Educação do Paraná","lat":-23.6804475,"lng":-52.6115264},{"id":"5544051391","name":"Terminal Urbano de Cianorte","tags":"amenity:bus_station,bus:yes,public_transport:station","lat":-23.6609852,"lng":-52.6106708},{"id":"5911998857","name":"Parque Infantil Luiza Lúcia Varella","tags":"leisure:park","lat":-23.6538369,"lng":-52.6050157}]