[{"id":"5130994517","name":"Banco Santander","tags":"addr:street:Rua Pernambuco,addr:suburb:Centro,amenity:bank,atm:yes,brand:Banco Santander,brand:en:Santander Bank,brand:es:Banco Santander,brand:wikidata:Q6496310,brand:wikipedia:es:Banco Santander,drive_through:no,name:en:Santander Bank,name:es:Banco Santander,official_name:Santander Group","lat":-23.0813036,"lng":-52.459191},{"id":"5130994519","tags":"addr:street:Rua Pernambuco,addr:suburb:Centro,addr:unit:EAD- Paranavaí,amenity:university,internet_access:wlan,operator:Unopar","lat":-23.0811469,"lng":-52.4588812},{"id":"5307484360","name":"Praça do D.E.R","tags":"addr:city:Paranavaí,addr:street:Rua Takeshi Mitsuyashu,addr:suburb:Jd Panorama,leisure:park","lat":-23.090609,"lng":-52.4476273},{"id":"5307493675","name":"Praça do Ginasio Noroestão","tags":"leisure:park","lat":-23.0879392,"lng":-52.4618891},{"id":"7868870285","name":"Raia","tags":"amenity:pharmacy,healthcare:pharmacy","lat":-23.0802977,"lng":-52.4618476},{"id":"9776948951","name":"Hospital Regional do Noroeste","tags":"amenity:hospital,operator:SUS","lat":-23.0720514,"lng":-52.464416},{"id":"9779655892","name":"CEEBJA de Paranavaí","tags":"amenity:school","lat":-23.0921749,"lng":-52.448937},{"id":"9949636369","name":"Sicredi","tags":"addr:street:Avenida Paraná,amenity:bank,atm:yes,brand:Sicredi,brand:wikidata:Q3483060,brand:wikipedia:pt:Sistema de Crédito Cooperativo","lat":-23.0795738,"lng":-52.4609841},{"id":"9957575346","tags":"amenity:car_wash","lat":-23.0861867,"lng":-52.4665611},{"id":"9957723964","name":"Posto Moringão","tags":"amenity:fuel,fuel:diesel:yes,fuel:ethanol:yes,fuel:octane_87:yes,shop:convenience","lat":-23.0772469,"lng":-52.4635624}]