[{"id":"1599526806","name":"Farmácia Nossa","tags":"amenity:pharmacy,dispensing:yes,healthcare:pharmacy","lat":-23.4327679,"lng":-51.9534343},{"id":"1599530504","name":"Fim da Picada Churrascaria & Pizzaria","tags":"addr:street:Avenida Brasil,amenity:restaurant,cuisine:steak_house;pizza","lat":-23.4261179,"lng":-51.9639009},{"id":"1599535215","name":"HSBC","tags":"amenity:bank,atm:yes","lat":-23.4232287,"lng":-51.9547378},{"id":"1600741794","name":"Martignoni Pizzaria","tags":"addr:street:Avenida Euclides da Cunha,amenity:restaurant,cuisine:pizza","lat":-23.436466,"lng":-51.9466684},{"id":"1600741807","name":"Farmácia de Manipulação","tags":"amenity:pharmacy,healthcare:pharmacy","lat":-23.4325974,"lng":-51.9537012},{"id":"1600741822","name":"Al Papone","tags":"addr:city:Maringá,amenity:restaurant,cuisine:pizza","lat":-23.4352552,"lng":-51.9561742},{"id":"1600741827","name":"Gato Amarelo","tags":"addr:street:Avenida Humaitá,amenity:bar","lat":-23.4313422,"lng":-51.9508258},{"id":"1600741832","name":"BR-3 Costelaria","tags":"addr:street:Rua José do Patrocínio,amenity:restaurant,cuisine:steak_house","lat":-23.4299444,"lng":-51.9520114},{"id":"1909473873","tags":"amenity:newsstand,shop:books","lat":-23.4262708,"lng":-51.9635566},{"id":"1909473874","tags":"access:customers,amenity:parking,fee:no,operator:Café Cremoso,parking:surface","lat":-23.4263876,"lng":-51.953589},{"id":"1909473875","tags":"amenity:parking,parking:surface","lat":-23.4264364,"lng":-51.9636795},{"id":"2104808309","name":"Banco do Brasil","tags":"amenity:bank,atm:yes,brand:Banco do Brasil,brand:wikidata:Q610817,brand:wikipedia:en:Banco do Brasil","lat":-23.4251539,"lng":-51.9619401},{"id":"2268894122","tags":"addr:street:Avenida Carlos Correia Borges,amenity:fuel,brand:Ipiranga,shop:convenience","lat":-23.4488297,"lng":-51.9541027},{"id":"2268894123","tags":"amenity:fuel,brand:Ipiranga,fuel:diesel:yes,shop:convenience","lat":-23.4437732,"lng":-51.9551291},{"id":"2319168201","name":"Colégio Estadual Juscelino Kubitschek de Oliveira","tags":"addr:street:Avenida Luiz Teixeira Mendes,amenity:school","lat":-23.4321513,"lng":-51.971974},{"id":"2348155241","name":"Pesqueiro São José","tags":"addr:city:Maringá,addr:housenumber:361A,addr:postcode:87060-305,addr:street:Rua Nair dos Santos Tavares,amenity:bar,leisure:fishing,phone:+55-44-3262-1610","lat":-23.4388413,"lng":-51.9674672},{"id":"2357937037","name":"Mesquita","tags":"addr:country:BR,addr:street:Rua Saadeddine Ali Wardeni,amenity:place_of_worship,building:church,religion:muslim","lat":-23.4411164,"lng":-51.9566541},{"id":"2358174963","name":"Baco","tags":"amenity:restaurant","lat":-23.424558,"lng":-51.9470786},{"id":"2407526837","name":"Badulaque","tags":"addr:street:Avenida Rio Branco,amenity:bar","lat":-23.4277581,"lng":-51.9551583},{"id":"2407606972","name":"Ingá Pool","tags":"access:private,leisure:sports_centre,sport:swimming","lat":-23.4329052,"lng":-51.9587057},{"id":"4143872389","name":"pizzaria la favoritta","tags":"amenity:restaurant,internet_access:wlan,website:www.pizzalafavoritta.com.br","lat":-23.4280678,"lng":-51.9527456},{"id":"4181431408","tags":"addr:housenumber:210,amenity:nightclub,email:gerencia@mpbbar.com.br,internet_access:wlan,phone:+55 44 3028 4239,website:www.mpbbar.com.br","lat":-23.4240666,"lng":-51.9506547},{"id":"4307570291","tags":"leisure:fitness_centre","lat":-23.441995,"lng":-51.9751865},{"id":"4307618001","name":"Lanches Pitty","tags":"amenity:restaurant,internet_access:wlan","lat":-23.4424133,"lng":-51.975227},{"id":"6003682404","tags":"amenity:police,police:traffic_police","lat":-23.4517472,"lng":-51.9847809}]