[{"id":"5206617927","name":"ITAÚ","tags":"addr:street:Avenida Saul Elkind,amenity:bank","lat":-23.257883,"lng":-51.1512304},{"id":"5937006069","name":"Academia ao Ar livre","tags":"leisure:fitness_centre","lat":-23.2585184,"lng":-51.1398703},{"id":"8152279517","name":"Restaurante Cozinha Brasil","tags":"addr:street:Avenida Sylvio Barros,amenity:restaurant,cuisine:barbecue;beef_bowl;brazilian,internet_access:wlan,opening_hours:Tu-Su 11:00-13:50","lat":-23.2808413,"lng":-51.1508622},{"id":"8579710581","name":"Super Muffato","tags":"addr:city:Londrina,addr:housenumber:224,addr:postcode:86079-225,addr:street:Américo Deolindo Garla,addr:suburb:Pacaembu,description:O supermercado se encontra no interior do shopping,opening_hours:Mo-Sa 09:00-22:00; Su 08:00-20:30,payment:cash:yes,payment:credit_cards:yes,payment:debit_cards:yes,phone:+55 43 33057450,shop:supermarket,website:https://www.supermuffato.com.br,wheelchair:yes","lat":-23.2859546,"lng":-51.1508706},{"id":"8579710582","name":"Farmácias Vale Verde","tags":"addr:city:Londrina,addr:housenumber:224,addr:postcode:86079-225,addr:street:Américo Deolindo Garla,addr:suburb:Pacaembu,amenity:pharmacy,description:Farmácia se encontra no interior do shopping,dispensing:yes,drive_through:no,healthcare:pharmacy,opening_hours:Mo-Sa 09:00-22:00; Su 08:00-20:30,phone:+55 43 33790619,wheelchair:yes","lat":-23.285797,"lng":-51.1514071}]