[{"id":"1639325506","name":"Antiga Estação Ferroviária de Jataizinho","tags":"public_transport:station,railway:station","lat":-23.2527929,"lng":-50.981167},{"id":"2395557666","name":"Auto Posto Água Branca","tags":"addr:street:Rodovia Melo Peixoto,amenity:fuel,brand:Ipiranga,shop:convenience","lat":-23.2587123,"lng":-50.981326},{"id":"2432339942","name":"Polícia Rodoviária Federal","tags":"amenity:police,opening_hours:24/7,operator:Polícia Rodoviária Federal,operator:wikidata:Q1158853,operator:wikipedia:pt:Polícia Rodoviária Federal,phone:+55 41 3535 2171,police:traffic_police","lat":-23.2623399,"lng":-50.9934232},{"id":"4558782587","name":"Delegacia de Polícia","tags":"amenity:police","lat":-23.2544767,"lng":-50.9778353},{"id":"5574490031","name":"Restaurante & Lanchonete Vieira","tags":"addr:city:Jataizinho,addr:postcode:86210-000,addr:street:Avenida Presidente Caetano Munhoz da Rocha,addr:suburb:Centro,amenity:restaurant","lat":-23.2585,"lng":-50.9815445},{"id":"7122171302","name":"Farmácia Popular","tags":"addr:city:Jataizinho,addr:postcode:86210-000,addr:street:Avenida Antônio Brandão de Oliveira,addr:suburb:Centro,amenity:pharmacy,dispensing:yes,healthcare:pharmacy","lat":-23.2555178,"lng":-50.9804749},{"id":"7312479318","name":"La Mestiça","tags":"addr:city:Jataizinho,addr:postcode:86210-000,addr:street:Avenida Presidente Getúlio Vargas,addr:suburb:Centro,amenity:restaurant,cuisine:chinese","lat":-23.2530217,"lng":-50.9791557},{"id":"7312547455","name":"Koushiu","tags":"addr:city:Jataizinho,addr:housenumber:22,addr:postcode:86210-000,addr:street:Avenida Benjamin Giavarina,addr:suburb:Centro,amenity:restaurant,opening_hours:11:00-15:30","lat":-23.253734,"lng":-50.9802802},{"id":"7315534770","name":"Jin Jin Wok","tags":"addr:city:Jataizinho,addr:housenumber:04,addr:postcode:86210-000,addr:street:Rua Piquiri,addr:suburb:Centro,amenity:restaurant,cuisine:asian,phone:+55 43 3259-0700,website:https://jinjinwok.com.br","lat":-23.2592267,"lng":-50.9778348},{"id":"7315534772","name":"Restaurante Uno","tags":"addr:city:Jataizinho,addr:housenumber:1093,addr:postcode:86210-000,addr:street:Avenida Antônio Brandão de Oliveira,addr:suburb:Centro,amenity:restaurant,opening_hours:10:30-14:00,phone:+55 43 3259-1435","lat":-23.2600898,"lng":-50.9767332},{"id":"7486045466","name":"RC Sabores","tags":"addr:city:Jataizinho,addr:housenumber:365,addr:postcode:86210-000,addr:street:Avenida Presidente Getúlio Vargas,addr:suburb:Centro,amenity:restaurant,cuisine:Bolo;Scoville;Salgados;Doces,opening_hours:06:00-20:00,opening_hours:covid19:06:00-20:00,phone:+55 43 3259-3502","lat":-23.2547249,"lng":-50.9815541},{"id":"7541705492","name":"Chiqui Nilza Buffet","tags":"addr:city:Jataizinho,addr:housenumber:1884,addr:postcode:86210-000,addr:street:Travessa Vicente Monteiro,addr:suburb:Centro,amenity:restaurant,cuisine:arroz;chinese;japanese;italian;scoville;feijão;ovo;miojo;macarrão,opening_hours:07:00-20:00,phone:+55 43 3259-1755,website:https://www.facebook.com/","lat":-23.2549527,"lng":-50.9802686},{"id":"7546238102","name":"Pizzaria e Pastelaria Madagascar","tags":"addr:city:Jataizinho,addr:housenumber:40,addr:postcode:86210-000,addr:street:Avenida Barão de Antonina,addr:suburb:Centro,amenity:restaurant,cuisine:pizza,opening_hours:Mo-Su 06:00-23:00,opening_hours:covid19:open,phone:+55 43 3259-0909","lat":-23.2549139,"lng":-50.9774847}]