[{"id":"9960032912","tags":"amenity:bar","lat":-23.2686327,"lng":-50.7305751},{"id":"9960054624","name":"Fazendinha","tags":"attraction:animal,tourism:attraction","lat":-23.2701249,"lng":-50.7303203},{"id":"9966112523","name":"Pesca Esportiva","tags":"tourism:attraction","lat":-23.2652198,"lng":-50.7320119},{"id":"9966112524","name":"Toboaguas","tags":"attraction:water_slide,tourism:attraction","lat":-23.2677212,"lng":-50.7306554},{"id":"9966112525","name":"Caminho dos Sentidos","tags":"name:de:Barfußpfad,tourism:attraction","lat":-23.2704101,"lng":-50.7320226},{"id":"9966112526","name":"Jardim Japonês","tags":"attraction:formal_garden,name:de:Japanischer Garten,tourism:attraction","lat":-23.2698121,"lng":-50.7316841},{"id":"9966112527","name":"Paintball","tags":"tourism:attraction","lat":-23.2709998,"lng":-50.7315356},{"id":"9966112528","name":"Arborismo","tags":"name:de:Hochseilgarten,tourism:attraction","lat":-23.2711005,"lng":-50.7317827},{"id":"9966112529","name":"Tirolesa","tags":"name:de:Seilrutsche,tourism:attraction","lat":-23.2710469,"lng":-50.7319223},{"id":"9966112530","name":"Estufas de Plantas","tags":"name:de:Gewächshäuser,tourism:attraction","lat":-23.2700847,"lng":-50.7319008}]