[{"id":"1717782321","tags":"amenity:school","lat":-27.0582129,"lng":-49.5283117},{"id":"1717782336","tags":"amenity:police","lat":-27.0521666,"lng":-49.5360111},{"id":"1717782341","tags":"amenity:parking","lat":-27.0501138,"lng":-49.5374149},{"id":"4823924025","tags":"leisure:fitness_centre","lat":-27.0618279,"lng":-49.5307467},{"id":"5636307821","name":"Adriana n 69","tags":"shop:beauty","lat":-27.0552311,"lng":-49.5415652},{"id":"5636318821","name":"Salao da Cris sn","tags":"shop:beauty","lat":-27.0593899,"lng":-49.5369127},{"id":"5637269724","name":"Fashion hair","tags":"shop:beauty","lat":-27.0645904,"lng":-49.5297172},{"id":"5637269726","name":"Sempre Bella n 105","tags":"shop:beauty","lat":-27.0577858,"lng":-49.5404475},{"id":"5702899393","name":"Jane","tags":"shop:beauty","lat":-27.0581666,"lng":-49.5381555},{"id":"6658475085","name":"UDESC Ceavi","tags":"amenity:university","lat":-27.0499853,"lng":-49.5377638},{"id":"6983054680","name":"Viacredi","tags":"amenity:bank","lat":-27.0564683,"lng":-49.5381664}]