[{"id":"2916656053","name":"Hospital OASE","tags":"amenity:hospital,healthcare:hospital","lat":-26.8262812,"lng":-49.2729885},{"id":"4548599575","name":"Kirei","tags":"description:Estética facial e corporal,shop:beauty","lat":-26.8364847,"lng":-49.2647389},{"id":"4548599576","name":"Bomsenhor","tags":"contact:phone:+55 47 3382-8557,shop:pet","lat":-26.8366138,"lng":-49.2647832},{"id":"4548599677","tags":"amenity:atm,brand:Sicoob","lat":-26.8498018,"lng":-49.263602},{"id":"4548600021","name":"Biereck","tags":"addr:housenumber:1774,addr:street:Rua Fritz Lorenz,amenity:nightclub,contact:email:biereck@tpa.com.br,contact:facebook:https://www.facebook.com/Biereck/,contact:phone:+55 47 99284-5654;+55 47 99978-8989","lat":-26.8462435,"lng":-49.2667812},{"id":"5423746247","name":"AJF Supemercado Marmormai","tags":"shop:convenience","lat":-26.826681,"lng":-49.288867},{"id":"5602552823","name":"Tedo Restaurante","tags":"addr:housenumber:782,addr:postcode:89120-000,addr:street:Rua Fritz Lorenz,amenity:restaurant,opening_hours:Sa-Su 11:00-14:00","lat":-26.8378122,"lng":-49.2654044},{"id":"5864463779","name":"Farmácia Sesi","tags":"amenity:pharmacy,healthcare:pharmacy","lat":-26.8256567,"lng":-49.2757698},{"id":"5864466622","name":"Farmácia Farmanova","tags":"amenity:pharmacy,contact:phone:+55 47 3399-0999,contact:website:http://www.farmanova.com.br,healthcare:pharmacy,opening_hours:Mo-Fr 07:00-20:00; Sa 07:00-18:00","lat":-26.8392431,"lng":-49.2734921},{"id":"5864468997","name":"Farmácia Preço Popular","tags":"amenity:pharmacy,healthcare:pharmacy","lat":-26.8247361,"lng":-49.276319},{"id":"5864471117","name":"Farmácia Unirede","tags":"amenity:pharmacy,healthcare:pharmacy","lat":-26.826972,"lng":-49.2706461},{"id":"6219877213","name":"Viacredi","tags":"amenity:bank,atm:yes","lat":-26.8465217,"lng":-49.2665818},{"id":"6219877214","name":"Correios","tags":"amenity:post_office","lat":-26.8465863,"lng":-49.2668138},{"id":"7344847014","name":"Unicred","tags":"amenity:bank","lat":-26.8259695,"lng":-49.2750846},{"id":"7344847019","name":"Sicoob MaxiCrédito","tags":"amenity:bank,brand:Sicoob,brand:wikidata:Q28679754,brand:wikipedia:pt:Sistema de Cooperativas de Crédito do Brasil","lat":-26.8211991,"lng":-49.2770095},{"id":"7344847024","name":"Sicoob Euro Vale","tags":"amenity:bank,brand:Sicoob,brand:wikidata:Q28679754,brand:wikipedia:pt:Sistema de Cooperativas de Crédito do Brasil","lat":-26.8138003,"lng":-49.2715966},{"id":"7344852403","name":"São João","tags":"amenity:pharmacy,healthcare:pharmacy","lat":-26.8234965,"lng":-49.2769656},{"id":"8636271173","name":"Biblioteca Pública Municipal Professor Péricles Prade","tags":"amenity:library","lat":-26.8225881,"lng":-49.2763069},{"id":"9826798558","name":"Conveniência D'Hora","tags":"shop:convenience","lat":-26.8245663,"lng":-49.2763518},{"id":"9826817936","name":"Academia T2","tags":"leisure:fitness_centre,opening_hours:Mo-Fr 06:00-24:00; Sa 09:00-14:00, Su 17:00-19:00,phone:+55 47 3380-1444,sport:gymnastics","lat":-26.8191722,"lng":-49.2777868},{"id":"6219877215","name":"Popular","tags":"amenity:pharmacy,healthcare:pharmacy,operator:Drogarias Farmagnus","lat":-26.8468483,"lng":-49.2664075},{"id":"6219878055","name":"Energy Fitness","tags":"leisure:fitness_centre,sport:fitness","lat":-26.8469656,"lng":-49.2666717}]