[{"id":"4660230372","name":"Agropecuária","tags":"shop:pet,trade:agricultural_supplies","lat":-27.9608361,"lng":-48.6747187},{"id":"4660307691","name":"Delegacia de Polícia Civil de Paulo Lopes","tags":"addr:city:Paulo Lopes,addr:postcode:88490-000,addr:street:Rua Tobias Raupp de Sá,addr:suburb:Areias,amenity:police","lat":-27.9603126,"lng":-48.6760971},{"id":"4660348932","name":"Salão de Beleza Liliane Raupp","tags":"shop:beauty","lat":-27.9605921,"lng":-48.6770529},{"id":"4660390669","name":"Agência dos Correios","tags":"amenity:post_office","lat":-27.9635389,"lng":-48.6826618},{"id":"6193596640","name":"Farmácia Areias","tags":"amenity:pharmacy,building:yes,drive_through:no","lat":-27.9608588,"lng":-48.6746726},{"id":"8626864667","name":"Igreja Matriz do Sagrado Coração de Jesus","tags":"amenity:place_of_worship,building:church,denomination:roman_catholic,religion:christian","lat":-27.9623353,"lng":-48.683031},{"id":"8636267133","name":"Biblioteca Pública Municipal Bertoldo Ernesto dos Santos","tags":"amenity:library","lat":-27.965193,"lng":-48.681675}]