[{"id":"4643158103","tags":"amenity:pharmacy","lat":-28.0701374,"lng":-48.663234},{"id":"4645720341","tags":"amenity:restaurant","lat":-28.0672007,"lng":-48.6626612},{"id":"4660390094","name":"Bali Hai Garopaba","tags":"amenity:nightclub,website:http://www.balihai.com.br/","lat":-28.0564984,"lng":-48.653782},{"id":"6182049205","name":"Estacionamento Cascata da Encantada","tags":"amenity:parking","lat":-28.0615747,"lng":-48.6799961},{"id":"6182049407","name":"Pedra Branca","tags":"tourism:attraction","lat":-28.050129,"lng":-48.6680442},{"id":"6182049453","name":"Estacionamento Pedra Branca","tags":"amenity:parking","lat":-28.0522949,"lng":-48.672329},{"id":"8493336551","name":"Escola Municipal Paula Martins","tags":"amenity:school","lat":-28.0463796,"lng":-48.6487907}]