[{"id":"2154683812","name":"Polícia Militar","tags":"amenity:police","lat":-28.0257638,"lng":-48.626035},{"id":"2632430231","name":"Pizzaria A Portenha","tags":"addr:housenumber:308,addr:street:Rua Prefeito João Orestes de Araújo,amenity:restaurant,cuisine:pizza","lat":-28.025217,"lng":-48.6200412},{"id":"2632431180","name":"Al Garve","tags":"amenity:restaurant","lat":-28.0241203,"lng":-48.6202515},{"id":"4446441105","tags":"shop:convenience","lat":-28.0215756,"lng":-48.6274575},{"id":"4446465590","name":"Terminal Rodoviário de Garopaba","tags":"amenity:bus_station,bus:yes,public_transport:station","lat":-28.0273061,"lng":-48.6282717},{"id":"4643126272","name":"Chocolate Artesanal Garopaba","tags":"amenity:cafe,cuisine:coffee_shop","lat":-28.0035999,"lng":-48.6402691},{"id":"4643158087","name":"Vere Pizza","tags":"amenity:restaurant,cuisine:pizza","lat":-28.034355,"lng":-48.6234944},{"id":"4643162215","name":"Caixa Econômica Federal","tags":"amenity:bank,brand:Caixa,operator:Caixa Econômica Federal,operator:wikidata:Q835283,operator:wikipedia:pt:Caixa Econômica Federal,short_name:CEF","lat":-28.0259696,"lng":-48.6185953},{"id":"4643162217","name":"Agafarma","tags":"amenity:pharmacy,healthcare:pharmacy","lat":-28.0269793,"lng":-48.6188134},{"id":"4643162226","name":"Preço Popular","tags":"amenity:pharmacy,healthcare:pharmacy","lat":-28.0280589,"lng":-48.6208505},{"id":"4643167817","name":"Santorini","tags":"addr:street:Rua Francisco Pacheco de Souza,amenity:restaurant,cuisine:pizza","lat":-28.0262967,"lng":-48.6238048},{"id":"4644136581","tags":"amenity:car_wash","lat":-28.0349216,"lng":-48.6230788},{"id":"4644136582","name":"Garopaba","tags":"amenity:pharmacy,healthcare:pharmacy","lat":-28.0283067,"lng":-48.6205723},{"id":"4644136583","name":"Panvel","tags":"amenity:pharmacy,brand:Panvel,brand:wikidata:Q10344254,brand:wikipedia:pt:Panvel,healthcare:pharmacy","lat":-28.0280915,"lng":-48.6205179},{"id":"4645720355","tags":"amenity:restaurant","lat":-28.0368916,"lng":-48.6232448},{"id":"4645720367","name":"São João","tags":"amenity:pharmacy,brand:São João,brand:wikidata:Q62663306,healthcare:pharmacy","lat":-28.0304808,"lng":-48.6211351},{"id":"4652816256","tags":"amenity:parking","lat":-28.0228646,"lng":-48.6201795},{"id":"4787393172","name":"Shirahama Sushi","tags":"amenity:restaurant,cuisine:japanese","lat":-28.0239665,"lng":-48.6136759},{"id":"4787393173","name":"Sorveteira e Pastelaria Lucas","tags":"amenity:restaurant","lat":-28.0237807,"lng":-48.6143347},{"id":"5320732151","name":"Banco do Brasil","tags":"amenity:bank,brand:Banco do Brasil,brand:wikidata:Q610817,brand:wikipedia:en:Banco do Brasil","lat":-28.0263691,"lng":-48.6181029},{"id":"5320732675","name":"Banrisul Agência Garopaba","tags":"amenity:bank","lat":-28.0292448,"lng":-48.6195812},{"id":"6182048438","name":"O Pastelão","tags":"amenity:restaurant","lat":-28.0231202,"lng":-48.613185},{"id":"6182048439","name":"Casa do Padre","tags":"amenity:restaurant","lat":-28.0239452,"lng":-48.6134304},{"id":"6182048661","name":"Estacionamento Silveira Norte","tags":"amenity:parking","lat":-28.0365727,"lng":-48.607327},{"id":"6184097235","tags":"amenity:parking","lat":-28.0196832,"lng":-48.6104572},{"id":"6184106141","name":"Dunas do Siriú","tags":"tourism:attraction","lat":-28.009269,"lng":-48.638792},{"id":"6187058553","tags":"amenity:parking","lat":-28.0181938,"lng":-48.6349525},{"id":"6992631146","tags":"amenity:school","lat":-28.0073027,"lng":-48.6412236},{"id":"8427460543","name":"Sicredi","tags":"amenity:bank,brand:Sicredi,brand:wikidata:Q3483060,brand:wikipedia:pt:Sistema de Crédito Cooperativo","lat":-28.026939,"lng":-48.6207025},{"id":"9610006199","tags":"amenity:parking","lat":-28.0235093,"lng":-48.6140067},{"id":"4787393170","name":"Casa do Padre","tags":"amenity:restaurant,tourism:viewpoint","lat":-28.0237402,"lng":-48.6134917},{"id":"9609312572","name":"Cabocla Bistrô","tags":"amenity:restaurant","lat":-28.0235552,"lng":-48.6136448}]