[{"id":"6327147685","name":"Cantinho da Natureza","tags":"amenity:restaurant","lat":-27.7142614,"lng":-48.7434403},{"id":"6385639789","name":"Banco do Brasil","tags":"amenity:bank,brand:Banco do Brasil,brand:wikidata:Q610817,brand:wikipedia:en:Banco do Brasil,short_name:BB","lat":-27.6866221,"lng":-48.7768437},{"id":"6385639791","name":"Bradesco","tags":"amenity:bank,brand:Bradesco,brand:wikidata:Q806181,brand:wikipedia:en:Banco Bradesco","lat":-27.6873042,"lng":-48.7772412},{"id":"6386066014","name":"Farmácia do Povo","tags":"amenity:pharmacy,dispensing:yes,healthcare:pharmacy","lat":-27.6869019,"lng":-48.7769334},{"id":"6386066020","name":"Biblioteca Pública Municipal Professora Maria do Carmo","tags":"amenity:library","lat":-27.6860071,"lng":-48.7775799},{"id":"6386145756","name":"Colégio Ideologia","tags":"amenity:school","lat":-27.6893869,"lng":-48.7750129},{"id":"7707465871","name":"Mercado Dalvino","tags":"shop:convenience","lat":-27.6912374,"lng":-48.7353919},{"id":"7707465873","name":"Farmácia Sul do Rio","tags":"amenity:pharmacy,dispensing:yes,healthcare:pharmacy","lat":-27.6917365,"lng":-48.735696},{"id":"8310068181","name":"Farmácia do Paulinho","tags":"amenity:pharmacy,dispensing:yes,healthcare:pharmacy","lat":-27.6901811,"lng":-48.7781878}]