[{"id":"2035067748","name":"Posto Correio Forquilhinhas","tags":"amenity:post_office","lat":-27.6009499,"lng":-48.6402892},{"id":"2069035298","tags":"amenity:parking","lat":-27.6027947,"lng":-48.6066864},{"id":"3401993527","tags":"leisure:sports_centre","lat":-27.6061966,"lng":-48.6267045},{"id":"3402374645","tags":"amenity:car_wash","lat":-27.6109655,"lng":-48.6429737},{"id":"3402374646","tags":"leisure:sports_centre","lat":-27.6104093,"lng":-48.6428503},{"id":"3798599019","name":"Petco","tags":"shop:pet","lat":-27.6002091,"lng":-48.6412755},{"id":"3798599021","name":"Savaris","tags":"amenity:pharmacy,healthcare:pharmacy","lat":-27.5983812,"lng":-48.642689},{"id":"3798599022","name":"Preço Popular","tags":"amenity:pharmacy","lat":-27.5977846,"lng":-48.6424288},{"id":"3798599023","name":"Josiane","tags":"addr:street:Rua Vereador Arthur Manoel Mariano,amenity:pharmacy,healthcare:pharmacy","lat":-27.6009151,"lng":-48.6409885},{"id":"3798599024","name":"Caixa Forquilhinhas","tags":"addr:city:São José,addr:housenumber:959,addr:postcode:88106-501,addr:street:Rua Vereador Arthur Manoel Mariano,addr:suburb:Forquilhinhas,amenity:bank,atm:yes,brand:Caixa,opening_hours:Mo-Fr 10:00-15:00; Sa,Su,PH off,operator:Caixa Econômica Federal,operator:short:CEF,operator:type:public,operator:wikidata:Q835283,operator:wikipedia:pt:Caixa Econômica Federal","lat":-27.6005086,"lng":-48.6415169},{"id":"3802016629","name":"Agência dos Correios","tags":"addr:housenumber:38,addr:postcode:88101-100,addr:street:Avenida Presidente Kennedy,amenity:post_office,contact:phone:+55 48 3247-9660","lat":-27.6013797,"lng":-48.6153153},{"id":"3843885023","tags":"amenity:parking","lat":-27.6029678,"lng":-48.607711},{"id":"3843885024","tags":"amenity:parking","lat":-27.6026279,"lng":-48.608851},{"id":"4028550070","name":"Banrisul","tags":"amenity:bank,atm:yes,brand:Banrisul,brand:wikidata:Q4857098,brand:wikipedia:en:Banrisul","lat":-27.6003012,"lng":-48.613741},{"id":"4775209219","name":"Universidade do Vale do Itajaí","tags":"addr:city:São José,addr:housenumber:Km 207,addr:postcode:88102-460,addr:street:BR-101,addr:suburb:Kobrasol,alt_name:Campus Univali Kobrasol,amenity:university,internet_access:yes,internet_access:ssid:Univali,phone:+55 48 3211-2005,short_name:Univali,website:https://univali.br/,wheelchair:yes","lat":-27.5978943,"lng":-48.6198211},{"id":"5630853496","name":"Empório Original","tags":"amenity:nightclub,website:http://emporiooriginal.com.br","lat":-27.6139349,"lng":-48.6453366},{"id":"6363346430","name":"Bistek","tags":"opening_hours:Mo-Sa 09:30-22:00; Su,PH 12:00-21:00,phone:+55 48 3094 9015,shop:supermarket,website:https://www.bistek.com.br/","lat":-27.614032,"lng":-48.6449869},{"id":"6363356091","name":"Bradesco","tags":"amenity:bank,atm:yes,brand:Bradesco,brand:wikidata:Q806181,brand:wikipedia:en:Banco Bradesco,drive_through:no,phone:+55 48 3094 9290","lat":-27.6141984,"lng":-48.6455931},{"id":"8836580168","name":"Mini Mercado Milto","tags":"addr:postcode:88104-400,addr:street:Rua Antônio Alfredo da Silva,addr:suburb:Fazenda Santo Antônio,shop:convenience","lat":-27.6175551,"lng":-48.6384797},{"id":"8836580171","name":"Mercado Luciana","tags":"addr:street:Rua Pedro Mayvorne,shop:convenience","lat":-27.6191386,"lng":-48.6410255},{"id":"8836580172","name":"Farmácia Fazenda","tags":"amenity:pharmacy,dispensing:yes,healthcare:pharmacy","lat":-27.6195806,"lng":-48.6410604},{"id":"9045345049","name":"Stetic Motos","tags":"amenity:car_wash,motorcycle:yes","lat":-27.6003049,"lng":-48.605428},{"id":"9045345050","name":"Sens Pet Shop","tags":"shop:pet","lat":-27.6002633,"lng":-48.6051223},{"id":"9074668156","name":"Padaria Cafeteria e Mercearia Josiane","tags":"shop:convenience","lat":-27.6221495,"lng":-48.6365604},{"id":"9074668157","name":"Mercado Fazenda","tags":"shop:convenience","lat":-27.622329,"lng":-48.6362533},{"id":"9758232474","name":"Biblioteca Pública Municipal Albertina Ramos de Araújo","tags":"access:yes,amenity:library,operator:Prefeitura Municipal de São José,operator:type:public,start_date:1877","lat":-27.6154654,"lng":-48.6278379},{"id":"10032115174","name":"Vênus Clínica de Depilação","tags":"addr:door:405,beauty:hair_removal,contact:instagram:depilvenus,contact:phone:+55 48 99183-5055,contact:website:https://venusdepil.negocio.site/,level:4,opening_hours:Tu-Fr 10:00-20:00; Sa 10:00-16:00; Mo,Su off,shop:beauty","lat":-27.60098,"lng":-48.6069448}]