[{"id":"6327147685","name":"Cantinho da Natureza","tags":"amenity:restaurant","lat":-27.7142614,"lng":-48.7434403},{"id":"6385639789","name":"Banco do Brasil","tags":"amenity:bank,brand:Banco do Brasil,brand:wikidata:Q610817,brand:wikipedia:en:Banco do Brasil,short_name:BB","lat":-27.6866221,"lng":-48.7768437},{"id":"6385639791","name":"Bradesco","tags":"amenity:bank,brand:Bradesco,brand:wikidata:Q806181,brand:wikipedia:en:Banco Bradesco","lat":-27.6873042,"lng":-48.7772412},{"id":"6386066014","name":"Farmácia do Povo","tags":"amenity:pharmacy,dispensing:yes,healthcare:pharmacy","lat":-27.6869019,"lng":-48.7769334},{"id":"6386066020","name":"Biblioteca Pública Municipal Professora Maria do Carmo","tags":"amenity:library","lat":-27.6860071,"lng":-48.7775799},{"id":"6386145756","name":"Colégio Ideologia","tags":"amenity:school","lat":-27.6893869,"lng":-48.7750129},{"id":"7707465871","name":"Mercado Dalvino","tags":"shop:convenience","lat":-27.6912374,"lng":-48.7353919},{"id":"7707465873","name":"Farmácia Sul do Rio","tags":"amenity:pharmacy,dispensing:yes,healthcare:pharmacy","lat":-27.6917365,"lng":-48.735696},{"id":"8310068181","name":"Farmácia do Paulinho","tags":"amenity:pharmacy,dispensing:yes,healthcare:pharmacy","lat":-27.6901811,"lng":-48.7781878},{"id":"10576651696","tags":"leisure:fitness_centre","lat":-27.6885958,"lng":-48.7623969},{"id":"10577052325","name":"Pet Shop Bichos & Mimos","tags":"addr:city:Santo Amaro da Imperatriz,addr:housenumber:1380,addr:postcode:88140-000,addr:street:Rua João Jacinto Machado,addr:suburb:Sul do Rio,opening_hours:Mo-Fr 08:00-18:00,phone:+55 48 3245-1082,shop:pet","lat":-27.6887122,"lng":-48.7634897},{"id":"10577056845","name":"Pizzaria & Lanchonete JA","tags":"addr:city:Santo Amaro da Imperatriz,addr:housenumber:51,addr:postcode:88140-000,addr:street:Rua Presidente Coutinho,addr:suburb:Vila Becker,amenity:restaurant,brewery:various;yes,cuisine:pizza;burger;regional;american,diet:meat:yes,internet_access:yes,opening_hours:Tu-Sa 18:00-00:00,phone:+55 48 3245-3753","lat":-27.6858666,"lng":-48.7651192},{"id":"10577991436","name":"Raquel Beauty","tags":"addr:city:Santo Amaro da Imperatriz,addr:postcode:88140-000,addr:street:Rua João Jacinto Machado,addr:suburb:Sul do Rio,beauty:nails,shop:beauty","lat":-27.6913365,"lng":-48.7762156},{"id":"10578009555","name":"Mercado Dalvino","tags":"addr:city:Santo Amaro da Imperatriz,addr:housenumber:598,addr:postcode:88140-000,addr:street:Rua João Jacinto Machado,addr:suburb:Sul do Rio,opening_hours:Mo-Fr 07:30-20:00,phone:+55 48 3245-2517,shop:supermarket","lat":-27.6880589,"lng":-48.7719113},{"id":"10578009558","name":"Studio de Beleza Rafaela Bittencourt","tags":"addr:city:Santo Amaro da Imperatriz,addr:housenumber:39,addr:postcode:88140-000,addr:street:Rua Nossa Senhora das Dores,addr:suburb:Sul do Rio,beauty:hair,opening_hours:Mo-Fr 08:00-22:00,phone:+55 48 99652-6699,shop:beauty","lat":-27.6887166,"lng":-48.761669},{"id":"10578009559","name":"Eli Unhas & Cia","tags":"addr:city:Santo Amaro da Imperatriz,addr:postcode:88140-000,addr:street:Servidão Zulma Becker de Freitas,addr:suburb:Sul do Rio,beauty:nails,shop:beauty","lat":-27.6895863,"lng":-48.7622889},{"id":"10578009579","name":"Studio de Beleza Janaina Abreu","tags":"addr:city:Santo Amaro da Imperatriz,addr:postcode:88140-000,addr:street:Rua São Sebastião,addr:suburb:Sul do Rio,opening_hours:Tu-Fr 09:00-18:00,operator:Janaina Abreu,phone:+55 48 99805-9033,shop:beauty","lat":-27.6878874,"lng":-48.7575026},{"id":"10578979071","name":"Maria e Maria Salão de Beleza","tags":"addr:city:Santo Amaro da Imperatriz,addr:housenumber:3120,addr:postcode:88140-000,addr:street:Rua São Sebastião,addr:suburb:Sul do Rio,shop:beauty","lat":-27.693348,"lng":-48.7466523},{"id":"10580071183","name":"Farmácia Popular","tags":"addr:city:Santo Amaro da Imperatriz,addr:housenumber:76,addr:postcode:88140-000,addr:street:Rua Longino José Turnes,addr:suburb:Sul do Rio,amenity:pharmacy,dispensing:yes,healthcare:pharmacy,opening_hours:Mo-Fr 07:30-21:00,operator:Farmácia Popular","lat":-27.691247,"lng":-48.7353659},{"id":"10582463642","name":"Restaurante do Zinho","tags":"addr:city:Santo Amaro da Imperatriz,addr:housenumber:5527,addr:postcode:88140-000,addr:street:Rua Prefeito José Kehrig,addr:suburb:Centro,amenity:restaurant,cuisine:regional,opening_hours:Mo-Fr 11:00-14:00","lat":-27.6870273,"lng":-48.7769202},{"id":"10582463653","name":"Sabores & Saberes","tags":"addr:city:Santo Amaro da Imperatriz,addr:postcode:88140-000,addr:street:Rua Prefeito José Kehrig,addr:suburb:Centro,amenity:cafe,cuisine:coffee_shop,internet_access:wlan,internet_access:fee:customers,outdoor_seating:no","lat":-27.6874555,"lng":-48.7771889},{"id":"10582463659","name":"Farmácia São João","tags":"addr:city:Santo Amaro da Imperatriz,addr:housenumber:5567,addr:postcode:88140-000,addr:street:Rua Prefeito José Kehrig,addr:suburb:Centro,amenity:pharmacy,brand:Farmácia São João,brand:wikidata:Q65164556,dispensing:yes,healthcare:pharmacy,opening_hours:Mo-Su 07:30-22:00,operator:Farmácia São João","lat":-27.687447,"lng":-48.777068},{"id":"10582463671","name":"Preço Popular","tags":"addr:city:Santo Amaro da Imperatriz,addr:housenumber:5627,addr:postcode:88140-000,addr:street:Rua Prefeito José Kehrig,addr:suburb:Centro,amenity:pharmacy,healthcare:pharmacy,opening_hours:Mo-Sa 07:30-22:00,operator:Preço Popular","lat":-27.6880672,"lng":-48.7772088},{"id":"10584829348","name":"Santo Restaurante e Bar","tags":"addr:city:Santo Amaro da Imperatriz,addr:housenumber:5893,addr:postcode:88140-000,addr:street:Rua Prefeito José Kehrig,addr:suburb:Centro,amenity:restaurant","lat":-27.6902008,"lng":-48.7782713}]