[{"id":"4553220766","tags":"amenity:pharmacy,healthcare:pharmacy","lat":-27.3232317,"lng":-48.5417499},{"id":"4622653292","name":"Arvoredo","tags":"shop:supermarket","lat":-27.3224679,"lng":-48.5448652},{"id":"4622662689","name":"Quiosque Praia de Palmas","tags":"amenity:restaurant,source:date:2017-04-30","lat":-27.3236626,"lng":-48.5393701},{"id":"4635913491","name":"Arvoredo Café","tags":"amenity:cafe","lat":-27.3229922,"lng":-48.5427785},{"id":"4640601704","name":"Escola Municipal Prefeito João Baldança Sobrinho","tags":"amenity:school,short_name:E. M. Pref. João Baldança Sobrinho","lat":-27.3333072,"lng":-48.5454908},{"id":"4829657432","name":"Banco do Brasil","tags":"amenity:bank,brand:Banco do Brasil,brand:wikidata:Q610817,brand:wikipedia:en:Banco do Brasil,source:date:2017-04-30","lat":-27.314286,"lng":-48.5533433},{"id":"4829667840","name":"Restaurante Edu","tags":"amenity:restaurant,phone:+55 48 3262-0061","lat":-27.3072896,"lng":-48.5491875},{"id":"8636271161","name":"Biblioteca Pública Municipal Alice Maria Roque","tags":"amenity:library","lat":-27.3145683,"lng":-48.5544422}]