[{"id":"426938400","name":"Posto 4 Ilhas","tags":"addr:street:Avenida Governador Celso Ramos,amenity:fuel,brand:Ipiranga,shop:convenience","lat":-27.1588096,"lng":-48.5677094},{"id":"3139260571","name":"Posto Canaã","tags":"addr:street:Avenida Governador Celso Ramos,amenity:fuel,brand:Independent,operator:Postos Tio Hugo,shop:convenience","lat":-27.1596281,"lng":-48.601015},{"id":"4705484590","name":"El Fortin Club","tags":"addr:housenumber:100,addr:street:Rua Izidoro Bernadino Batista,amenity:nightclub,contact:email:contato@elfortinclub.com,contact:facebook:https://www.facebook.com/elfortinclubportobelo,contact:phone:+55 47 99263-1311;+55 47 99967-9193,contact:website:http://elfortinclub.com.br/,reservation:yes","lat":-27.1676636,"lng":-48.5719886},{"id":"7702519706","name":"Recanto do Amanhecer","tags":"amenity:cafe","lat":-27.1583189,"lng":-48.5950921},{"id":"7761366401","name":"CEPAVI","tags":"access:private,alt_name:Colégio Associação do Vale do Itajaí,amenity:school,contact:email:contato@colegiocepavi.com.br,contact:phone:+55 47 3369-9543,contact:website:https://colegiocepavi.com.br/,operator:Centro Educacional Porto das Águas,operator:type:private","lat":-27.159459,"lng":-48.5848822},{"id":"8627243065","name":"Assembléia de Deus","tags":"amenity:place_of_worship,building:church,denomination:pentecostal,religion:christian","lat":-27.1672466,"lng":-48.5866355},{"id":"9071350413","name":"Faculdade Porto das Águas","tags":"access:private,addr:housenumber:719,addr:street:Avenida Governador Celso Ramos,amenity:university,contact:email:contato@fapag.edu.br,contact:facebook:https://www.facebook.com/fapag.faculdade,contact:instagram:https://www.instagram.com/fapag.faculdade/,contact:phone:0800 585 3131,contact:website:https://www.fapag.edu.br/,contact:whatsapp:+55 48 99125-6561,roof:shape:hipped,short_name:FAPAG","lat":-27.160317,"lng":-48.5732668},{"id":"9072186989","name":"Agroa Baíto","tags":"addr:housenumber:1187,addr:street:Avenida Governador Celso Ramos,shop:pet","lat":-27.1615765,"lng":-48.5795555},{"id":"9123198127","name":"Daiana Otto Estética Avançada","tags":"beauty:aesthetic;laser_hair_removal,contact:instagram:https://www.instagram.com/esteticadaianaotto/,shop:beauty","lat":-27.1592145,"lng":-48.5690217},{"id":"9476545036","tags":"amenity:pharmacy,dispensing:yes,healthcare:pharmacy","lat":-27.1611435,"lng":-48.5745223},{"id":"9574059322","name":"Alambique Pedro Alemão","tags":"tourism:museum","lat":-27.1867742,"lng":-48.6002862}]