[{"id":"1085325805","tags":"amenity:ferry_terminal,ferry:yes,public_transport:station","lat":-27.1440136,"lng":-48.544606},{"id":"1270157004","tags":"amenity:restaurant,cuisine:brazilian","lat":-27.1429032,"lng":-48.5439315},{"id":"1270157007","name":"Ecomuseu Univali","tags":"alt_name:Ecomuseu Ilha de Porto Belo,email:ecomuseu@univali.br,opening_hours:Sep-Mar: Mo-Su 09:00-18:00,operator:Univali,phone:+55 47 3261-1287,tourism:museum,website:https://www.univali.br/institucional/ecomuseu-univali/Paginas/default.aspx","lat":-27.1426127,"lng":-48.5439654},{"id":"4251897714","name":"Farmácia Super Popular","tags":"amenity:pharmacy,healthcare:pharmacy","lat":-27.1540192,"lng":-48.5411262},{"id":"4251897715","name":"Havana's Le Deck Bar Gastronômico","tags":"amenity:restaurant","lat":-27.1562612,"lng":-48.5461033},{"id":"4251897716","name":"Porto Farma","tags":"amenity:pharmacy,healthcare:pharmacy","lat":-27.1564307,"lng":-48.5464828},{"id":"4251897735","tags":"amenity:ferry_terminal,ferry:yes,public_transport:station","lat":-27.1533269,"lng":-48.5451778},{"id":"5774203155","name":"Porto Café","tags":"amenity:cafe","lat":-27.1539757,"lng":-48.5410057},{"id":"5774203156","tags":"amenity:bank","lat":-27.1534267,"lng":-48.541639},{"id":"6347586285","tags":"name:en:Cruise Ship Anchorage,tourism:attraction","lat":-27.1205083,"lng":-48.5435059},{"id":"8636271166","name":"Biblioteca Pública Municipal Professor Donato Ananias d'Alameida","tags":"amenity:library","lat":-27.1576927,"lng":-48.5464196},{"id":"8638116963","name":"Estádio Municipal Cristiano Cunha","tags":"leisure:stadium","lat":-27.1531762,"lng":-48.5179899},{"id":"9070451421","name":"Eu Amo Porto Belo","tags":"tourism:attraction","lat":-27.1472964,"lng":-48.5343401},{"id":"9070451436","tags":"access:yes,amenity:parking","lat":-27.1489635,"lng":-48.5353218},{"id":"9070451446","tags":"access:yes,amenity:parking","lat":-27.1473143,"lng":-48.5342208}]