[{"id":"1270152404","name":"Igreja Matriz de Santo Antônio","tags":"amenity:place_of_worship,building:church,denomination:roman_catholic,religion:christian","lat":-27.0908129,"lng":-48.6116255},{"id":"3252445605","name":"O Pescador","tags":"addr:city:Itapema,amenity:restaurant","lat":-27.0936343,"lng":-48.6039264},{"id":"4175134878","name":"Comida Caseira Casa Branca","tags":"addr:city:Itapema,amenity:restaurant,cuisine:regional","lat":-27.0891296,"lng":-48.6150773},{"id":"4175134879","name":"Rede Master Farma","tags":"amenity:pharmacy,dispensing:yes,healthcare:pharmacy","lat":-27.0887129,"lng":-48.6146271},{"id":"4314958761","name":"Minimercado Formentin","tags":"addr:city:Itapema,addr:postcode:88220-000,addr:street:Rua 706,addr:suburb:Várzea,shop:convenience","lat":-27.0959836,"lng":-48.6257547},{"id":"4314958762","name":"Minimercado São Paulinho","tags":"addr:city:Itapema,addr:housenumber:226,addr:postcode:88220-000,addr:street:Rua 706,addr:suburb:Várzea,shop:convenience","lat":-27.0973191,"lng":-48.6265353},{"id":"4325111077","name":"31º Batalhão de Polícia Militar","tags":"addr:city:Itapema,addr:housenumber:521,addr:postcode:88220-000,addr:street:Rua 716,addr:suburb:Tabuleiro dos Oliveiras,amenity:police","lat":-27.0987614,"lng":-48.6243198},{"id":"4332249527","name":"Correios","tags":"addr:city:Itapema,addr:housenumber:700,addr:postcode:88220-970,addr:street:Avenida Nereu Ramos,addr:suburb:Centro,amenity:post_office,brand:Correios,brand:wikidata:Q3375004,brand:wikipedia:en:Correios,contact:phone:+55 47 3368-9848,contact:website:http://www.correios.com.br/,opening_hours:Mo-Fr 09:00-12:00,13:00-17:00","lat":-27.1018432,"lng":-48.6152967},{"id":"4366629971","name":"Padaria Zúqui","tags":"addr:city:Itapema,addr:housenumber:200,addr:postcode:88220-000,addr:street:Rua 109,addr:suburb:Canto da Praia,amenity:cafe","lat":-27.0904099,"lng":-48.60644},{"id":"4454993488","name":"Osmari","tags":"addr:city:Itapema,addr:housenumber:580,addr:postcode:88220-000,addr:street:Avenida Nereu Ramos,addr:suburb:Centro,shop:supermarket","lat":-27.100194,"lng":-48.6157536},{"id":"6294286005","name":"Cabral Restaurante","tags":"addr:city:Itapema,addr:housenumber:500,addr:postcode:88220-000,addr:street:Rua 113,addr:suburb:Centro,amenity:restaurant,contact:facebook:cabralrestaurantes,contact:instagram:cabralrestaurantes,contact:phone:+55 47 3368 2387,contact:twitter:@cabralitapema,contact:website:https://cabralrestaurantes.com.br","lat":-27.0917854,"lng":-48.6094515},{"id":"6709105885","name":"Sicredi","tags":"addr:street:Avenida Governador Celso Ramos,amenity:bank,brand:Sicredi,brand:wikidata:Q3483060,brand:wikipedia:pt:Sistema de Crédito Cooperativo,opening_hours:Mo-Fr 10:00-15:00","lat":-27.0913554,"lng":-48.6140101},{"id":"6839128246","name":"Café du Centre","tags":"addr:city:Itapema,addr:housenumber:179,addr:postcode:88220-000,addr:street:Avenida Nereu Ramos,addr:suburb:Centro,amenity:cafe,description:Cafeteria e Doceria","lat":-27.0962016,"lng":-48.6164589},{"id":"6839150489","name":"Pietros - Lounge Bar & Restaurante","tags":"addr:city:Itapema,addr:housenumber:987,addr:postcode:88220-000,addr:street:Avenida Nereu Ramos,addr:suburb:Centro,amenity:restaurant","lat":-27.103361,"lng":-48.6149522},{"id":"7220620103","name":"Toca do Camarão","tags":"amenity:restaurant","lat":-27.1009751,"lng":-48.6140623},{"id":"7220646925","name":"Sushi Rodízio de Sushi","tags":"amenity:restaurant","lat":-27.1010249,"lng":-48.6140556},{"id":"8636271165","name":"Biblioteca Pública Municipal Tancredo Neves","tags":"amenity:library","lat":-27.1021291,"lng":-48.6151559},{"id":"9799906502","name":"Farmácia Citratus","tags":"amenity:pharmacy,dispensing:yes,healthcare:pharmacy","lat":-27.0951963,"lng":-48.6166539}]