[{"id":"748734704","name":"Banco do Brasil","tags":"amenity:bank,atm:yes,brand:Banco do Brasil,brand:wikidata:Q610817,brand:wikipedia:en:Banco do Brasil","lat":-26.881399,"lng":-49.0853704},{"id":"1148141553","name":"Farma Sesi","tags":"amenity:pharmacy,contact:email:fm554@farmasesi.com.br,contact:phone:+55 47 3323-5270,contact:website:https://www.farmasesi.com.br,dispensing:yes,healthcare:pharmacy,level:0,old_name:SESI Farmácia,opening_hours:Mo-Fr 08:00-21:00; Sa 08:30-13:30,wheelchair:yes","lat":-26.8866885,"lng":-49.0831298},{"id":"1701422848","name":"Supermercado Galegão","tags":"shop:supermarket","lat":-26.8723718,"lng":-49.0619292},{"id":"1701451917","name":"Bom Vivant","tags":"amenity:restaurant,cuisine:pizza,old_name:St. John","lat":-26.8920777,"lng":-49.0845617},{"id":"1701617761","name":"Super Ferreira","tags":"old_name:Amigão,shop:supermarket","lat":-26.8793531,"lng":-49.0661769},{"id":"1701618019","name":"Papo's 10 Restaurante e Pizzaria","tags":"amenity:restaurant,cuisine:pizza","lat":-26.8803998,"lng":-49.0670499},{"id":"1762601081","name":"Itaú","tags":"amenity:bank","lat":-26.8823494,"lng":-49.0850402},{"id":"3567419358","name":"Biblioteca Universitária","tags":"amenity:library","lat":-26.8910272,"lng":-49.0840294},{"id":"3567419359","name":"Estacionamento Servidores","tags":"access:private,amenity:parking","lat":-26.8918329,"lng":-49.0832898},{"id":"3567438503","tags":"amenity:parking","lat":-26.8900249,"lng":-49.08554},{"id":"3567490396","tags":"amenity:parking","lat":-26.8551279,"lng":-49.0542028},{"id":"4156439617","name":"Farmácia Preço Popular","tags":"amenity:pharmacy,dispensing:yes,healthcare:pharmacy,opening_hours:Mo-Fr 08:00-21:00; Sa 08:00-18:00,wheelchair:yes","lat":-26.886104,"lng":-49.0837115},{"id":"4164172896","name":"Bradesco","tags":"amenity:bank,atm:yes,brand:Bradesco,brand:wikidata:Q806181,brand:wikipedia:en:Banco Bradesco","lat":-26.889463,"lng":-49.0817923},{"id":"4578118791","name":"Dom Café Tortaria","tags":"addr:door:24,amenity:cafe,contact:facebook:https://www.facebook.com/DomCafeTortaria,contact:phone:+55 47 3053-1415,opening_hours:Mo-Fr 07:30-19:00; Sa 09:00-14:00","lat":-26.8806779,"lng":-49.0686417},{"id":"4578118793","name":"Vila dos Amigos Bar e Restaurante","tags":"addr:door:1;2,amenity:restaurant,contact:email:carlos.fortaleza@ig.com.br,contact:facebook:https://www.facebook.com/viladosamigos,contact:phone:+55 47 3234-1715,opening_hours:Mo-Fr 07:30-22:00; Sa 07:30-16:00; Su,PH off","lat":-26.8803882,"lng":-49.0682823},{"id":"4578118798","name":"Misael Adriano K'Bellus","tags":"addr:door:30,beauty:hair,contact:email:misael.adrianokbellus@yahoo.com,contact:phone:+55 47 3323-7763,opening_hours:Mo-Sa 09:00-20:00; Su,PH off,shop:beauty","lat":-26.8808503,"lng":-49.0687643},{"id":"4578118803","name":"Farmácia Preço Popular","tags":"addr:door:11;12,amenity:pharmacy,contact:email:sac@precopopular.com.br,contact:phone:+55 47 3378-5828,contact:website:https://www.precopopular.com.br,dispensing:yes,healthcare:pharmacy,opening_hours:Mo-Fr 08:00-21:00; Sa 08:00-18:00; Su,PH off","lat":-26.8805611,"lng":-49.0684108},{"id":"4578118805","name":"Sicoob","tags":"addr:door:16,amenity:bank,contact:phone:+55 47 3323-0720,contact:website:http://www.multicredi.coop.br,opening_hours:Mo-Fr 10:00-15:30; Sa,Su,PH off","lat":-26.8805534,"lng":-49.0686466},{"id":"4578118822","name":"Caixa Fortaleza","tags":"amenity:bank,brand:Caixa,opening_hours:Mo-Fr 10:00-15:00; Sa,Su,PH off,operator:Caixa Econômica Federal,operator:short:CEF,operator:type:public,operator:wikidata:Q835283,operator:wikipedia:pt:Caixa Econômica Federal","lat":-26.8804475,"lng":-49.0690132},{"id":"4578118825","name":"Naturapro","tags":"addr:door:20,contact:email:loja1@naturapro.com.br,contact:facebook:https://www.facebook.com/NaturaproProdutosNaturais/,contact:phone:+55 47 3237-2377,description:Produtos Naturais,opening_hours:Mo-Fr 09:00-17:00; Sa 09:00-13:00; Su,PH off,shop:convenience","lat":-26.8806843,"lng":-49.0684486},{"id":"4578118828","name":"Estilo Animal Pet Shop","tags":"addr:door:7,contact:email:ju_gk@hotmail.com,contact:phone:+55 47 3327-3444,description:Pet Shop,Banho e tosa,Consultório Veterinário,opening_hours:Mo-Fr 08:00-12:00,13:00-18:00; Sa 08:00-12:00; Su,PH off,shop:pet","lat":-26.8803745,"lng":-49.068509},{"id":"4596537768","name":"Stylo Farma","tags":"amenity:pharmacy,dispensing:yes,healthcare:pharmacy","lat":-26.8809499,"lng":-49.0682536},{"id":"4630861750","name":"Espaçolaser Depilação","tags":"beauty:laser_hair_removal,contact:phone:+55 47 3237-1500;+55 47 3237-2700,contact:website:https://www.espacolaser.com.br,contact:whatsapp:+55 47 98400-1500,indoor:room,level:0,room:shop,shop:beauty","lat":-26.8873221,"lng":-49.0687925},{"id":"4630861751","name":"Smart Fit","tags":"brand:Smart Fit,brand:wikidata:Q30930959,brand:wikipedia:pt:Smart Fit,contact:website:https://www.smartfit.com.br,indoor:room,leisure:fitness_centre,level:0,opening_hours:Mo-Fr 06:00-23:00; Sa 09:00-18:00; Su 09:00-15:00,room:shop,sport:fitness","lat":-26.8875111,"lng":-49.0688113},{"id":"4771167353","name":"Bistek Supermercados","tags":"contact:website:https://loja17.bistek.com.br/,indoor:room,level:0,opening_hours:Mo-Fr 08:00-22:30; Su 08:30-21:30,room:shop,shop:supermarket","lat":-26.8869048,"lng":-49.068107},{"id":"4802649874","name":"Academia Blu Iron","tags":"contact:phone:+55 47 3042-1422,leisure:fitness_centre,old_name:Academia Sport Fitness,sport:fitness","lat":-26.8773938,"lng":-49.0868775},{"id":"4850686880","name":"Sicoob","tags":"amenity:bank,brand:Sicoob,brand:wikidata:Q28679754,brand:wikipedia:pt:Sistema de Cooperativas de Crédito do Brasil","lat":-26.853635,"lng":-49.0865399},{"id":"4922650046","name":"Val Nunes Alameda Beauty","tags":"contact:phone:+55 47 3222-1435,indoor:room,level:1,opening_hours:Mo-Sa 10:00-22:00; Su,PH 14:00-20:00,room:shop,shop:beauty","lat":-26.8860981,"lng":-49.0690412},{"id":"4922650048","name":"eat café","tags":"amenity:cafe,contact:phone:+55 47 3209-1705,indoor:room,level:0,room:restaurant","lat":-26.8865598,"lng":-49.0685745},{"id":"4933408222","name":"Farmácia Alice","tags":"addr:street:Rua Francisco Vahldieck,amenity:pharmacy,contact:phone:+55 47 3209-3561,contact:website:https://masterfarma.com.br,dispensing:yes,healthcare:pharmacy,operator:Rede Master Farma","lat":-26.873643,"lng":-49.0639409},{"id":"4933408223","name":"Drogaria da Saúde","tags":"addr:street:Rua Francisco Vahldieck,amenity:pharmacy,brand:Farmácia Popular,dispensing:yes,healthcare:pharmacy","lat":-26.8698017,"lng":-49.05979},{"id":"4933408224","name":"Fortaleza","tags":"amenity:pharmacy,dispensing:yes,healthcare:pharmacy","lat":-26.8703087,"lng":-49.0602439},{"id":"4933408225","name":"Farmácia Tribess","tags":"amenity:pharmacy,brand:Farmácia Popular,contact:phone:+55 47 3327-0040,dispensing:yes,healthcare:pharmacy","lat":-26.8798611,"lng":-49.0607857},{"id":"4933408226","name":"Farmácia Santa Helena","tags":"amenity:pharmacy,dispensing:yes,healthcare:pharmacy","lat":-26.8624756,"lng":-49.0527444},{"id":"4933408227","name":"Farmácia Luciano","tags":"amenity:pharmacy,dispensing:yes,healthcare:pharmacy","lat":-26.873384,"lng":-49.0697521},{"id":"4933408228","name":"Farmácia Blumenauense","tags":"addr:door:Sala 02,amenity:pharmacy,contact:phone:+55 47 3053-1933,contact:website:https://masterfarma.com.br,dispensing:yes,healthcare:pharmacy,operator:Rede Master Farma","lat":-26.8833268,"lng":-49.0733608},{"id":"4933409022","name":"StyloFarma Tribess","tags":"amenity:pharmacy,contact:fax:+55 47 3339-5993,contact:phone:+55 47 3339-4465,contact:website:http://www.stylofarma.com.br/,dispensing:yes,healthcare:pharmacy,opening_hours:Mo-Fr 07:30-20:00; Sa,PH 08:00-20:00; Su 08:00-12:00,opening_hours:delivery:Mo-Sa 08:00-18:00,operator:StyloFarma,payment:cash:yes,payment:credit_cards:yes,payment:debit_cards:yes","lat":-26.8723285,"lng":-49.050198},{"id":"4977287031","tags":"amenity:car_wash","lat":-26.8848144,"lng":-49.084668},{"id":"5043980920","name":"Mercado Popular","tags":"shop:supermarket,wheelchair:yes","lat":-26.8712033,"lng":-49.0862646},{"id":"5045344070","name":"Bicho Bakana Pet Shop","tags":"alt_name:Bicho Bacana Pet Shop,contact:phone:+55 47 3209-0202,description:Banho e tosa, táxi-dog e consultório veterinário,shop:pet","lat":-26.8830718,"lng":-49.083625},{"id":"5114046626","name":"Correios","tags":"amenity:post_office,brand:Correios,brand:wikidata:Q3375004,brand:wikipedia:en:Correios,wheelchair:yes","lat":-26.8861663,"lng":-49.0836847},{"id":"5257894886","name":"ATT Health Club","tags":"leisure:fitness_centre,sport:fitness","lat":-26.8796879,"lng":-49.0659937},{"id":"5351365777","name":"loops academia","tags":"leisure:fitness_centre,sport:fitness","lat":-26.8748051,"lng":-49.0524563},{"id":"5355665159","name":"Posto Roberto II","tags":"addr:housenumber:2492,addr:street:Rua Francisco Vahldieck,amenity:fuel,brand:Ale,payment:cash:yes,payment:credit_cards:yes,payment:debit_cards:yes,shop:convenience","lat":-26.8630509,"lng":-49.0531638},{"id":"5468186050","name":"MR Estética Automotiva","tags":"amenity:car_wash","lat":-26.8930702,"lng":-49.0838657},{"id":"5468232336","name":"Bradesco","tags":"amenity:bank,brand:Bradesco,brand:wikidata:Q806181,brand:wikipedia:en:Banco Bradesco,wheelchair:yes","lat":-26.8929817,"lng":-49.0835546},{"id":"5644986645","name":"Farmácia Super Popular","tags":"amenity:pharmacy,brand:Master Farma,contact:phone:+55 47 3338-0900,contact:website:https://masterfarma.com.br,dispensing:yes,healthcare:pharmacy","lat":-26.8797393,"lng":-49.080348},{"id":"5658933208","name":"Cybercafé Istambul","tags":"alt_name:Guti's Istambul Natural Food,amenity:cafe,contact:facebook:https://www.facebook.com/Cybercaf%C3%A9-Istambul-405147179559571/,cuisine:turkish,opening_hours:Mo-Fr 07:00-20:00; Sa,Su,PH off,outdoor_seating:yes","lat":-26.8921319,"lng":-49.0844987},{"id":"5808274462","name":"Santander","tags":"amenity:bank,atm:yes,brand:Santander,brand:wikidata:Q5835668,brand:wikipedia:en:Santander Bank","lat":-26.8896351,"lng":-49.0815899},{"id":"5819489247","name":"Empório e Cachaça","tags":"contact:phone:+55 47 3323-2555,shop:convenience","lat":-26.8893193,"lng":-49.0822966},{"id":"5941493754","name":"F.E Estética Automotiva","tags":"amenity:car_wash","lat":-26.8865718,"lng":-49.083672},{"id":"5963282962","name":"Rancho do Vô","tags":"shop:convenience","lat":-26.8802297,"lng":-49.0858063},{"id":"6032948794","name":"Expresso 90","tags":"amenity:cafe","lat":-26.8806125,"lng":-49.0861161},{"id":"6032948796","name":"Bem Natural","tags":"addr:housenumber:3178,addr:street:Rua 2 de Setembro,level:0,shop:convenience","lat":-26.8854032,"lng":-49.0837383},{"id":"6124976008","name":"Boiler Cafés Especiais","tags":"amenity:cafe,old_name:Bendito","lat":-26.889394,"lng":-49.0822913},{"id":"6185270750","name":"Restaurante Tempero de Família","tags":"amenity:restaurant,old_name:Palatare Restaurante e Café","lat":-26.8806651,"lng":-49.085758},{"id":"6189025325","name":"Farmácia Dias","tags":"amenity:pharmacy,contact:phone:+55 47 3041-1442;+55 47 3037-3176,dispensing:yes,healthcare:pharmacy","lat":-26.8938034,"lng":-49.0660089},{"id":"6262905851","name":"Vida Leve Empório Natural","tags":"contact:phone:+55 47 3232-2875,shop:convenience","lat":-26.8891557,"lng":-49.0820874},{"id":"6312546043","name":"Mercearia SR","tags":"shop:convenience","lat":-26.8891112,"lng":-49.082121},{"id":"6389765437","name":"Mercado Elo","tags":"addr:city:Blumenau,addr:postcode:89051-600,addr:street:Rua Marcílio de Oliveira,addr:suburb:Fortaleza,payment:cash:yes,shop:convenience","lat":-26.8815928,"lng":-49.0546864},{"id":"6408094572","name":"Lavação Samuel Car","tags":"amenity:car_wash","lat":-26.8792416,"lng":-49.0860598},{"id":"6466875770","name":"Galpão Restaurante","tags":"amenity:restaurant,contact:phone:+55 47 3232-7273,opening_hours:Mo-Sa 11:00-14:00","lat":-26.8929219,"lng":-49.0790512},{"id":"6553840098","tags":"shop:pet","lat":-26.8915072,"lng":-49.0549045},{"id":"6553840101","tags":"shop:convenience","lat":-26.8917332,"lng":-49.0570326},{"id":"6553840102","tags":"shop:beauty","lat":-26.891686,"lng":-49.0569453},{"id":"6564231837","name":"Pet Shop Amigão","tags":"contact:phone:+55 47 3035-5973,shop:pet","lat":-26.8932891,"lng":-49.0786663},{"id":"6570541291","name":"Mercado da luz","tags":"shop:convenience","lat":-26.8700297,"lng":-49.079298},{"id":"6570541355","name":"Vansuit","tags":"shop:supermarket","lat":-26.8677113,"lng":-49.0709366},{"id":"6577859486","name":"Quiminorte","tags":"contact:phone:+55 47 3308-4527,contact:website:http://www.quiminorte.com.br,opening_hours:Mo-Fr 08:00-12:00,13:30-18:00; Sa 08:00-12:00,shop:chemist","lat":-26.8808302,"lng":-49.0860424},{"id":"6682462772","name":"Stylo Farma","tags":"amenity:pharmacy,dispensing:yes,healthcare:pharmacy","lat":-26.8806851,"lng":-49.0860915},{"id":"6721662291","name":"Espaço Maju","tags":"level:1,shop:beauty","lat":-26.8849187,"lng":-49.0839509},{"id":"6742263817","name":"Rota 3200","tags":"contact:phone:+55 47 99727-3994,shop:convenience","lat":-26.8918047,"lng":-49.0844687},{"id":"6960402856","name":"Lavação do Sérgio","tags":"amenity:car_wash,contact:phone:+55 47 99126-7073","lat":-26.88614,"lng":-49.08415},{"id":"7132112588","tags":"amenity:car_wash","lat":-26.8816269,"lng":-49.0824898},{"id":"7170817025","name":"Pedra Flor","tags":"shop:beauty","lat":-26.8898181,"lng":-49.0867209},{"id":"7176547452","name":"Viacredi","tags":"amenity:bank,atm:yes","lat":-26.883829,"lng":-49.0847468},{"id":"7236153458","name":"Viacredi","tags":"amenity:bank,atm:yes","lat":-26.8793529,"lng":-49.0658252},{"id":"7236204329","name":"Restaurante Vitória","tags":"amenity:restaurant","lat":-26.8941012,"lng":-49.0668176},{"id":"8355176405","name":"Sicoob","tags":"amenity:bank,atm:yes,brand:Sicoob,brand:wikidata:Q28679754,brand:wikipedia:pt:Sistema de Cooperativas de Crédito do Brasil","lat":-26.8804976,"lng":-49.0861174},{"id":"8688294160","name":"Last Fit Personal Center","tags":"contact:phone:+55 47 99942-1325,description:Aberto ao publico, atendimento individualizado. Exercícios físicos, saúde e bem estar.,leisure:fitness_centre,opening_hours:Mo-Fr 06:00-22:00; Sa,Su off,opening_hours:covid19:open,sport:fitness;exercise;multi,start_date:2019-10-30","lat":-26.8888314,"lng":-49.067881},{"id":"8688494197","name":"Mercado 7 de Maio","tags":"alt_name:Mercado Sete de Maio,shop:convenience","lat":-26.8892218,"lng":-49.0679019},{"id":"8758840359","name":"Officina Café","tags":"amenity:cafe,contact:instagram:https://www.instagram.com/offcinaco/,level:0","lat":-26.8901673,"lng":-49.0852457},{"id":"9403055859","name":"AB Academia","tags":"addr:city:Blumenau,addr:housenumber:46,addr:street:Rua Gilberto Zago Moura,addr:suburb:Fortaleza Alta,leisure:fitness_centre,sport:fitness","lat":-26.8604075,"lng":-49.0479611},{"id":"10726798212","name":"Guarda Jiu-Jitsu","tags":"leisure:sports_centre,level:1,sport:jiu-jitsu","lat":-26.8895022,"lng":-49.0822066}]