[{"id":"1701438196","name":"Supermercado Unidos","tags":"contact:facebook:https://www.facebook.com/supermercadounidos,contact:phone:+55 47 3323-3818,contact:website:http://supermercadounidos.com.br/,opening_hours:Mo-Sa 08:00-20:00; Su 08:30-12:30,shop:supermarket,wheelchair:yes","lat":-26.8903808,"lng":-49.0898742},{"id":"3574679794","name":"Bom Gosto Restaurante e Assadão","tags":"amenity:restaurant,contact:phone:+55 47 3378-6869,delivery:yes,takeaway:yes","lat":-26.8730295,"lng":-49.0884492},{"id":"3623949486","name":"Stylo Farma","tags":"addr:door:Sala 02,amenity:pharmacy,contact:phone:+55 47 3334-0693,dispensing:yes,healthcare:pharmacy","lat":-26.8545365,"lng":-49.1158853},{"id":"3864131157","name":"Banco24Horas","tags":"amenity:atm","lat":-26.8635927,"lng":-49.0910987},{"id":"4444057710","name":"Farmácia Super Popular","tags":"amenity:pharmacy,contact:phone:+55 47 3334-1342,dispensing:yes,healthcare:pharmacy","lat":-26.8780114,"lng":-49.1301469},{"id":"4702496493","name":"Espaço Bella","tags":"contact:facebook:https://pt-br.facebook.com/pages/Espaço-Bella-cabelo-e-estética/637231736314735,contact:phone:+55 47 3209-0955,description:Cabelo e estética,shop:beauty,wheelchair:yes","lat":-26.8739393,"lng":-49.1127324},{"id":"4751986834","name":"Stylo Farma","tags":"amenity:pharmacy,contact:phone:+55 47 3323-0710,dispensing:yes,healthcare:pharmacy,level:0","lat":-26.8537745,"lng":-49.1300729},{"id":"4792429942","name":"Mini Mercado Água Branca","tags":"contact:phone:+55 47 3234-0907,shop:supermarket","lat":-26.8932379,"lng":-49.1274668},{"id":"4793403993","name":"Estética Menina Bonita","tags":"contact:phone:+55 47 99101-8618,shop:beauty,wheelchair:yes","lat":-26.8896248,"lng":-49.1074278},{"id":"4835836360","name":"Lavação JM","tags":"amenity:car_wash","lat":-26.8723955,"lng":-49.0880285},{"id":"4959235172","name":"Juli Pet","tags":"addr:door:Sala 01,contact:phone:+55 47 3232-2602;+55 47 99244-3398,shop:pet,wheelchair:yes","lat":-26.8896806,"lng":-49.0912432},{"id":"5027518274","name":"Espaço Unhas & Sobrancelhas Perfeitas","tags":"contact:phone:+55 47 3327-2352;+55 47 99199-0637,shop:beauty,wheelchair:yes","lat":-26.88761,"lng":-49.1129825},{"id":"5043981224","name":"Sua Farma","tags":"amenity:pharmacy,brand:Master Farma,contact:phone:+55 47 3338-1070,delivery:yes,dispensing:yes,healthcare:pharmacy,level:0","lat":-26.8735594,"lng":-49.0890317},{"id":"5092373680","name":"Supermercado Verdi","tags":"contact:phone:+55 47 3327-0348,level:0,shop:supermarket","lat":-26.8907821,"lng":-49.1025755},{"id":"5093450614","name":"Posto Zandoná 12","tags":"addr:housenumber:2600,addr:street:Rua Doutor Pedro Zimmermann,amenity:fuel,brand:Ipiranga,fuel:cng:yes,fuel:diesel:yes,fuel:diesel_s10:yes,fuel:ethanol:yes,fuel:octane_87:yes,fuel:octane_98:yes,old_name:Posto RG,opening_hours:24/7,operator:Ipiranga,shop:convenience","lat":-26.8521034,"lng":-49.0869946},{"id":"5187442684","name":"Farmalider","tags":"amenity:pharmacy,contact:phone:+55 47 3323-7612,dispensing:yes,healthcare:pharmacy,level:0","lat":-26.8920589,"lng":-49.0982477},{"id":"5231654048","name":"Lara Pet Shop","tags":"contact:phone:+55 47 3041-0423,shop:pet","lat":-26.8726778,"lng":-49.0878555},{"id":"5272758616","name":"Castelo da Pizza","tags":"addr:housenumber:4241,addr:street:Rua 2 de Setembro,amenity:restaurant,contact:facebook:https://www.facebook.com/CasteloDaPizzaBnu,contact:phone:+55 47 3339 3900,contact:website:https://castelodapizza.com.br/,cuisine:pizza,delivery:yes,opening_hours:Tu-Su 18:00-24:00","lat":-26.8767272,"lng":-49.08748},{"id":"5314322304","name":"Império Estética Automotiva","tags":"amenity:car_wash,level:-1","lat":-26.8634649,"lng":-49.0911922},{"id":"5415498949","name":"Canil Átila","tags":"contact:phone:+55 47 3334-0855,shop:pet","lat":-26.8737449,"lng":-49.1134331},{"id":"5621043054","name":"Farmácia de Saúde Mental","tags":"amenity:pharmacy,dispensing:yes,healthcare:pharmacy","lat":-26.8927628,"lng":-49.1001441},{"id":"5695706452","name":"Stylo Farma","tags":"amenity:pharmacy,contact:phone:+55 47 3323-7240;+55 47 3232-2619,delivery:yes,dispensing:yes,healthcare:pharmacy,takeaway:yes","lat":-26.8904412,"lng":-49.089729},{"id":"5757473281","name":"Feel Fitness","tags":"contact:phone:+55 47 3334-0401,leisure:fitness_centre","lat":-26.875117,"lng":-49.1035974},{"id":"5837359275","name":"Vivendo e Aprendendo Espaço Educativo","tags":"amenity:school,contact:phone:+55 47 3339-2572,description:Educação especial, pedagogia, psicologia e psicopedagogia","lat":-26.8895322,"lng":-49.0934815},{"id":"5837393278","tags":"amenity:car_wash","lat":-26.8934458,"lng":-49.1289644},{"id":"5873581392","name":"Belo Brilho","tags":"amenity:car_wash","lat":-26.8906206,"lng":-49.0979755},{"id":"5944167977","name":"Restaurante Hotel Sesc Blumenau","tags":"amenity:restaurant","lat":-26.872424,"lng":-49.1036008},{"id":"5982296692","name":"Marley's","tags":"shop:pet","lat":-26.8654161,"lng":-49.1217278},{"id":"5982296693","name":"Stylo Farma","tags":"amenity:pharmacy,contact:phone:+55 47 3334-0892,dispensing:yes,healthcare:pharmacy,level:0","lat":-26.8670432,"lng":-49.1186661},{"id":"5982296716","name":"Supermercado Sardagna","tags":"level:0,old_name:Mercado & Açougue Souza,shop:convenience","lat":-26.8539556,"lng":-49.1294754},{"id":"5992046245","name":"Empório Oriental","tags":"contact:phone:+55 47 3070-0658,description:Produtos para sushi,shop:convenience","lat":-26.8865921,"lng":-49.0998343},{"id":"5992046246","name":"Salgadeli","tags":"contact:phone:+55 47 3209-8051,shop:convenience","lat":-26.8851926,"lng":-49.0998356},{"id":"6026258665","name":"DJ Lavação","tags":"amenity:car_wash,contact:phone:+55 47 99913-1175","lat":-26.8762822,"lng":-49.103014},{"id":"6164272042","name":"Supermercado Moura","tags":"contact:phone:+55 47 3334-1558,shop:supermarket","lat":-26.8751571,"lng":-49.1096237},{"id":"6164272063","name":"Gab's Pizzaria","tags":"alt_name:Gabs Pizzaria,amenity:restaurant,contact:phone:+55 47 3334-4673,cuisine:pizza,old_name:Ki Lanche Pizzaria","lat":-26.871082,"lng":-49.1158833},{"id":"6254669506","name":"Grata Armazém","tags":"contact:phone:+55 47 3237-4089,old_name:Eletrônica Monteiro,shop:convenience","lat":-26.8658145,"lng":-49.119342},{"id":"6254669514","tags":"amenity:car_wash","lat":-26.8654006,"lng":-49.1205007},{"id":"6254669517","name":"Oficina do Saber","tags":"amenity:school,contact:phone:+55 47 3209-3378;+55 47 99192-2233,description:Contra turno escolar","lat":-26.8654808,"lng":-49.1210103},{"id":"6254669525","name":"Viacredi","tags":"amenity:bank,atm:yes","lat":-26.865388,"lng":-49.121471},{"id":"6262905876","name":"Exclusive Polimentos","tags":"amenity:car_wash","lat":-26.8778241,"lng":-49.0874264},{"id":"6273384540","name":"Ponto Certo","tags":"amenity:car_wash,contact:phone:+55 47 99219-4043","lat":-26.8726515,"lng":-49.0890974},{"id":"6273391287","name":"Puro Movimento Estúdio Pilates","tags":"leisure:fitness_centre,level:1,sport:pilates","lat":-26.8865156,"lng":-49.0938569},{"id":"6304843247","name":"INPG Business School","tags":"amenity:university,contact:email:blumenau@inpg.edu.br,contact:phone:+55 47 99278-0682,contact:website:https://www.inpg.edu.br/unidade-inpg-blumenau/,opening_hours:Mo-Fr 09:00-19:00","lat":-26.8753491,"lng":-49.1030771},{"id":"6309682452","name":"Toque de Beleza","tags":"shop:beauty","lat":-26.8921397,"lng":-49.1018955},{"id":"6309682466","name":"Badok","tags":"amenity:restaurant,contact:phone:+55 47 3237-1735","lat":-26.889897,"lng":-49.107551},{"id":"6322112635","name":"Dog Chic","tags":"addr:housenumber:5,addr:street:Rua Ricardo Paul,contact:phone:+55 47 3019-0520,shop:pet","lat":-26.8929207,"lng":-49.0981878},{"id":"6322169986","name":"Solange Portella Estética","tags":"shop:beauty","lat":-26.8669128,"lng":-49.1186573},{"id":"6328078996","name":"Atlhetic Academia","tags":"leisure:fitness_centre","lat":-26.8708918,"lng":-49.1156378},{"id":"6374699852","name":"NS Manicure e Pedicure","tags":"contact:phone:+55 47 3323-0336,level:1,shop:beauty","lat":-26.8534699,"lng":-49.1269286},{"id":"6401697145","name":"Nestor Auto Lavação","tags":"amenity:car_wash","lat":-26.8745512,"lng":-49.1132674},{"id":"6410644449","name":"Sicoob","tags":"amenity:bank,atm:yes,brand:Sicoob,brand:wikidata:Q28679754,brand:wikipedia:pt:Sistema de Cooperativas de Crédito do Brasil,contact:email:benjaminconstant@maxicredito.coop.br,contact:phone:+55 47 3323-8986,contact:website:https://www.maxicredito.coop.br,level:0,opening_hours:Mo-Fr 09:00-16:00","lat":-26.8924581,"lng":-49.0982294},{"id":"6413108182","name":"Belleville Estética","tags":"contact:phone:+55 47 99161-9587,level:1,shop:beauty","lat":-26.8918442,"lng":-49.0982223},{"id":"6481873964","name":"Petshop Master","tags":"contact:phone:+55 47 3337-1311,shop:pet","lat":-26.8631562,"lng":-49.1262554},{"id":"6543797967","name":"Autolavação Toniolli","tags":"amenity:car_wash,contact:phone:+55 47 3053-1105","lat":-26.8714169,"lng":-49.1143584},{"id":"6564197544","name":"Instituto Saberativo","tags":"alt_name:Espaço Integrado Saberativo,amenity:school,contact:email:institutosaberativo@gmail.com,contact:phone:+55 47 99676-2670,contact:website:https://www.saberativo.com.br","lat":-26.8918119,"lng":-49.0967108},{"id":"6721397823","name":"Farma Lima","tags":"amenity:pharmacy,contact:phone:+55 47 3285-8999,dispensing:yes,healthcare:pharmacy","lat":-26.8716682,"lng":-49.1143383},{"id":"6770928573","name":"Cit Farma","tags":"amenity:pharmacy,contact:phone:+55 47 3234-2454,contact:whatsapp:+55 47 99885-4033,dispensing:yes,healthcare:pharmacy","lat":-26.863965,"lng":-49.1273189},{"id":"6833599288","name":"Viacredi","tags":"amenity:bank,atm:yes,contact:phone:+55 47 3378-3899,contact:website:https://www.viacredi.coop.br,opening_hours:Mo-Fr 10:00-16:00","lat":-26.8530607,"lng":-49.1198583},{"id":"6835316382","name":"Farmácia Cooper","tags":"amenity:pharmacy,contact:phone:+55 47 3309-5470,delivery:yes,dispensing:yes,healthcare:pharmacy,opening_hours:Mo-Fr 08:00-22:00; Sa-Su 08:00-21:00","lat":-26.8623116,"lng":-49.0887809},{"id":"6874515397","name":"Pet Shop Mafra","tags":"contact:phone:+55 47 99137-2244,shop:pet","lat":-26.871649,"lng":-49.113936},{"id":"6907469028","name":"Papicori","tags":"amenity:restaurant,contact:phone:+55 47 3334-3339","lat":-26.8770848,"lng":-49.1011257},{"id":"6943979582","name":"Família Pet","tags":"contact:phone:+55 47 3309-7147,contact:whatsapp:+55 47 99205-3897,shop:pet","lat":-26.8894537,"lng":-49.0875146},{"id":"7007221437","name":"Academia Status","tags":"contact:phone:+55 47 3288-2300,leisure:fitness_centre,level:1","lat":-26.8767762,"lng":-49.1019237},{"id":"7087168965","name":"Donna Yolannda","tags":"amenity:restaurant,contact:phone:+55 47 3232-8364","lat":-26.8878529,"lng":-49.0930014},{"id":"7087193582","name":"Rancho do Italiano","tags":"amenity:restaurant","lat":-26.8798972,"lng":-49.1218793},{"id":"7115821244","name":"Farma Sesi","tags":"alt_name:SESI Farmácia,amenity:pharmacy,dispensing:yes,healthcare:pharmacy","lat":-26.8910763,"lng":-49.0981498},{"id":"7131811659","name":"Na Brasa","tags":"amenity:restaurant,cuisine:steak_house","lat":-26.8524863,"lng":-49.0876007},{"id":"7189202746","name":"LS Grill & Restaurante","tags":"amenity:restaurant,contact:phone:+55 47 99667-0439,old_name:Restaurante Galaffi","lat":-26.8745452,"lng":-49.1122207},{"id":"7194552068","name":"Naturalíssima","tags":"description:Produtos naturais,shop:convenience","lat":-26.8935833,"lng":-49.0983684},{"id":"7234523018","name":"Flamboyant","tags":"amenity:restaurant,contact:phone:+55 47 3338-2378","lat":-26.8744507,"lng":-49.087531},{"id":"7986489910","name":"Bruna Milleti","tags":"addr:door:05,beauty:cosmetics;skin_care;waxing;aesthetic;eyelash,description:Estética | Biomedicina | Coaching,level:1,opening_hours:Mo-Fr 09:00-18:00,shop:beauty","lat":-26.8910684,"lng":-49.0981981},{"id":"8736425243","name":"Toscana Park","tags":"amenity:restaurant,cuisine:pizza","lat":-26.8547477,"lng":-49.0870334},{"id":"8922541168","name":"Farmácia São João","tags":"amenity:pharmacy,contact:phone:+55 47 3234-4170,contact:website:https://www.saojoaofarmacias.com.br/,contact:whatsapp:+55 54 99684-9221,delivery:yes,dispensing:yes,healthcare:pharmacy,internet_access:wlan,internet_access:fee:no,opening_hours:Mo-Sa 07:30-22:00; Su,PH 08:00-22:00,wifi:yes","lat":-26.8537295,"lng":-49.1203813},{"id":"9318711665","name":"Verdant Music Bar","tags":"amenity:bar","lat":-26.8732724,"lng":-49.1023797},{"id":"9410926683","name":"Janete Mello","tags":"addr:door:07,level:1,shop:beauty","lat":-26.891004,"lng":-49.0981612},{"id":"9410926688","name":"Due Fitclub","tags":"leisure:fitness_centre,level:1,sport:fitness","lat":-26.8911206,"lng":-49.0983302},{"id":"9410926689","name":"Viacredi","tags":"amenity:bank,atm:yes,level:0","lat":-26.8912085,"lng":-49.0983597},{"id":"9704185505","name":"Zandoná","tags":"amenity:restaurant","lat":-26.8515172,"lng":-49.0869543},{"id":"10571709483","name":"Viacredi","tags":"amenity:bank,atm:yes,contact:website:https://www.viacredi.coop.br,opening_hours:Mo-Fr 10:00-16:00","lat":-26.8654903,"lng":-49.1238414}]