[{"id":"1058124720","tags":"amenity:restaurant","lat":-26.9008298,"lng":-48.8249517},{"id":"3980832280","name":"Academia Vida e Saúde","tags":"leisure:sports_centre,level:2","lat":-26.9040012,"lng":-48.8337665},{"id":"4610749089","name":"Restaurante Engenho do Vale","tags":"amenity:restaurant","lat":-26.9106732,"lng":-48.8558871},{"id":"4943190587","name":"Correios","tags":"amenity:post_office","lat":-26.898653,"lng":-48.825943},{"id":"4943190591","name":"Sicoob","tags":"amenity:bank,contact:phone:+55 47 3343-1404","lat":-26.9012929,"lng":-48.8287957},{"id":"4943190810","name":"Farmácia Santo André","tags":"addr:housenumber:300,addr:street:Avenida Ricardo Paulino Maes,amenity:pharmacy","lat":-26.9030342,"lng":-48.8309978},{"id":"4943190811","name":"Camilla's Café","tags":"amenity:cafe,contact:phone:+55 47 3343-1236","lat":-26.9031,"lng":-48.8315262},{"id":"5111038831","name":"Barato Mania","tags":"addr:housenumber:66,addr:street:Rua Frei Jacinto,contact:instagram:https://www.instagram.com/barato_mania_ilhota/,contact:phone:+55 47 99602-6898,level:0,opening_hours:Mo-Fr 07:00-20:00; Sa 07:00-19:00; Su,PH off,shop:convenience","lat":-26.9009179,"lng":-48.8274444},{"id":"8636271157","name":"Biblioteca Pública Municipal Alice Francisco Bittencourt","tags":"amenity:library,opening_hours:Mo-Fr 07:30-12:00,12:30-17:00; Sa,Su,PH off,operator:Prefeitura Municipal de Ilhota","lat":-26.9024708,"lng":-48.8296438},{"id":"8971241717","name":"Eu Amo Ilhota","tags":"tourism:attraction","lat":-26.9014537,"lng":-48.8284363},{"id":"9609308022","name":"DalCosta","tags":"amenity:restaurant,internet_access:wlan,internet_access:fee:no,outdoor_seating:yes,self_service:yes,toilets:yes,toilets:access:customers,wheelchair:limited,wifi:yes","lat":-26.9037267,"lng":-48.8344498}]