[{"id":"8626409969","name":"Hospital e Maternidade São Sebastião","tags":"amenity:hospital","lat":-26.4125333,"lng":-50.1359905},{"id":"10095458020","name":"Escola Maria Avelina de Oliveira Furtado","tags":"access:yes,alt_name:E.M. Maria Avelina de Oliveira Furtado,amenity:school,official_name:Escola Municipal Maria Avelina de Oliveira Furtado,operator:Prefeitura Municipal de Papanduva,operator:type:public,ref:INEP:42102677,short_name:EM Maria Avelina de Oliveira Furtado","lat":-26.4142584,"lng":-50.1271371},{"id":"10247243555","name":"Supermercado Make","tags":"addr:city:Papanduva,addr:postcode:89370000,addr:suburb:Tolachinski,shop:supermarket","lat":-26.4155177,"lng":-50.1343675},{"id":"10259640084","name":"APAE - Escola Especial Raio de Sol","tags":"amenity:school","lat":-26.4140496,"lng":-50.1368581},{"id":"10259640090","name":"EEF Professor Walmir Lúcio Senna","tags":"amenity:school,operator:Secretaria da Educação do Município de Papanduva,phone:04736531098","lat":-26.4132739,"lng":-50.1415206},{"id":"10259685710","name":"CEJA - Centro de Educação de Jovens e Adultos","tags":"amenity:school,operator:Secretaria de Educação Municipal de Papanduva","lat":-26.4213945,"lng":-50.1256446}]