[{"id":"1042083173","name":"Aeroporto de Três Barras","tags":"aerodrome:public,aeroway:aerodrome,icao:SSTB,name:en:Três Barras Airport,wikidata:Q9586620,wikipedia:pt:Aeroporto de Três Barras","lat":-26.1300176,"lng":-50.3098912},{"id":"7058387914","name":"BioMax Academia","tags":"addr:city:Três Barras,addr:housenumber:1194,addr:postcode:89490-000,addr:street:Avenida Rigesa,addr:suburb:João Paulo II,leisure:fitness_centre,phone:+55 47 99171-3566,sport:fitness;gymnastics;exercise","lat":-26.1147,"lng":-50.3089101},{"id":"7058387915","name":"La casa do Chef Biondi","tags":"addr:city:Três Barras,addr:housenumber:411,addr:postcode:89490-000,addr:street:Rua Benedito Cordeiro,addr:suburb:Vila Nova,amenity:restaurant,cuisine:pizza;italian;japanese;regional,opening_hours:12:00-14:30,18:00-23:00,phone:+55 47 3623-1143","lat":-26.1137071,"lng":-50.3051078},{"id":"9590935286","name":"Hospital de Três Barras","tags":"addr:city:Três Barras,addr:housenumber:439,addr:postcode:89490-000,addr:street:R. João Manoel Sarda,addr:suburb:km02,amenity:hospital,emergency:yes,healthcare:hospital,operator:Prefeitura Municipal,operator:type:public","lat":-26.119969,"lng":-50.3040557},{"id":"9591023332","name":"Escola Básica Municipal Guita Federmann","tags":"addr:city:Três Barras,addr:postcode:89490000,addr:street:R. Dr. Osvaldo de Oliveira,addr:suburb:Vila Nova,amenity:school","lat":-26.1182942,"lng":-50.3052358}]