[{"id":"3637386795","name":"Restaurante Tureck Garten Hotel","tags":"addr:city:Corupá,addr:street:Rodovia Senador Luiz Henrique da Silveira,amenity:restaurant,cuisine:regional,smoking:no,website:http://www.tureckgarten.com.br/restaurante/","lat":-26.441205,"lng":-49.2201196},{"id":"4524087929","name":"Pizzaria Corupá","tags":"addr:city:Corupá,addr:housenumber:1052,addr:postcode:89278-000,addr:street:Rua Roberto Seidel,addr:suburb:Seminário,amenity:restaurant,cuisine:pizza,opening_hours:Tu-Su 18:00-23:30,phone:+55 47 3375-2970,smoking:no","lat":-26.4367795,"lng":-49.2465905},{"id":"4525503916","name":"Caixa Econômica Federal","tags":"addr:city:Corupá,addr:housenumber:538,addr:postcode:89278-000,addr:street:Avenida Getúlio Vargas,addr:suburb:Centro,amenity:bank,atm:yes,opening_hours:Mo-Fr 10:00-15:00,phone:+55 47 3375.6300","lat":-26.4250327,"lng":-49.2439207},{"id":"4525514292","name":"Restaurante do Mário","tags":"addr:city:Corupá,addr:street:Rodovia Senador Luiz Henrique da Silveira,addr:suburb:João Tozini,amenity:restaurant,cuisine:regional,opening_hours:Mo-Sa 10:00-15:00,phone:+55 47 3375.2227,smoking:no","lat":-26.4361544,"lng":-49.2405485},{"id":"4525515168","name":"Restaurante São José","tags":"addr:city:Corupá,addr:housenumber:916,addr:postcode:89278-000,addr:street:Rua Roberto Seidel,addr:suburb:Seminário,amenity:restaurant,phone:+55 47 3375-3375","lat":-26.4357002,"lng":-49.246129},{"id":"4701417992","name":"Farmácia Corupá","tags":"amenity:pharmacy,name:pt:Farmácia Corupá","lat":-26.4261791,"lng":-49.2404272},{"id":"4701419294","name":"Farmácia Essencia","tags":"amenity:pharmacy,name:pt:Farmácia Essencia","lat":-26.4269049,"lng":-49.2419891},{"id":"4701419797","name":"Farmácia Mafli","tags":"amenity:pharmacy,name:pt:Farmácia Mafli","lat":-26.4260956,"lng":-49.2415111},{"id":"4701419798","name":"Farmácia Brasil Popular","tags":"amenity:pharmacy,name:pt:Farmácia Brasil Popular","lat":-26.4258645,"lng":-49.2430944},{"id":"4701447689","name":"Farmagnus","tags":"amenity:pharmacy,healthcare:pharmacy,name:pt:Farmagnus","lat":-26.4334629,"lng":-49.2439356},{"id":"8632734106","name":"Igreja de São José","tags":"amenity:place_of_worship,building:church,denomination:roman_catholic,religion:christian","lat":-26.4260105,"lng":-49.2441749},{"id":"8636188394","name":"Biblioteca Pública Municipal Antônio de Castro Alves","tags":"amenity:library","lat":-26.428735,"lng":-49.239646},{"id":"8875545464","name":"Comercial Wajand","tags":"addr:city:Corupá,addr:street:Rua Otto Hillbrecht,shop:supermarket","lat":-26.4118783,"lng":-49.2531015},{"id":"8875729690","name":"Supermercado Mees","tags":"shop:supermarket","lat":-26.43445,"lng":-49.2449248},{"id":"8875729716","name":"E.e.b. Teresa Ramos","tags":"addr:city:Corupá,addr:housenumber:75,addr:postcode:89278-000,addr:street:Rua Vidal Ramos,addr:suburb:Centro,amenity:school","lat":-26.4234597,"lng":-49.2443098},{"id":"8875735517","tags":"amenity:school","lat":-26.4270066,"lng":-49.244899}]