[{"id":"3658751522","name":"Churrascaria Amigos da Estrada","tags":"addr:city:Rio Negrinho,addr:housenumber:2530,addr:postcode:89295-000,addr:street:Rodovia BR-280,addr:suburb:Industrial Sul,amenity:restaurant,cuisine:barbecue,phone:+55 47 3644 4662","lat":-26.2388048,"lng":-49.4983686},{"id":"3658781458","name":"Biblioteca Pública Municipal Doutor Helládio Olsen Veiga","tags":"addr:postcode:89295-000,addr:street:Rua Jorge Zipperer,amenity:library,email:bibliotecarn@bol.com.br,phone:+55 47 3644 4090,website:http://bibliotecapublicarn.blogspot.com","lat":-26.2549573,"lng":-49.5180925},{"id":"3658795737","name":"Museu Municipal Carlos Lampe","tags":"tourism:museum,website:https://www.rionegrinho.sc.gov.br/c/museu,wikidata:Q56694787","lat":-26.2541903,"lng":-49.5183934},{"id":"3801536669","name":"Escola Professora Aurora Siqueira Jablonski","tags":"addr:street:Rua Prefeito Hugo Fischer,addr:suburb:Bela Vista,alt_name:Escola de Educação Básica Professora Aurora Siqueira Jablonski,amenity:school,short_name:E.E.B. Profª Aurora Siqueira Jablonski","lat":-26.2527926,"lng":-49.5229913},{"id":"8147227924","name":"Centro Cívico Prefeito Romeu Ferreira de Albuquerque","tags":"leisure:park","lat":-26.2519661,"lng":-49.5186005}]