[{"id":"347168347","name":"Parque Tanguá","tags":"tourism:attraction","lat":-25.378747,"lng":-49.2814213},{"id":"597427896","tags":"access:yes,amenity:parking,fee:no,parking:surface","lat":-25.397988,"lng":-49.282767},{"id":"1748875755","name":"Colégio Santa Maria","tags":"amenity:school","lat":-25.3885239,"lng":-49.2684035},{"id":"1860242511","name":"Universidade Livre do Meio Ambiente","tags":"addr:city:Curitiba,addr:housenumber:210,addr:street:Rua Victor Benato,amenity:school,tourism:attraction,wikidata:Q10387847,wikipedia:pt:Universidade Livre do Meio Ambiente","lat":-25.3972267,"lng":-49.2835169},{"id":"2894555205","name":"Hiper Farma","tags":"addr:city:Curitiba,addr:housenumber:5839,addr:postcode:82130-210,addr:street:Rua Mateus Leme,addr:suburb:Abranches,amenity:pharmacy,emergency:no,healthcare:pharmacy,phone:+55 41 3354-2448,website:https://www.redehiperfarma.com.br/","lat":-25.3810629,"lng":-49.2722754},{"id":"2956085577","name":"Pedreira Paulo Leminski","tags":"leisure:park,tourism:attraction","lat":-25.3843648,"lng":-49.2772395},{"id":"4153854414","name":"Megapizza","tags":"amenity:restaurant,cuisine:pizza","lat":-25.3833647,"lng":-49.2937632},{"id":"4153859421","name":"Escola Municipal","tags":"amenity:school","lat":-25.3887037,"lng":-49.2844386},{"id":"4153859422","name":"Escola Municipal","tags":"amenity:school","lat":-25.3875687,"lng":-49.2864616},{"id":"4241515352","name":"Escola Municipal","tags":"amenity:school","lat":-25.3799321,"lng":-49.2955895},{"id":"4241515353","name":"Escola Municipal","tags":"amenity:school","lat":-25.3892734,"lng":-49.294489},{"id":"4241515354","name":"Escola Estadual","tags":"amenity:school","lat":-25.3887936,"lng":-49.2940384},{"id":"4241515355","name":"Escola Municipal","tags":"amenity:school","lat":-25.3891667,"lng":-49.2952561},{"id":"4241515357","name":"Escola Estadual","tags":"amenity:school","lat":-25.3926754,"lng":-49.3007654},{"id":"4246968171","name":"Escola Municipal","tags":"amenity:school","lat":-25.3638567,"lng":-49.2745766},{"id":"4246968695","name":"Escola Municipal","tags":"amenity:school","lat":-25.3680904,"lng":-49.2730553},{"id":"4247174598","name":"Escola Estadual","tags":"amenity:school","lat":-25.3720005,"lng":-49.2679949},{"id":"4247176717","name":"Escola Municipal","tags":"amenity:school","lat":-25.3718766,"lng":-49.2669651},{"id":"4720614710","name":"café unilivre","tags":"amenity:cafe,opening_hours:Tu-Su 12:00-18:30","lat":-25.3981313,"lng":-49.2829331},{"id":"5282118521","tags":"description:Pinus,leisure:park","lat":-25.3942904,"lng":-49.297196},{"id":"5282293420","tags":"amenity:car_wash","lat":-25.3937743,"lng":-49.2951628},{"id":"5282294322","tags":"shop:convenience","lat":-25.3937891,"lng":-49.2953202},{"id":"5283059507","tags":"amenity:pharmacy,healthcare:pharmacy","lat":-25.3920585,"lng":-49.2964221},{"id":"5283059513","name":"Pizza House","tags":"amenity:restaurant","lat":-25.3925686,"lng":-49.2963486},{"id":"5283064522","tags":"amenity:restaurant","lat":-25.3914599,"lng":-49.2970045},{"id":"5283064528","tags":"leisure:fitness_centre","lat":-25.3910938,"lng":-49.2969287},{"id":"5283064535","tags":"amenity:restaurant","lat":-25.3910038,"lng":-49.2972862},{"id":"5283064537","tags":"beauty:nails,shop:beauty","lat":-25.391452,"lng":-49.297226},{"id":"5283064562","name":"Morifarma","tags":"amenity:pharmacy,healthcare:pharmacy","lat":-25.3965641,"lng":-49.2875734},{"id":"5283064568","tags":"shop:beauty","lat":-25.3960981,"lng":-49.2878433},{"id":"5283138836","tags":"shop:pet","lat":-25.3975446,"lng":-49.2882489},{"id":"5283138838","name":"Pizza calezzano","tags":"amenity:restaurant,cuisine:pizza","lat":-25.3972927,"lng":-49.2881423},{"id":"6139444519","name":"Rei do Camarão","tags":"addr:housenumber:232,addr:street:Rua Lívio Moreira,amenity:restaurant,cuisine:seafood","lat":-25.3977435,"lng":-49.2710933},{"id":"6139444539","name":"Bar do Victor","tags":"addr:housenumber:284,addr:street:Rua Lívio Moreira,amenity:restaurant,cuisine:seafood","lat":-25.3977686,"lng":-49.2704656},{"id":"6171290284","name":"Ristorante Mangiatto Bene","tags":"addr:city:Curitiba,addr:housenumber:545,addr:postcode:82130-010,addr:street:Rua João Gava,addr:suburb:Pilarzinho,amenity:restaurant","lat":-25.3867916,"lng":-49.2727092},{"id":"6177677076","name":"Armazém VegAninha","tags":"addr:city:Curitiba,addr:housenumber:468,addr:postcode:82130-290,addr:street:Rua Eugênio Flor,addr:suburb:Abranches,contact:facebook:https://www.facebook.com/veganinha,contact:instagram:https://www.instagram.com/veganinha/,diet:vegan:only,email:contato@veganinha.com.br,shop:convenience,website:https://www.veganinha.com.br/","lat":-25.3813219,"lng":-49.2795056},{"id":"6573397641","tags":"amenity:bench,tourism:attraction","lat":-25.4003021,"lng":-49.2699788},{"id":"6605719132","name":"Estátua do Groot","tags":"tourism:attraction","lat":-25.4002614,"lng":-49.2699673},{"id":"10293892102","tags":"building:levels:1,check_date:2022-12-29,fee:no,museum:art,name:pt:Memorial Paranistq,operator:type:public,tourism:museum,wheelchair:yes","lat":-25.3875938,"lng":-49.2669569},{"id":"10293938952","tags":"building:levels:1,check_date:2022-12-29,fee:no,level:0,museum:art,name:pt:Memorial Paranista,operator:type:public,tourism:museum,wheelchair:yes","lat":-25.3875938,"lng":-49.2669569}]