[{"id":"270356253","name":"Restaurante Boa Mesa","tags":"amenity:restaurant","lat":-25.4387205,"lng":-49.2359148},{"id":"270357146","name":"Restaurante Millons","tags":"amenity:restaurant","lat":-25.4389085,"lng":-49.23577},{"id":"270357431","name":"Farmácia Jardim Botânico","tags":"amenity:pharmacy,healthcare:pharmacy","lat":-25.4387527,"lng":-49.2377298},{"id":"270357432","name":"Restaurante Dom Camilo","tags":"addr:city:Curitiba,addr:housenumber:86,addr:street:Rua João Dranka,addr:suburb:Cristo Rei,amenity:restaurant,capacity:50,cuisine:regional;burger,outdoor_seating:no,smoking:outside,takeaway:yes","lat":-25.4392757,"lng":-49.2367633},{"id":"573461210","name":"Restaurante Mister Toko","tags":"amenity:restaurant","lat":-25.4399092,"lng":-49.2342208},{"id":"750055285","name":"Restaurante Espetinhos","tags":"amenity:restaurant","lat":-25.4298191,"lng":-49.250243},{"id":"842326387","name":"Qualyfarma","tags":"addr:housenumber:186,addr:street:Rua Nilo Cairo,amenity:pharmacy,dispensing:no,healthcare:pharmacy","lat":-25.4321599,"lng":-49.2619853},{"id":"846529452","name":"Oliver","tags":"amenity:parking,capacity:disabled:yes,capacity:parent:no,capacity:women:no,fee:yes,park_ride:yes,parking:surface","lat":-25.4316197,"lng":-49.2618338},{"id":"846529461","tags":"amenity:fuel,brand:Ipiranga,fuel:diesel:yes,operator:Ipiranga,shop:convenience","lat":-25.4423442,"lng":-49.2601612},{"id":"1048218801","name":"Cantina do Délio","tags":"amenity:restaurant,wheelchair:no","lat":-25.4228128,"lng":-49.2495458},{"id":"1389694639","name":"Droga Raia","tags":"addr:city:Curitiba,addr:housenumber:2760,addr:street:Rua 15 de Novembro,addr:suburb:Alto da Rua XV,amenity:pharmacy,brand:Droga Raia,brand:wikidata:Q10357101,brand:wikipedia:pt:RaiaDrogasil,healthcare:pharmacy","lat":-25.4276808,"lng":-49.2474957},{"id":"1802663835","name":"Correios","tags":"amenity:post_office,brand:Correios,brand:wikidata:Q3375004,brand:wikipedia:en:Correios","lat":-25.4126243,"lng":-49.2282271},{"id":"1803083518","name":"Correios AGF Hugo Lange","tags":"amenity:post_office,operator:Correios,operator:wikidata:Q3375004,operator:wikipedia:en:Correios,phone:+55 41 3016 8060","lat":-25.4175105,"lng":-49.2481466},{"id":"1803083525","name":"Bradesco","tags":"amenity:bank,atm:yes,branch:Hugo Lange,brand:Bradesco,brand:wikidata:Q806181,brand:wikipedia:en:Banco Bradesco","lat":-25.4173835,"lng":-49.2459315},{"id":"1803083555","name":"Banco do Brasil","tags":"addr:housenumber:1998,addr:street:Rua Augusto Stresser,amenity:bank,atm:yes,brand:Banco do Brasil,brand:wikidata:Q610817,brand:wikipedia:en:Banco do Brasil,drive_through:no","lat":-25.4179766,"lng":-49.242083},{"id":"1803083558","name":"Caixa Econômica Federal","tags":"addr:city:Curitiba,addr:housenumber:1998,addr:street:Rua Augusto Stresser,amenity:bank,atm:yes,branch:Ag Hugo Lange,brand:Caixa Econômica Federal,brand:wikidata:Q835283,brand:wikipedia:pt:Caixa Econômica Federal","lat":-25.4180791,"lng":-49.2421099},{"id":"1803083561","name":"Itaú","tags":"amenity:bank,brand:Itaú Unibanco,brand:wikidata:Q1424293,brand:wikipedia:pt:Itaú Unibanco","lat":-25.4172054,"lng":-49.2483129},{"id":"1803083565","tags":"amenity:car_wash","lat":-25.4167066,"lng":-49.2381267},{"id":"1984203942","name":"Kharina","tags":"amenity:restaurant,toilets:wheelchair:yes,wheelchair:yes","lat":-25.438072,"lng":-49.2506839},{"id":"1984203946","name":"Apple Jack - Restaurante","tags":"amenity:restaurant,wheelchair:yes","lat":-25.4385799,"lng":-49.2503096},{"id":"1984206219","name":"Cantina da Mamma","tags":"amenity:restaurant,cuisine:italian","lat":-25.4388149,"lng":-49.2509722},{"id":"2141427608","name":"Al Almasor","tags":"amenity:restaurant,cuisine:regional,internet_access:wlan,internet_access:fee:yes,smoking:no,wheelchair:yes","lat":-25.4353476,"lng":-49.256894},{"id":"2142630604","name":"Anarco","tags":"amenity:restaurant,cuisine:italian,internet_access:wlan,internet_access:fee:yes,smoking:no,wheelchair:yes","lat":-25.4343221,"lng":-49.2570552},{"id":"2470550598","name":"Originale","tags":"addr:housenumber:665,addr:street:Avenida Munhoz da Rocha,amenity:restaurant,cuisine:italian,diet:vegan:yes,website:https://www.originale.com.br/","lat":-25.4094749,"lng":-49.2527189},{"id":"2563180151","name":"Cozinha Girassol","tags":"amenity:cafe","lat":-25.4337808,"lng":-49.2534847},{"id":"2586199867","name":"Bruno's Lava car e Estacionamento","tags":"access:customers,addr:city:Curitiba,addr:postcode:80050470,amenity:parking,fee:yes,parking:surface","lat":-25.4355993,"lng":-49.2382375},{"id":"2587410414","name":"Cloroquímica","tags":"addr:city:Curitiba,addr:housenumber:751,addr:postcode:80060-110,addr:street:Rua Tibagi,addr:suburb:Centro,email:cloroquimica@cloroquimica.com.br,phone:+55 41 3322 3844,shop:chemist,website:https://www.cloroquimica.com.br/","lat":-25.4333259,"lng":-49.2621433},{"id":"2589644703","name":"Pizzaria Dom Martiello","tags":"addr:housenumber:36,addr:street:Rua Prefeito Ângelo Ferrário Lopes,amenity:restaurant,cuisine:pizza,internet_access:wlan,internet_access:fee:yes,opening_hours:19:00-23:30,phone:+55 41 3262 8857,smoking:no,wheelchair:yes","lat":-25.4350744,"lng":-49.2442823},{"id":"2592307119","tags":"access:customers,amenity:parking,parking:surface","lat":-25.4177177,"lng":-49.2576515},{"id":"2593509020","name":"Estacionamento do Hospital Marcelino Champagnat","tags":"access:customers,amenity:parking,fee:yes,operator:Estapar,parking:surface,wheelchair:yes","lat":-25.4357504,"lng":-49.2476773},{"id":"2630097289","name":"Akai Sushi Bar","tags":"addr:city:Curitiba,addr:housenumber:610,addr:street:Rua Camões,addr:suburb:Alto da Rua XV,amenity:restaurant,capacity:80,cuisine:japanese,delivery:yes,internet_access:wlan,opening_hours:11:00-14:00;19:00-23:00,phone:+55 41 3019-9580,smoking:no,takeaway:yes,website:http://akaisushibar.com.br,wheelchair:no","lat":-25.4258678,"lng":-49.2473874},{"id":"2630109261","name":"Correios - AGF XV de Novembro","tags":"addr:city:Curitiba,addr:housenumber:2765,addr:postcode:80050-981,addr:street:Rua XV de Novembro,addr:suburb:Alto da Rua XV,amenity:post_office,brand:Correios,brand:wikidata:Q3375004,brand:wikipedia:en:Correios,phone:+55 41 3363-7209,wheelchair:yes","lat":-25.427124,"lng":-49.2475029},{"id":"2841525295","name":"Pizzaria Santa Calábria","tags":"amenity:restaurant,cuisine:pizza","lat":-25.4087638,"lng":-49.2549406},{"id":"3386455169","tags":"amenity:pharmacy,healthcare:pharmacy","lat":-25.4339919,"lng":-49.2576609},{"id":"3617375781","name":"Farmácia Descontão","tags":"addr:city:Curitiba,addr:housenumber:255,addr:street:Avenida Prefeito Erasto Gaertner,amenity:pharmacy,healthcare:pharmacy","lat":-25.4037937,"lng":-49.2438455},{"id":"3617375783","name":"Caixa Econômica Federal","tags":"addr:city:Curitiba,addr:housenumber:161,addr:street:Avenida Prefeito Erasto Gaertner,amenity:bank,branch:Ag Bacacheri,brand:Caixa Econômica Federal,brand:wikidata:Q835283,brand:wikipedia:pt:Caixa Econômica Federal,wheelchair:limited","lat":-25.4043243,"lng":-49.2446237},{"id":"3617375784","name":"Forte Farma","tags":"addr:city:Curitiba,addr:housenumber:183,addr:street:Avenida Prefeito Erasto Gaertner,amenity:pharmacy,healthcare:pharmacy","lat":-25.4042398,"lng":-49.2444882},{"id":"3617375785","name":"Nissei","tags":"addr:city:Curitiba,addr:housenumber:182,addr:street:Avenida Prefeito Erasto Gaertner,amenity:pharmacy,healthcare:pharmacy,opening_hours:24/7,wheelchair:yes","lat":-25.4044108,"lng":-49.2443104},{"id":"3617375786","name":"Banco do Brasil","tags":"addr:city:Curitiba,addr:housenumber:160,addr:street:Avenida Prefeito Erasto Gaertner,amenity:bank,brand:Banco do Brasil,brand:wikidata:Q610817,brand:wikipedia:en:Banco do Brasil,wheelchair:limited","lat":-25.4045504,"lng":-49.2445228},{"id":"3617375787","name":"Farmácia Popular","tags":"addr:city:Curitiba,addr:street:Avenida Prefeito Erasto Gaertner,amenity:pharmacy,healthcare:pharmacy,wheelchair:yes","lat":-25.4040746,"lng":-49.2439014},{"id":"3617753596","name":"Instituto Cervantes","tags":"amenity:school","lat":-25.4289187,"lng":-49.2580831},{"id":"3617755400","name":"Goethe Institut","tags":"amenity:school","lat":-25.4291943,"lng":-49.2577738},{"id":"3618053935","tags":"amenity:pharmacy","lat":-25.4414389,"lng":-49.2324979},{"id":"3620375657","name":"Nissei","tags":"amenity:pharmacy","lat":-25.4202397,"lng":-49.2393467},{"id":"3620420978","name":"Churascaria Recanto do Gaúcho","tags":"amenity:restaurant","lat":-25.4271301,"lng":-49.2375322},{"id":"3620667926","name":"Droga Raia","tags":"amenity:pharmacy","lat":-25.412875,"lng":-49.2533548},{"id":"3641084513","name":"Bar Jacobina","tags":"addr:city:Curitiba,addr:housenumber:348,addr:street:Rua Conselheiro Carrão,amenity:bar","lat":-25.4208795,"lng":-49.2546067},{"id":"3641084515","name":"Al Beirut","tags":"addr:city:Curitiba,addr:housenumber:397,addr:street:Rua Conselheiro Carrão,amenity:restaurant,cuisine:arab","lat":-25.4206628,"lng":-49.2542061},{"id":"3644397676","name":"Cantinho Árabe","tags":"addr:housenumber:1967,addr:street:Rua Schiller,amenity:restaurant,capacity:60,cuisine:arab,takeaway:yes","lat":-25.4178079,"lng":-49.2494053},{"id":"3644411679","name":"Caixa Econômica Federal - Ag Capão da Imbuia","tags":"addr:city:Curitiba,addr:housenumber:1588,addr:street:Rua Delegado Leopoldo Belczak,amenity:bank","lat":-25.4378407,"lng":-49.2212041},{"id":"3651039854","name":"Academia ATP Energy","tags":"leisure:sports_centre","lat":-25.4236459,"lng":-49.2582055},{"id":"3653001288","name":"Caixa Econômica Federal - Ag João Negrão","tags":"addr:city:Curitiba,addr:housenumber:1655,addr:street:Rua João Negrão,amenity:bank","lat":-25.4429557,"lng":-49.2602119},{"id":"3653014327","name":"Costelão Iguaçu","tags":"amenity:restaurant","lat":-25.4393173,"lng":-49.2624273},{"id":"3654009126","name":"Caixa Econômica Federal - Ag Justiça Federal Curitiba","tags":"addr:city:Curitiba,addr:housenumber:888,addr:street:Avenida Anita Garibaldi,amenity:bank,brand:Caixa Econômica Federal,brand:wikidata:Q835283,brand:wikipedia:pt:Caixa Econômica Federal","lat":-25.403841,"lng":-49.2577406},{"id":"3754894117","name":"Casa Belotti","tags":"addr:housenumber:621,addr:street:Rua Doutor Faivre,amenity:cafe","lat":-25.4288055,"lng":-49.2613568},{"id":"3840084221","tags":"addr:street:Rua Oyapock,amenity:restaurant,cuisine:regional","lat":-25.4359062,"lng":-49.2384985},{"id":"3845137589","name":"Farmácia Panvel","tags":"addr:city:Curitiba,addr:housenumber:1777,addr:street:Avenida Senador Souza Naves,addr:suburb:Cristo Rei,amenity:pharmacy,operator:Panvel,phone:+554133622112","lat":-25.4322785,"lng":-49.24005},{"id":"3846531812","name":"Droga Raia","tags":"addr:city:Curitiba,addr:housenumber:1040,addr:postcode:80050350,addr:street:Avenida São José,addr:suburb:Cristo Rei,amenity:pharmacy,drive_through:no,opening_hours:07:00-23:00,operator:Droga Raia,phone:+554130880449","lat":-25.4345153,"lng":-49.239732},{"id":"3846576852","name":"Nishifarma","tags":"addr:city:Curitiba,addr:housenumber:267,addr:postcode:80060-230,addr:street:Rua Conselheiro Araújo,addr:suburb:Alto da Glória,amenity:pharmacy,healthcare:pharmacy,opening_hours:Mo-Sa 08:00-18:00,operator:Nishifarma","lat":-25.4254747,"lng":-49.2619438},{"id":"3846622365","name":"Colégio Estadual Leôncio Correia, EF M Profis","tags":"addr:city:Curitiba,addr:housenumber:233,addr:postcode:82510180,addr:street:Rua Costa Rica,addr:suburb:Bacacheri,amenity:school,phone:+55 41 32576488","lat":-25.4011096,"lng":-49.2447776},{"id":"3846622368","name":"Colégio Stella Maris","tags":"addr:city:Curitiba,addr:housenumber:792,addr:postcode:80530-290,addr:street:Rua Rocha Pombo,addr:suburb:Juvevê,amenity:school,phone:+55 41 33521202","lat":-25.4051416,"lng":-49.2616788},{"id":"3846622371","name":"Nossa Senhora da Salete, E E-EF","tags":"addr:city:Curitiba,addr:housenumber:94,addr:postcode:82820530,addr:street:Rua Lange de Morretes,addr:suburb:Jardim Social,amenity:school,phone:+55 41 32622121","lat":-25.4129827,"lng":-49.2318386},{"id":"4078827288","name":"La Casa di Frango","tags":"addr:housenumber:1012,addr:street:Avenida Munhoz da Rocha,amenity:restaurant","lat":-25.4079,"lng":-49.2497957},{"id":"4078829389","name":"Pague Menos","tags":"amenity:pharmacy,brand:Pague Menos,brand:wikidata:Q7124466,brand:wikipedia:pt:Pague Menos,healthcare:pharmacy","lat":-25.4081252,"lng":-49.2501425},{"id":"4227110989","name":"Farmácia Jardim Botânico","tags":"amenity:pharmacy,healthcare:pharmacy","lat":-25.4354214,"lng":-49.2536456},{"id":"4299026476","name":"Farmácias Panvel","tags":"amenity:pharmacy","lat":-25.4426023,"lng":-49.2603241},{"id":"4327161226","name":"Droga Raia","tags":"amenity:pharmacy","lat":-25.4239325,"lng":-49.2417774},{"id":"4328286319","name":"Depil House","tags":"shop:beauty","lat":-25.4242578,"lng":-49.24762},{"id":"4367746504","name":"Santander","tags":"amenity:bank,brand:Santander,brand:wikidata:Q5835668,brand:wikipedia:en:Santander Bank,name:pt:Santander","lat":-25.4033013,"lng":-49.2427748},{"id":"4464052389","name":"La Linda Restaurante","tags":"amenity:restaurant,name:en:Restaurant La Linda,name:pt:La Linda Restaurante","lat":-25.42397,"lng":-49.2444825},{"id":"4473558572","name":"Pizzaria Salvatore","tags":"amenity:restaurant,cuisine:pizza,delivery:yes","lat":-25.4177574,"lng":-49.2221231},{"id":"4488724391","name":"Fábrica de Fitas Venske","tags":"tourism:attraction","lat":-25.4291498,"lng":-49.2578922},{"id":"4592740690","name":"Jô Buffet e Restaurante","tags":"addr:housenumber:1867,addr:street:Avenida Sete de Setembro,amenity:restaurant,name:pt:Jô Buffet e Restaurante","lat":-25.4339499,"lng":-49.2574343},{"id":"4630850858","name":"Dona Ambrosina","tags":"amenity:restaurant,name:en:Dona Ambrosina,name:pt:Dona Ambrosina","lat":-25.418926,"lng":-49.2399578},{"id":"4630854787","tags":"leisure:fitness_centre","lat":-25.4190285,"lng":-49.241802},{"id":"4630854788","tags":"leisure:fitness_centre","lat":-25.4195461,"lng":-49.2413202},{"id":"4630854789","tags":"amenity:restaurant","lat":-25.4193893,"lng":-49.2414664},{"id":"4696480635","name":"Bali Pizzaria","tags":"addr:city:Curitiba,addr:housenumber:986,addr:postcode:80050-480,addr:street:Avenida Marechal Humberto de Alencar Castelo Branco,addr:suburb:Cristo Rei,amenity:restaurant,capacity:2,cuisine:pizza,delivery:yes,opening_hours:Tu-Su 18:00-22:30,outdoor_seating:no,smoking:no,takeaway:only","lat":-25.4354141,"lng":-49.2362844},{"id":"4771986508","name":"cordelia","tags":"addr:city:Curitiba,addr:housenumber:213,addr:street:Rua Oyapock,addr:suburb:Cristo Rei,amenity:restaurant,cuisine:tradicional","lat":-25.4351545,"lng":-49.239227},{"id":"4781513657","name":"Biblioteca Central - UFPR","tags":"addr:city:Curitiba,addr:housenumber:370,addr:street:Rua General Carneiro,addr:suburb:Centro,amenity:library,internet_access:wlan,operator:UFPR","lat":-25.4259861,"lng":-49.2619736},{"id":"4781513675","tags":"amenity:cafe","lat":-25.4265836,"lng":-49.2616732},{"id":"4781513696","name":"Siciliana","tags":"amenity:cafe,cuisine:regional","lat":-25.4273976,"lng":-49.2623339},{"id":"4781513719","name":"Dana Farma","tags":"amenity:pharmacy,healthcare:pharmacy","lat":-25.4283608,"lng":-49.2624946},{"id":"4781516124","name":"Bistrô Passeio","tags":"amenity:restaurant,cuisine:regional","lat":-25.4275478,"lng":-49.2619667},{"id":"4781516125","name":"Du Chef","tags":"amenity:restaurant,cuisine:regional","lat":-25.4275208,"lng":-49.2618963},{"id":"4781516140","tags":"amenity:cafe","lat":-25.4273317,"lng":-49.260975},{"id":"4783768085","name":"Caixa Econômica Federal","tags":"amenity:bank,atm:yes,brand:Caixa Econômica Federal,brand:wikidata:Q835283,brand:wikipedia:pt:Caixa Econômica Federal","lat":-25.4272752,"lng":-49.2610027},{"id":"4924412796","name":"Será o benedito","tags":"addr:city:Curitiba,addr:street:Rua México,addr:suburb:Bacacheri,amenity:restaurant,capacity:50,cuisine:pizza;regional,opening_hours:Mo-Fr 08:00-17:00,smoking:outside,takeaway:yes","lat":-25.4055791,"lng":-49.240292},{"id":"4924457171","name":"Centro Comercial Via Colegh","tags":"addr:street:Avenida Prefeito Erasto Gaertner,addr:suburb:Bacacheri,shop:mall","lat":-25.4045095,"lng":-49.2450843},{"id":"4931567751","name":"Restaurante Universitário Central - UFPR","tags":"amenity:restaurant,cuisine:regional,name:de:Mensa UFPR,name:pt:RU Central - UFPR","lat":-25.4262136,"lng":-49.2619248},{"id":"4958642621","name":"Casa da Mulher Brasileira","tags":"addr:housenumber:870,addr:street:Avenida Paraná,amenity:police","lat":-25.404289,"lng":-49.2502064},{"id":"5228245288","name":"CrossFit Barigui","tags":"addr:city:Curitiba,addr:housenumber:1619,addr:postcode:80040-310,addr:street:Rua Augusto Stresser,addr:suburb:Hugo Langue,leisure:fitness_centre","lat":-25.4174031,"lng":-49.2458194},{"id":"5228251921","name":"Restaurante Cristo Rei","tags":"addr:city:Curitiba,addr:housenumber:85,addr:postcode:80050-510,addr:street:Avenida Nossa Senhora da Penha,addr:suburb:Cristo Rei,amenity:restaurant","lat":-25.4372821,"lng":-49.2349157},{"id":"5228252676","name":"São Leopoldo Mandic","tags":"addr:city:Curitiba,addr:housenumber:1752,addr:street:Rua Fernandes de Barros,addr:suburb:Hugo Lange,amenity:university","lat":-25.415368,"lng":-49.244627},{"id":"5432476122","name":"Frens","tags":"addr:street:Rua Frei Orlando,amenity:bar,cuisine:burger","lat":-25.4273198,"lng":-49.2380237},{"id":"5468430121","name":"Centro de Educação Infantil Castelinho do Saber","tags":"addr:city:Curitiba,addr:housenumber:531,addr:postcode:80060-020,addr:street:Rua Benjamin Constant,addr:suburb:Centro,amenity:school,opening_hours:Mo-Fr 07:00-18:00,phone:+554130791893","lat":-25.4284429,"lng":-49.2598732},{"id":"5694075909","name":"Escola Municipal Eneas Marques dos Santos - EF","tags":"amenity:school,operator:PMC - SME","lat":-25.4342006,"lng":-49.2190152},{"id":"5877007621","tags":"amenity:atm,cash_in:no,currency:BRL:yes,drive_through:no","lat":-25.4064752,"lng":-49.2528619},{"id":"6172139874","name":"Correios","tags":"addr:housenumber:202,addr:street:Rua Holanda,amenity:post_office,operator:Correios,operator:wikidata:Q3375004,operator:wikipedia:en:Correios","lat":-25.401326,"lng":-49.2433078},{"id":"6172141467","name":"Frango na Brasa","tags":"addr:housenumber:4468,addr:street:Rua Flávio Dallegrave,amenity:restaurant","lat":-25.4010394,"lng":-49.2470509},{"id":"6172141925","name":"Abaré Express","tags":"addr:housenumber:600,addr:street:Rua México,amenity:restaurant,cuisine:pizza","lat":-25.4073665,"lng":-49.238767},{"id":"6172142064","name":"Preço Popular","tags":"addr:housenumber:368,addr:street:Avenida Prefeito Erasto Gaertner,amenity:pharmacy,dispensing:yes,healthcare:pharmacy","lat":-25.4033797,"lng":-49.2427753},{"id":"6172142110","name":"Nissei","tags":"addr:housenumber:387,addr:street:Avenida Prefeito Erasto Gaertner,amenity:pharmacy,dispensing:yes,healthcare:pharmacy","lat":-25.4031079,"lng":-49.2427864},{"id":"6172143600","name":"Hora Extra","tags":"addr:housenumber:193,addr:street:Rua Holanda,amenity:bar","lat":-25.4014744,"lng":-49.2435183},{"id":"6172143672","name":"Bradesco","tags":"addr:housenumber:209,addr:street:Avenida Prefeito Erasto Gaertner,amenity:bank,brand:Bradesco,brand:wikidata:Q806181,brand:wikipedia:en:Banco Bradesco","lat":-25.4039686,"lng":-49.2441872},{"id":"6172145080","name":"Pague Menos","tags":"addr:housenumber:280,addr:street:Avenida Prefeito Erasto Gaertner,amenity:pharmacy,brand:Pague Menos,brand:wikidata:Q7124466,brand:wikipedia:pt:Pague Menos,dispensing:yes,healthcare:pharmacy","lat":-25.4038985,"lng":-49.2435369},{"id":"6172164063","name":"Mad Jack Beer Lab","tags":"addr:housenumber:827,addr:street:Rua Mauá,amenity:bar","lat":-25.4180572,"lng":-49.2626484},{"id":"6172164133","name":"Banco do Brasil","tags":"addr:housenumber:1131,addr:street:Avenida João Gualberto,amenity:bank,brand:Banco do Brasil,brand:wikidata:Q610817,brand:wikipedia:en:Banco do Brasil","lat":-25.4170154,"lng":-49.2625025},{"id":"6172164220","name":"Garbanzo","tags":"addr:housenumber:543,addr:street:Rua Alberto Bolliger,amenity:restaurant","lat":-25.4178526,"lng":-49.2581884},{"id":"6173649336","name":"Mannus","tags":"addr:housenumber:1092,addr:street:Avenida Anita Garibaldi,amenity:restaurant","lat":-25.4023593,"lng":-49.2585526},{"id":"6173650239","name":"Droga Raia","tags":"addr:housenumber:54,addr:street:Avenida Prefeito Erasto Gaertner,amenity:pharmacy,brand:Droga Raia,brand:wikidata:Q10357101,brand:wikipedia:pt:RaiaDrogasil,dispensing:yes,healthcare:pharmacy","lat":-25.4050855,"lng":-49.2454058},{"id":"6173650240","name":"Costelão Bacacheri 24h","tags":"addr:housenumber:26,addr:street:Avenida Prefeito Erasto Gaertner,amenity:restaurant,cuisine:steak_house,opening_hours:24/7","lat":-25.4051587,"lng":-49.2456101},{"id":"6173652156","name":"Supernova Coffee Roasters Cabral","tags":"addr:city:Curitiba,addr:housenumber:265,addr:postcode:80035-130,addr:street:Avenida Paraná,addr:suburb:Cabral,amenity:cafe,cuisine:cafe;cafetaria;cafeteria;brunch;breakfast;coffee;coffee_shop,internet_access:yes,internet_access:fee:customers,opening_hours:08:00 - 19:00,opening_hours:covid19:open,outdoor_seating:no,phone:+55 41 999587325,website:https://www.facebook.com/supernovacoffee/","lat":-25.4082696,"lng":-49.254405},{"id":"6173652179","name":"Nissei","tags":"addr:housenumber:744,addr:street:Avenida Munhoz da Rocha,amenity:pharmacy,dispensing:yes,healthcare:pharmacy","lat":-25.4094192,"lng":-49.2520631},{"id":"6173652554","name":"Santander","tags":"addr:housenumber:1240,addr:street:Avenida Anita Garibaldi,amenity:bank,brand:Santander,brand:wikidata:Q5835668,brand:wikipedia:en:Santander Bank","lat":-25.40121,"lng":-49.2584212},{"id":"6173725869","name":"Império Pet","tags":"addr:housenumber:525,addr:street:Rua Francisco Alves Guimaraes,shop:pet","lat":-25.4338024,"lng":-49.2503074},{"id":"6173726346","name":"Top Food","tags":"shop:convenience","lat":-25.4351679,"lng":-49.2534433},{"id":"6173762530","name":"Sem Culpa","tags":"addr:housenumber:1960,addr:street:Rua Schiller,amenity:restaurant,diet:gluten_free:yes","lat":-25.417829,"lng":-49.2491384},{"id":"6173762545","name":"Panvel","tags":"addr:housenumber:1800,addr:street:Rua Augusto Stresser,amenity:pharmacy,brand:Panvel,brand:wikidata:Q10344254,dispensing:yes,healthcare:pharmacy","lat":-25.4178626,"lng":-49.2441818},{"id":"6173762565","name":"Le Liban","tags":"addr:housenumber:1570,addr:street:Rua Augusto Stresser,amenity:restaurant,cuisine:árabe","lat":-25.4176894,"lng":-49.2463005},{"id":"6173762924","name":"Smart Fit","tags":"addr:housenumber:1588,addr:street:Rua Augusto Stresser,brand:Smart Fit,brand:wikidata:Q30930959,leisure:fitness_centre","lat":-25.4177028,"lng":-49.2461325},{"id":"6173889643","name":"Mukeka","tags":"addr:housenumber:417,addr:street:Rua Machado de Assis,amenity:restaurant,cuisine:regional","lat":-25.4157897,"lng":-49.2561697},{"id":"6173892403","name":"Baggio - Juvevê","tags":"addr:housenumber:380,addr:street:Rua Rocha Pombo,amenity:restaurant,cuisine:pizza","lat":-25.4147088,"lng":-49.257842},{"id":"6173892406","name":"Correios","tags":"addr:housenumber:1664,addr:street:Avenida João Gualberto,amenity:post_office,brand:Correios,brand:wikidata:Q3375004,brand:wikipedia:en:Correios,operator:Correios,operator:wikidata:Q3375004,operator:wikipedia:en:Correios","lat":-25.4136132,"lng":-49.2588837},{"id":"6173892411","name":"Nissei","tags":"addr:housenumber:1643,addr:street:Avenida João Gualberto,amenity:pharmacy,dispensing:yes,healthcare:pharmacy","lat":-25.4135741,"lng":-49.2593052},{"id":"6173892625","name":"Nissei","tags":"addr:housenumber:1782,addr:street:Avenida João Gualberto,amenity:pharmacy,dispensing:yes,healthcare:pharmacy","lat":-25.4127605,"lng":-49.2580849},{"id":"6173893515","name":"Maxifarma","tags":"addr:housenumber:1479,addr:street:Avenida João Gualberto,amenity:pharmacy,dispensing:yes,healthcare:pharmacy","lat":-25.4147158,"lng":-49.2603565},{"id":"6173893614","name":"Bradesco","tags":"addr:housenumber:1487,addr:street:Avenida João Gualberto,amenity:bank,branch:Prime,brand:Bradesco,brand:wikidata:Q806181,brand:wikipedia:en:Banco Bradesco","lat":-25.4146129,"lng":-49.2602799},{"id":"6173895055","name":"Itaú","tags":"addr:housenumber:1512,addr:street:Avenida João Gualberto,amenity:bank,brand:Itaú Unibanco,brand:wikidata:Q1424293,brand:wikipedia:pt:Itaú Unibanco","lat":-25.414785,"lng":-49.2599516},{"id":"6173895073","name":"Blackbird","tags":"addr:housenumber:530,addr:street:Rua Barão de Guaraúna,amenity:bar","lat":-25.4153934,"lng":-49.2578127},{"id":"6173895585","name":"Tierra del Fuego","tags":"addr:housenumber:331,addr:street:Rua Rocha Pombo,amenity:restaurant,cuisine:barbecue","lat":-25.4151449,"lng":-49.2576647},{"id":"6173895597","name":"Pantucci Trattoria","tags":"addr:housenumber:553,addr:street:Rua Barão de Guaraúna,amenity:restaurant,cuisine:italian","lat":-25.4151176,"lng":-49.2579433},{"id":"6173895599","name":"Mangiare Felice - Juvevê","tags":"addr:housenumber:397,addr:street:Rua Rocha Pombo,amenity:restaurant,cuisine:regional","lat":-25.4146126,"lng":-49.258349},{"id":"6173895604","name":"Santander","tags":"addr:housenumber:1538,addr:street:Avenida João Gualberto,amenity:bank,brand:Santander,brand:wikidata:Q5835668,brand:wikipedia:en:Santander Bank","lat":-25.4145677,"lng":-49.2597618},{"id":"6174853729","name":"Chimarrão","tags":"addr:housenumber:1371,addr:street:Rua Doutor Faivre,amenity:restaurant","lat":-25.4349081,"lng":-49.2582001},{"id":"6174854058","name":"Super G - Supermercado","tags":"addr:housenumber:377,addr:street:Rua Brasílio Itiberê,shop:supermarket","lat":-25.4394534,"lng":-49.2487334},{"id":"6175224528","name":"La Vaca Steakhouse","tags":"addr:housenumber:988,addr:street:Rua Schiller,amenity:restaurant,cuisine:steak_house","lat":-25.4265556,"lng":-49.2500278},{"id":"6175225715","name":"Pizzaria Suíça","tags":"addr:housenumber:1191,addr:street:Rua Ubaldino do Amaral,amenity:restaurant,cuisine:pizza","lat":-25.4312724,"lng":-49.2569712},{"id":"6175225856","name":"Masc Beer","tags":"addr:housenumber:835, loja 3,addr:street:Rua 7 de Abril,amenity:bar,brewery:yes","lat":-25.424162,"lng":-49.2559535},{"id":"6175225884","name":"Di Napoli","tags":"addr:housenumber:97,addr:street:Avenida Senador Souza Naves,amenity:restaurant,cuisine:pizza","lat":-25.4305194,"lng":-49.2567443},{"id":"6175226115","name":"Rapidità","tags":"addr:housenumber:241,addr:street:Avenida Senador Souza Naves,amenity:restaurant,cuisine:pizza","lat":-25.4306332,"lng":-49.255332},{"id":"6175226151","name":"Filé de Igreja","tags":"addr:housenumber:396,addr:street:Rua Professor Brandão,amenity:restaurant,cuisine:steak_house","lat":-25.4242239,"lng":-49.2518022},{"id":"6175226265","name":"Nissei","tags":"addr:housenumber:2182,addr:street:Rua XV de Novembro,amenity:pharmacy,dispensing:yes,healthcare:pharmacy","lat":-25.4269036,"lng":-49.2532573},{"id":"6175229017","name":"Dona Helena","tags":"addr:housenumber:1951,addr:street:Rua XV de Novembro,amenity:restaurant","lat":-25.4264946,"lng":-49.2554969},{"id":"6175229334","name":"Jarro de Davi","tags":"addr:housenumber:429,addr:street:Rua Professor Brandão,amenity:restaurant","lat":-25.4240467,"lng":-49.2513804},{"id":"6177462113","name":"Costelão Fontana","tags":"addr:housenumber:645,addr:street:Avenida Marechal Humberto de Alencar Castelo Branco,amenity:restaurant","lat":-25.432576,"lng":-49.2379387},{"id":"6177462117","name":"Cabana","tags":"addr:housenumber:655,addr:street:Avenida Marechal Humberto de Alencar Castelo Branco,amenity:restaurant","lat":-25.4326813,"lng":-49.2378184},{"id":"6177462144","name":"Do Peruano","tags":"addr:housenumber:675,addr:street:Avenida Marechal Humberto de Alencar Castelo Branco,amenity:restaurant","lat":-25.4329491,"lng":-49.2374369},{"id":"6177605662","name":"China in Box","tags":"addr:housenumber:1143,addr:street:Avenida Anita Garibaldi,amenity:restaurant,cuisine:chinese","lat":-25.4019842,"lng":-49.2588799},{"id":"6177605771","name":"Duckbill Cookies","tags":"addr:housenumber:730,addr:street:Rua Manoel Eufrásio,amenity:cafe","lat":-25.4102503,"lng":-49.2598805},{"id":"6177607036","name":"Panvel","tags":"addr:housenumber:1572,addr:street:Rua Alberto Folloni,amenity:pharmacy,brand:Panvel,brand:wikidata:Q10344254,brand:wikipedia:pt:Panvel,dispensing:yes,healthcare:pharmacy","lat":-25.4015761,"lng":-49.2626568},{"id":"6182970164","name":"Armazém São Gonçalo","tags":"addr:housenumber:296,addr:street:Rua Nicolau Gulbino,amenity:restaurant,cuisine:pizza","lat":-25.4351742,"lng":-49.2243061},{"id":"6182970167","name":"Armazém São Gonçalo","tags":"addr:housenumber:53,addr:street:Rua Professor Benedito Conceição,amenity:restaurant","lat":-25.4355683,"lng":-49.2239184},{"id":"6198968741","name":"Straveganzza","tags":"addr:housenumber:121,addr:street:Rua 7 de Abril,amenity:restaurant,contact:facebook:https://www.facebook.com/straveganzza,contact:instagram:https://www.instagram.com/straveganzza,diet:vegan:only,dog:yes,website:https://www.straveganzza.com/","lat":-25.4307537,"lng":-49.2567553},{"id":"6386317714","name":"Bello Café","tags":"amenity:cafe,cuisine:coffee_shop,outdoor_seating:no","lat":-25.4300527,"lng":-49.2608941},{"id":"6386317715","name":"Estrela","tags":"amenity:restaurant","lat":-25.4294302,"lng":-49.2612454},{"id":"6506512854","name":"Restaurante Popular Capanema","tags":"amenity:restaurant,cuisine:regional","lat":-25.4354311,"lng":-49.2546083},{"id":"6506560791","name":"Pastelaria Juvevê","tags":"addr:housenumber:1817,addr:street:Avenida João Gualberto,amenity:restaurant,cuisine:regional","lat":-25.4123637,"lng":-49.2581913},{"id":"6506617917","name":"Seu Garçom","tags":"amenity:restaurant","lat":-25.4354585,"lng":-49.2578995},{"id":"6506617918","name":"Velha Amizade","tags":"amenity:restaurant","lat":-25.4354863,"lng":-49.2593738},{"id":"6513515079","tags":"shop:convenience","lat":-25.4333391,"lng":-49.2547749},{"id":"6513516587","tags":"amenity:atm","lat":-25.4350029,"lng":-49.2570592},{"id":"6514069360","name":"Espetinho Júnior","tags":"amenity:restaurant,cuisine:steak_house","lat":-25.4384077,"lng":-49.2198722},{"id":"6518190109","name":"Manassés","tags":"amenity:restaurant","lat":-25.4305668,"lng":-49.2534535},{"id":"6518190110","name":"Skarillang","tags":"amenity:restaurant,cuisine:pizza","lat":-25.4298879,"lng":-49.2530961},{"id":"6518190111","name":"Mamão Papaya","tags":"shop:convenience","lat":-25.4340282,"lng":-49.2535203},{"id":"6528294678","tags":"amenity:parking","lat":-25.4230402,"lng":-49.2468686},{"id":"6528294680","name":"Brazco","tags":"amenity:restaurant,cuisine:steak_house","lat":-25.4226721,"lng":-49.2474614},{"id":"6528294681","name":"Khob Khun","tags":"amenity:bar","lat":-25.4226297,"lng":-49.2474386},{"id":"6528294682","name":"Hike","tags":"amenity:bar","lat":-25.4225934,"lng":-49.2474172},{"id":"6528294683","name":"Johnny","tags":"amenity:bar","lat":-25.4223984,"lng":-49.247338},{"id":"6528325186","name":"Barbarium","tags":"amenity:bar","lat":-25.4227036,"lng":-49.2475338},{"id":"6528325189","name":"Aroma Mineiro","tags":"amenity:restaurant","lat":-25.4245495,"lng":-49.2475902},{"id":"6528325190","name":"Al Baraki","tags":"amenity:restaurant,cuisine:turkish","lat":-25.4246343,"lng":-49.2475955},{"id":"6528325191","name":"China Food","tags":"amenity:restaurant,cuisine:chinese","lat":-25.4245374,"lng":-49.24768},{"id":"6528325192","tags":"amenity:restaurant,cuisine:pizza","lat":-25.4247954,"lng":-49.2476116},{"id":"6528360075","tags":"amenity:parking","lat":-25.4350268,"lng":-49.2523385},{"id":"6539544605","name":"Takê","tags":"amenity:restaurant,cuisine:japanese","lat":-25.4346431,"lng":-49.2572352},{"id":"6539544606","name":"Mister Dea","tags":"amenity:restaurant,cuisine:regional","lat":-25.4345341,"lng":-49.2569348},{"id":"6539544611","name":"Fuji","tags":"amenity:restaurant,cuisine:japanese","lat":-25.4343312,"lng":-49.2573742},{"id":"6605852349","name":"Imperial da China","tags":"amenity:restaurant,cuisine:chinese","lat":-25.428464,"lng":-49.2534882},{"id":"6661077987","tags":"amenity:atm","lat":-25.4342546,"lng":-49.2566596},{"id":"6661077988","tags":"amenity:atm","lat":-25.4246545,"lng":-49.2476282},{"id":"6700259653","name":"Skarillang","tags":"amenity:restaurant,cuisine:pizza","lat":-25.4338168,"lng":-49.2534852},{"id":"6851661990","name":"Vale do Pinhão","tags":"tourism:attraction","lat":-25.4424023,"lng":-49.2623113},{"id":"6893556139","name":"Mara","tags":"amenity:car_wash","lat":-25.4335586,"lng":-49.2529414},{"id":"6938542607","name":"Mural","tags":"tourism:attraction","lat":-25.4133907,"lng":-49.255087},{"id":"6969681452","name":"Santigusta - Juvevê","tags":"addr:housenumber:500,addr:street:Rua Moysés Marcondes,amenity:restaurant","lat":-25.4124798,"lng":-49.2586414},{"id":"6969681454","name":"Paraguassu","tags":"addr:housenumber:525,addr:street:Rua Machado de Assis,amenity:restaurant,cuisine:steak_house","lat":-25.4155806,"lng":-49.2548067},{"id":"6974609754","name":"BIGzinho","tags":"shop:supermarket","lat":-25.4031167,"lng":-49.2437656},{"id":"7075293336","name":"Pet Shop Cão Social","tags":"addr:city:Curitiba,addr:housenumber:318,addr:postcode:82820530,addr:street:Rua Lange de Morretes,addr:suburb:Jardim Social,shop:pet","lat":-25.4136874,"lng":-49.2308817},{"id":"7131169285","name":"Centro Islâmico Beneficente do Paraná","tags":"addr:housenumber:729,addr:street:Rua Hildebrando de Araújo,amenity:school,name:ar:مسجد برنا,name:en:Islamic center of Paraná,phone:+55 41 3040-6026,website:https://cibp.org.br/","lat":-25.4407916,"lng":-49.2458532},{"id":"7267287385","name":"Dormitório Estudantil em Curitiba","tags":"name:ja:クリチバ学生寮,tourism:attraction","lat":-25.4348324,"lng":-49.2534916},{"id":"7782327184","name":"Curitiba","tags":"addr:housenumber:330,addr:street:Avenida Presidente Affonso Camargo,alt_name:Curitiba-Nova,email:contato@serraverdeexpress.com.br,official_name:Estação Rodoferroviária de Curitiba,operator:Serra Verde Express,operator:type:private,owner:União Federal,ownership:national,phone:+55 41 3888-3488,railway:station,railway:ref:LCO,start_date:1972,tourism:attraction,website:https://www.serraverdeexpress.com.br/","lat":-25.4374349,"lng":-49.2562661},{"id":"7804070681","tags":"amenity:atm,indoor:yes,operator:24 Horas","lat":-25.4374239,"lng":-49.2576751},{"id":"8556933830","tags":"amenity:parking","lat":-25.4069612,"lng":-49.2480605},{"id":"8978626736","name":"Panvel","tags":"addr:housenumber:346,addr:street:Rua Rocha Pombo,amenity:pharmacy,brand:Panvel,brand:wikidata:Q10344254,brand:wikipedia:pt:Panvel,dispensing:yes,healthcare:pharmacy","lat":-25.4148875,"lng":-49.2576145},{"id":"9136145506","name":"Fresh","tags":"addr:housenumber:801,addr:street:Avenida Presidente Affonso Camargo,shop:convenience","lat":-25.4354257,"lng":-49.2520384},{"id":"9254681283","name":"Solsken","tags":"addr:housenumber:29,addr:street:Rua Mauá,amenity:restaurant,cuisine:sandwich;italian;,diet:gluten_free:only,gluten_free:only","lat":-25.4226205,"lng":-49.2564637},{"id":"9598074101","name":"Armazém da Família Capanema","tags":"addr:housenumber:822,addr:street:Avenida Doutor Dario Lopes dos Santos,shop:convenience","lat":-25.4363453,"lng":-49.2534731},{"id":"9598074102","name":"Mesa Solidária Capanema","tags":"addr:housenumber:822,addr:street:Avenida Doutor Dario Lopes dos Santos,amenity:restaurant","lat":-25.4361714,"lng":-49.2533073},{"id":"9706070385","name":"Nissei","tags":"amenity:pharmacy,dispensing:yes,healthcare:pharmacy","lat":-25.4173311,"lng":-49.2468644},{"id":"9706070386","name":"Café do Canto","tags":"amenity:cafe","lat":-25.4176489,"lng":-49.2468726},{"id":"9856480167","name":"Lava Car","tags":"addr:city:Curitiba,addr:housenumber:920,addr:street:Rua Teófilo Soares Gomes,amenity:car_wash","lat":-25.427375,"lng":-49.2330896},{"id":"10036342187","name":"Olá","tags":"shop:convenience","lat":-25.4374208,"lng":-49.2392614},{"id":"10036342188","name":"Maxifarma","tags":"amenity:pharmacy,dispensing:yes,healthcare:pharmacy","lat":-25.437382,"lng":-49.2391796},{"id":"6172139567","name":"Pet Shop Cão Social","tags":"addr:city:Curitiba,addr:housenumber:318,addr:postcode:82820-530,addr:street:Rua Lange de Morretes,addr:suburb:Jardim Social,shop:pet","lat":-25.413715,"lng":-49.2309046},{"id":"10293443803","tags":"check_date:2022-12-29,level:0,name:pt:Farmácia Preço Popular,payment:mastercard:yes,payment:visa:yes,shop:chemist","lat":-25.4080442,"lng":-49.2537271},{"id":"10293486246","name":"Killer Bee","tags":"check_date:2022-12-29,leisure:fitness_centre,level:0,payment:mastercard:yes,payment:visa:yes","lat":-25.4062585,"lng":-49.2531387},{"id":"6175227888","name":"Sede CRMV-PR","tags":"addr:housenumber:685,addr:street:Rua Fernandes de Barros,amenity:police","lat":-25.425149,"lng":-49.2463019}]