[{"id":"1373184918","name":"Lourival","tags":"amenity:restaurant","lat":-26.7090093,"lng":-49.1639557},{"id":"4246254699","name":"Farmalan","tags":"amenity:pharmacy,contact:facebook:farmalan.farmacias,contact:instagram:farmalanfarmacias,contact:phone:+55 47 3387-5550,contact:website:https://www.farmalan.com.br,delivery:no,dispensing:yes,healthcare:pharmacy,opening_hours:Mo-Fr 07:00-22:00; Sa 07:00-20:00; Su 08:00-20:00","lat":-26.7165633,"lng":-49.167067},{"id":"4760862142","name":"WiCar Auto Lavação","tags":"amenity:car_wash,contact:phone:+55 47 3052-4455,contact:whatsapp:+55 47 99124-4244,description:Lavação, enceramento, hidratação de couro e higienização interna. Serviço de leva e traz.","lat":-26.713074,"lng":-49.1663232},{"id":"5072577090","name":"Naju Farma","tags":"amenity:pharmacy,contact:phone:+55 47 3395-1500,contact:whatsapp:+55 47 99291-6330,healthcare:pharmacy,level:0","lat":-26.7035109,"lng":-49.1618067},{"id":"5109405610","name":"Naju Farma","tags":"amenity:pharmacy,contact:phone:+55 47 3387-6303,healthcare:pharmacy,wheelchair:yes","lat":-26.7154466,"lng":-49.1666226},{"id":"5109406025","name":"BellaFit Personal Studio","tags":"contact:facebook:https://www.facebook.com/BellaFitPersonalStudio,contact:phone:+55 47 99125-8553,leisure:fitness_centre,level:1,opening_hours:Mo-Fr 05:30-21:30,wheelchair:yes","lat":-26.7145374,"lng":-49.1667956},{"id":"5249729308","name":"Amma Farma","tags":"addr:door:Sala 01,amenity:pharmacy,contact:phone:+55 47 3382-3106,contact:whatsapp:+55 47 99119-9535","lat":-26.7086685,"lng":-49.1640611},{"id":"5252359684","name":"Viacredi","tags":"amenity:bank,atm:yes,level:0,opening_hours:Mo-Fr 10:00-16:00","lat":-26.7112477,"lng":-49.1639967},{"id":"5586123398","name":"Mercado Bertoldo","tags":"contact:phone:+55 47 3306-6848,level:0,shop:convenience","lat":-26.7015412,"lng":-49.172219},{"id":"5586813769","name":"Mercado Farias","tags":"contact:phone:+55 47 3399-2017,shop:convenience","lat":-26.6892949,"lng":-49.157255},{"id":"5895359115","name":"Stylecar","tags":"amenity:car_wash,old_name:K2 Auto Lavação","lat":-26.7180785,"lng":-49.170768},{"id":"6030347436","name":"Niva","tags":"amenity:pharmacy,dispensing:yes,healthcare:pharmacy","lat":-26.6827565,"lng":-49.1482893},{"id":"6045265103","name":"Verace Pizzaria","tags":"amenity:restaurant,contact:phone:+55 47 3387-5674;+55 47 3387-4371,cuisine:pizza","lat":-26.7138449,"lng":-49.1592371},{"id":"6070878321","name":"Chicão Auto Lavação","tags":"amenity:car_wash,opening_hours:Mo-Sa 08:00-12:00, 13:30-18:00","lat":-26.7091465,"lng":-49.1635327},{"id":"6225440803","name":"Central Polimentos","tags":"amenity:car_wash,contact:phone:+55 47 99114-0583","lat":-26.7017293,"lng":-49.161159},{"id":"6225440804","name":"Pet Company","tags":"contact:phone:+55 47 99239-7215,shop:pet","lat":-26.7016527,"lng":-49.1611362},{"id":"6225440808","name":"Baby Bichos","tags":"description:Banho e tosa,shop:pet","lat":-26.6987389,"lng":-49.1600847},{"id":"6833480955","name":"Comercial Belz","tags":"contact:phone:+55 47 3395-0173,shop:convenience","lat":-26.6884598,"lng":-49.1745606},{"id":"7005433221","name":"Mercado Tradição","tags":"shop:supermarket","lat":-26.6792762,"lng":-49.1463585},{"id":"7005433222","name":"Supermercado Bertoldo","tags":"shop:supermarket","lat":-26.6832234,"lng":-49.1478217},{"id":"7245138612","name":"Esmalteria Slaviero","tags":"beauty:nails,contact:phone:+55 47 99135-8908,shop:beauty","lat":-26.7177203,"lng":-49.1673508},{"id":"8445477582","name":"Academia Olympia","tags":"leisure:fitness_centre","lat":-26.7086924,"lng":-49.1615908},{"id":"8670163863","name":"Farmakoch","tags":"amenity:pharmacy,healthcare:pharmacy,opening_hours:Mo-Sa 07:00-22:00; Su 08:00-21:00","lat":-26.7071326,"lng":-49.1630077},{"id":"8780011669","name":"Oficina do Corpo","tags":"contact:phone:+55 47 3380-1101;+55 47 99255-3587,description:Musculação, cross funcional, judô infantil, jiu jitsu e muay thai,leisure:fitness_centre","lat":-26.7065467,"lng":-49.1638291},{"id":"8934197045","name":"Car Wash","tags":"amenity:car_wash,contact:phone:+55 47 99145-0275","lat":-26.7045173,"lng":-49.1635112},{"id":"9251761633","name":"Auto Lavação Pavel","tags":"amenity:car_wash,contact:phone:+55 47 3387-2074","lat":-26.7144308,"lng":-49.1663109},{"id":"9316771131","name":"Sicoob","tags":"amenity:bank,atm:yes,contact:website:https://www.sicoob.com.br","lat":-26.7065998,"lng":-49.1638408},{"id":"9335777261","name":"Fitland","tags":"shop:convenience","lat":-26.7069855,"lng":-49.1630094},{"id":"9335777267","name":"Glasenapp","tags":"shop:convenience","lat":-26.7106243,"lng":-49.1652125}]