[{"id":"2635319843","name":"Restaurante Senai","tags":"amenity:restaurant","lat":-26.5038091,"lng":-49.0883992},{"id":"2635329546","name":"Caixa Econômica Federal","tags":"addr:city:Jaraguá do Sul,addr:housenumber:1111,addr:postcode:89259-565,addr:street:Rua Walter Marquardt,addr:suburb:Barra do Rio Molha,amenity:bank,atm:yes,brand:Caixa Econômica Federal,brand:wikidata:Q835283,opening_hours:Mo-Fr 10:00-15:00,phone:+55 47 3370-9740","lat":-26.5049567,"lng":-49.0905425},{"id":"2635330473","tags":"amenity:atm","lat":-26.504558,"lng":-49.090545},{"id":"3318609386","name":"Pesque Pague Zimmermann","tags":"addr:city:Jaraguá do Sul,addr:street:Estrada Padre Aloisio Boeing,amenity:restaurant,leisure:fishing","lat":-26.5399442,"lng":-49.0989916},{"id":"3346492809","name":"Escola Marieta Satler Rubini","tags":"addr:city:Jaraguá do Sul,addr:street:Rua Pastor Albert Schneider,amenity:school,operator:municipal","lat":-26.5150868,"lng":-49.1282906},{"id":"3429411715","name":"Farma Sesi","tags":"addr:city:Jaraguá do Sul,addr:housenumber:835,addr:postcode:89259-565,addr:street:Rua Walter Marquardt,addr:suburb:Barra do Rio Molha,amenity:pharmacy,dispensing:yes,drive_through:no,email:fm915@sesifarmacias.com.br,healthcare:pharmacy,old_name:Sesi Farmácia,opening_hours:Mo-Fr 08:00-17:30,phone:+55 47 3370-3393,wheelchair:yes","lat":-26.5026181,"lng":-49.089419},{"id":"3497876747","name":"Studio Chic Centro Estético Animal","tags":"addr:city:Jaraguá do Sul,addr:housenumber:295,addr:street:Rua Anna Karsten,addr:suburb:Barra do Rio Molha,phone:+55 47 3370 9301,shop:pet","lat":-26.5084315,"lng":-49.0921048},{"id":"3507870538","name":"Supermercado Rancho Bom","tags":"addr:city:Jaraguá do Sul,addr:housenumber:1616,addr:street:Rua João Januário Ayroso,addr:suburb:Jaraguá Esquerdo,email:ranchobom.gerencia3@redetop.com.br,operator:Rede Top,phone:+55 47 3374 6994,shop:supermarket,website:http://www.ranchobom.com/","lat":-26.5034977,"lng":-49.094487},{"id":"3507904724","name":"Drogaria Farmagnus","tags":"addr:city:Jaraguá do Sul,addr:housenumber:1750,addr:street:Rua João Januário Ayroso,addr:suburb:Jaraguá Esquerdo,amenity:pharmacy,healthcare:pharmacy,phone:+55 47 3370 8012,website:http://farmagnus.com.br/","lat":-26.5041817,"lng":-49.095859},{"id":"3507936522","name":"Restaurante e Churrascaria Fogo Gaúcho","tags":"addr:city:Jaraguá do Sul,addr:housenumber:3150,addr:street:Rua João Januário Ayroso,amenity:restaurant,cuisine:steak_house,phone:+55 47 3370 2856","lat":-26.5074335,"lng":-49.1092991},{"id":"3640103250","name":"Sicoob","tags":"addr:housenumber:407,addr:postcode:89259-700,addr:street:Rua Walter Marquardt,addr:suburb:Vila Nova,amenity:bank,atm:yes,branch:MaxCrédito,brand:Sicoob,brand:wikidata:Q28679754,brand:wikipedia:pt:Sistema de Cooperativas de Crédito do Brasil,email:jaraguadosul@maxicredito.coop.br,opening_hours:Mo-Fr 10:00-16:00,phone:+55 47 3275-3704,website:https://www.maxicredito.coop.br/index.php/agencia/4418","lat":-26.4993119,"lng":-49.0876155},{"id":"3643489598","name":"Banco24Horas","tags":"amenity:atm,brand:Banco24Horas,brand:wikidata:Q4854069,operator:Banco24Horas,website:https://banco24horas.com.br/","lat":-26.499823,"lng":-49.0875078},{"id":"3784640647","name":"Pizzaria Toscana","tags":"addr:city:Jaraguá do Sul,addr:street:Rua Pastor Albert Schneider,addr:suburb:Barra do Rio Cerro,amenity:restaurant,cuisine:pizza","lat":-26.5156927,"lng":-49.1303152},{"id":"4347589990","name":"Dany","tags":"shop:supermarket","lat":-26.5015984,"lng":-49.0969296},{"id":"4425059907","name":"Academia living","tags":"addr:street:Rua João Januário Ayroso,leisure:fitness_centre,name:pt:Academia living,opening_hours:Mo-Fr 10:00-22:00","lat":-26.5068488,"lng":-49.1031037},{"id":"4425232399","name":"Tati e Alexandra","tags":"shop:beauty","lat":-26.5054016,"lng":-49.1134074},{"id":"4503903671","name":"Farmácia Basica","tags":"amenity:pharmacy,healthcare:pharmacy","lat":-26.5037632,"lng":-49.0895285},{"id":"4674503069","name":"Restaurante Salvatori","tags":"amenity:restaurant","lat":-26.5125059,"lng":-49.1180699},{"id":"4701417991","name":"Masterfarma","tags":"amenity:pharmacy,healthcare:pharmacy,name:pt:Masterfarma","lat":-26.5112201,"lng":-49.1305889},{"id":"4701419292","name":"Masterfarma","tags":"amenity:pharmacy,healthcare:pharmacy,name:pt:Masterfarma","lat":-26.5041947,"lng":-49.0950771},{"id":"4701419293","name":"Farmácia Unisul","tags":"amenity:pharmacy,healthcare:pharmacy,name:pt:Farmácia Unisul","lat":-26.5123424,"lng":-49.119783},{"id":"4701419796","name":"Farmagnus","tags":"amenity:pharmacy,healthcare:pharmacy,name:pt:Farmagnus","lat":-26.5143836,"lng":-49.1279247},{"id":"4701419894","name":"Farmácia São Luiz","tags":"amenity:pharmacy,healthcare:pharmacy,name:pt:Farmácia São Luiz","lat":-26.5074461,"lng":-49.1094244},{"id":"4701446292","name":"Farmavitta","tags":"amenity:pharmacy,healthcare:pharmacy,name:pt:Farmavitta","lat":-26.4991355,"lng":-49.1143544},{"id":"4701446293","name":"Drogaria da Barra","tags":"amenity:pharmacy,healthcare:pharmacy,name:pt:Drogaria da Barra","lat":-26.5130827,"lng":-49.1213803},{"id":"4701446589","name":"Farma Bem","tags":"amenity:pharmacy,healthcare:pharmacy,name:pt:Farma Bem","lat":-26.5020918,"lng":-49.1124306},{"id":"4974282321","name":"Infoway Escola de Informática","tags":"addr:housenumber:1213,addr:postcode:89260-000,addr:street:Rua Angelo Rubini,amenity:school,name:en:Infoway Computer Training,phone:+55 47 3054-1011","lat":-26.5130992,"lng":-49.1214138},{"id":"6570733457","name":"Musse Restaurante","tags":"amenity:restaurant,phone:+55 47 3376-1180","lat":-26.5111126,"lng":-49.1176445},{"id":"6570733484","name":"Agroevandro Produtos Agropecuários LTDA me","tags":"phone:+55 47 3371 1669,shop:pet","lat":-26.512371,"lng":-49.1152742},{"id":"6577191802","name":"Avante! Academia","tags":"leisure:fitness_centre,phone:+55 47 3273 7277","lat":-26.5031104,"lng":-49.1073067},{"id":"6586788830","name":"Academia Fitway - Unidade Barra","tags":"addr:city:Jaraguá do Sul,addr:floor:3,addr:housenumber:1400,addr:street:Rua Feliciano Bortolini,addr:suburb:Barra do Rio Cerro,leisure:fitness_centre","lat":-26.5143623,"lng":-49.1215621},{"id":"6594296560","name":"Sicoob Cejascred","tags":"addr:city:Jaraguá do Sul,addr:housenumber:520,addr:street:Rua Angelo Rubini,addr:suburb:Barra do Rio Cerro,alt_name:Coperativa Sicoob Barra,amenity:bank","lat":-26.5107758,"lng":-49.1149064},{"id":"6631599139","name":"Preço Popular","tags":"addr:city:Jaraguá do Sul,addr:housenumber:1110,addr:street:Rua Angelo Rubini,addr:suburb:Barra do Rio Cerro,amenity:pharmacy,dispensing:yes,healthcare:pharmacy","lat":-26.5125683,"lng":-49.1205893},{"id":"7159481928","name":"Marriagge","tags":"shop:beauty","lat":-26.5076855,"lng":-49.1037007},{"id":"7159481968","name":"Restaurante Segredo Caseiro","tags":"amenity:restaurant","lat":-26.5149856,"lng":-49.1236107},{"id":"7395860232","name":"Cresol Cooperativa","tags":"addr:city:Jaraguá do Sul,addr:housenumber:1004,addr:postcode:89260-180,addr:street:Rua Feliciano Bortolini,addr:suburb:Barra do Rio Cerro,amenity:bank,phone:+55 47 3370 0715,website:https://www.cresol.com.br","lat":-26.5123665,"lng":-49.1153927},{"id":"7920232141","name":"Maira Ploszai Pilates","tags":"leisure:fitness_centre,phone:+55 47 9917-5672,sport:pilates","lat":-26.5056277,"lng":-49.0920315},{"id":"7928103377","name":"Bem me Quer Cafeteria e Doceria Especial","tags":"amenity:cafe,opening_hours:Tu-Sa 10:00-20:00; Su 14:30-20:00,phone:+55 47 3054-3147","lat":-26.5017172,"lng":-49.0887321},{"id":"8435326747","name":"Mercearia Lemke","tags":"addr:city:Jaraguá do Sul,addr:housenumber:122,addr:street:Rua Adolf Puttjer,addr:suburb:Barra do Rio Molha,shop:supermarket","lat":-26.5058294,"lng":-49.0903951},{"id":"8968866770","name":"Farmácia São João","tags":"addr:city:Jaraguá do Sul,addr:housenumber:70,addr:street:Rua 25 de Julho,addr:suburb:Vila Nova,amenity:pharmacy,brand:Farmácia São João,brand:wikidata:Q65164556,brand:wikipedia:pt:Farmácias São João,dispensing:yes,healthcare:pharmacy","lat":-26.5005179,"lng":-49.0871031},{"id":"9590308800","name":"Dubai Pizzaria e Esfiharia","tags":"alt_name:Dubai Pizzaria & Esfiharia,amenity:restaurant,cuisine:arab;pizza","lat":-26.5034466,"lng":-49.0930657},{"id":"9843855921","name":"SuilenePet","tags":"check_date:2022-06-24,phone:+55 47 99766-3838,shop:pet","lat":-26.5011256,"lng":-49.0888033},{"id":"9992786346","name":"Gumersan","tags":"amenity:restaurant,cuisine:japanese","lat":-26.505327,"lng":-49.0943315},{"id":"9992786347","name":"Bari Amarilis Caffe & Garden","tags":"amenity:cafe","lat":-26.5052983,"lng":-49.0941803},{"id":"9992907818","name":"Magia & Sedução Centro de Estética","tags":"beauty:nails,shop:beauty","lat":-26.5144082,"lng":-49.1218082},{"id":"10042614153","name":"Restaurante Flor de Lótus","tags":"addr:city:Jaraguá do Sul,addr:housenumber:1726,addr:street:Rua João Januário Ayroso,addr:suburb:Jaraguá Esquerdo,amenity:restaurant,diet:vegetarian:yes,phone:+55 47 98476-7260,website:https://pt-br.facebook.com/restaurantevegetarianoflordelotus","lat":-26.5041043,"lng":-49.095667}]