[{"id":"2623526864","tags":"leisure:sports_centre","lat":-26.1907438,"lng":-48.5331086},{"id":"3442165785","name":"Supermercado Litoral","tags":"addr:city:São Francisco do Sul,addr:street:Estrada do Forte,addr:suburb:Itaguaçu,shop:supermarket","lat":-26.1822221,"lng":-48.5336007},{"id":"3723132630","name":"Restaurante do Rui","tags":"addr:city:São Francisco do Sul,addr:street:Estrada do Forte,amenity:restaurant,phone:+55 47 3449-0407","lat":-26.174141,"lng":-48.5335387},{"id":"7148610008","name":"Restaurante do Rui 3","tags":"addr:city:São Francisco do Sul,addr:housenumber:2618,addr:street:Estrada do Forte,alt_name:Restaurante Rui 3,amenity:restaurant,opening_hours:11:30-15:00,19:30-23:30,phone:+55 47 99244-1221","lat":-26.1865497,"lng":-48.5340386},{"id":"9113395243","name":"Milanos Restaurante","tags":"addr:city:São Francisco do Sul,addr:street:Rua Paris,amenity:restaurant,phone:+55 47 98461-4945","lat":-26.1910222,"lng":-48.5303833}]