[{"id":"909800005","name":"Sítio Rio Pequeno","tags":"amenity:restaurant,cuisine:barbecue,opening_hours:Su[1,3] 11:00-15:00,payment:cash:yes,payment:credit_cards:no,payment:debit_cards:no,payment:electronic_purses:no,phone:+55 41 3282-3159,reservation:yes","lat":-25.5539962,"lng":-49.1293959},{"id":"2675732951","name":"Igreja Nossa Senhora da Imaculada Conceição","tags":"amenity:place_of_worship,building:church,denomination:catholic,religion:christian","lat":-25.5700981,"lng":-49.1216576},{"id":"4445860489","name":"Mercado Estrela","tags":"addr:city:São José dos Pinhais,addr:housenumber:271,addr:postcode:83075-180,addr:street:Avenida dos Bosques,addr:suburb:Borda do Campo,shop:supermarket","lat":-25.5389716,"lng":-49.0880658},{"id":"4608683799","name":"Recanto de Minas","tags":"name:pt:Recanto de Minas,shop:convenience","lat":-25.5734336,"lng":-49.1072118},{"id":"5132232722","name":"Casa Rural e Veterinária Borda do Campo","tags":"addr:street:Estrada Da Roseira,opening_hours:Mo-Sa 09:00-18:00,shop:pet","lat":-25.5377287,"lng":-49.0893812},{"id":"5333430245","name":"Casarão Café Colonial","tags":"amenity:cafe","lat":-25.5637869,"lng":-49.1246172},{"id":"5333478177","name":"Restaurante Bosque Italiano II","tags":"amenity:restaurant","lat":-25.5692229,"lng":-49.1276275},{"id":"5333478181","name":"Restaurante Dom Gabriel","tags":"amenity:restaurant","lat":-25.5704403,"lng":-49.1221854},{"id":"6514075826","tags":"shop:convenience","lat":-25.5737097,"lng":-49.1088444}]