[{"id":"4869554722","name":"Rodoviária de Pontal do Paraná","tags":"amenity:bus_station,bus:yes,public_transport:station","lat":-25.6957912,"lng":-48.4777058},{"id":"5032882222","name":"Amigu's - O Italianissimo","tags":"addr:street:Rodovia PR-407 - KM 18 - Jardim Jacarandá - Praia de Leste - Pontal do Paraná - PR,amenity:restaurant,cuisine:italian,email:restauranteamigus@gmail.com,opening_hours:Tu-Su 11:30-15:30,phone:+55 41 3458-5433","lat":-25.6925906,"lng":-48.4832396},{"id":"5304427122","name":"PRE Polícia Rodoviária Estadual - Posto Policial de Pontal do Paraná.","tags":"amenity:police","lat":-25.6841208,"lng":-48.4955612},{"id":"6091429482","name":"UPA PRAIA DE LESTE","tags":"amenity:hospital,emergency:yes,healthcare:hospital,healthcare:speciality:general,operator:PMPP","lat":-25.6978446,"lng":-48.4788519},{"id":"9095367963","name":"Supermercado Bavaresco","tags":"shop:supermarket","lat":-25.6950649,"lng":-48.4785613},{"id":"9095367964","name":"Preço Popular","tags":"amenity:pharmacy,dispensing:yes,healthcare:pharmacy","lat":-25.6950027,"lng":-48.4784602},{"id":"9095367965","name":"Banco24Horas","tags":"amenity:atm,brand:Banco24Horas,brand:wikidata:Q4854069,brand:wikipedia:pt:Banco24Horas","lat":-25.6950071,"lng":-48.4786574},{"id":"9847503261","name":"Prédio da Policia Militar de Pontal do Paraná","tags":"addr:city:Pontal do Paraná,addr:housenumber:555,addr:street:PR 412,addr:suburb:Praia de Leste,amenity:police,operator:Polícia Militar do Paraná,operator:short:PMPR,operator:wikidata:Q1144660","lat":-25.6928807,"lng":-48.4738873}]