[{"id":"380001137","name":"Encantadas","tags":"amenity:ferry_terminal,ferry:yes,public_transport:station","lat":-25.5700736,"lng":-48.3164955},{"id":"380025499","name":"Gruta das Encantadas","tags":"natural:cave_entrance,tourism:attraction","lat":-25.5740964,"lng":-48.3117335},{"id":"1278211444","name":"Policia Militar","tags":"amenity:police","lat":-25.5650587,"lng":-48.3162461},{"id":"1278213856","name":"Clinica de Saude","tags":"amenity:hospital","lat":-25.5708148,"lng":-48.3139555},{"id":"2112402356","name":"Restaurante Paraíso","tags":"amenity:restaurant,cuisine:fish_and_chips,internet_access:no,internet_access:fee:no,smoking:separated,wheelchair:no","lat":-25.5667051,"lng":-48.3155936},{"id":"5257575021","name":"Mar e Sol","tags":"amenity:restaurant","lat":-25.543438,"lng":-48.2963815},{"id":"5702531926","name":"Supermercado Bom Dia","tags":"shop:supermarket","lat":-25.5428084,"lng":-48.3040431},{"id":"7143116185","name":"Pequeno buraco","tags":"tourism:attraction","lat":-25.5744339,"lng":-48.3152359},{"id":"9095728694","name":"Armazém Kahuna","tags":"amenity:bar","lat":-25.5436879,"lng":-48.3003165},{"id":"9095728699","name":"Mercado Cair do Sol","tags":"shop:supermarket","lat":-25.5427935,"lng":-48.3027329},{"id":"9095728701","name":"Polícia Militar","tags":"amenity:police","lat":-25.5422145,"lng":-48.3039576},{"id":"9095728702","name":"Toca","tags":"amenity:restaurant","lat":-25.5419392,"lng":-48.3033106}]