[{"id":"1129423411","name":"Voadeira","tags":"amenity:ferry_terminal,ferry:yes,public_transport:station","lat":-25.4572323,"lng":-48.2478086},{"id":"3271122926","name":"Superagui","tags":"amenity:ferry_terminal,ferry:yes,public_transport:station","lat":-25.4571871,"lng":-48.2478362},{"id":"4289564503","name":"Perfumaria da Lucimar","tags":"shop:convenience","lat":-25.454524,"lng":-48.2484286},{"id":"4289566766","name":"Bar do Pedro","tags":"amenity:bar","lat":-25.4549212,"lng":-48.2481682},{"id":"4289567475","name":"Casa do Ita - Rosangêla","tags":"amenity:restaurant","lat":-25.462818,"lng":-48.2398908},{"id":"4289567485","name":"Restaurante da Trilha","tags":"amenity:restaurant","lat":-25.4572175,"lng":-48.2450303},{"id":"4289567489","name":"Restaurante Tropical","tags":"amenity:restaurant","lat":-25.4583638,"lng":-48.2458121},{"id":"4289567493","name":"Restaurante Chauí","tags":"amenity:restaurant","lat":-25.4588641,"lng":-48.2451654}]