[{"id":"859537436","name":"Colégio Estadual Francisco Pires Machado","tags":"addr:housenumber:318,addr:postcode:84031-120,addr:street:Rua Carajás,amenity:school,source_ref:http://wiki.openstreetmap.org/wiki/Pt-br:WikiProject_Brazil/PR/Ponta_Grossa/Agreement","lat":-25.1777802,"lng":-50.1422484},{"id":"859537460","name":"Escola Municipal Professora Armida Frare Grácia","tags":"addr:housenumber:160,addr:postcode:84046130,addr:street:Rua Inambú,amenity:school,source_ref:http://wiki.openstreetmap.org/wiki/Pt-br:WikiProject_Brazil/PR/Ponta_Grossa/Agreement","lat":-25.145997,"lng":-50.166843},{"id":"859537472","name":"Escola Municipal Professor Guitil Federmann","tags":"addr:housenumber:422,addr:postcode:84001970,addr:street:Rua Furiel,amenity:school,source_ref:http://wiki.openstreetmap.org/wiki/Pt-br:WikiProject_Brazil/PR/Ponta_Grossa/Agreement","lat":-25.1456456,"lng":-50.1700701},{"id":"1094921503","tags":"amenity:parking","lat":-25.1409389,"lng":-50.1536491},{"id":"1094921755","tags":"amenity:parking","lat":-25.1393418,"lng":-50.1514433},{"id":"5010956422","name":"Penitenciária Estadual de Ponta Grossa","tags":"addr:street:Rua Batuíra,amenity:police,name:pt:Penitenciária Estadual de Ponta Grossa,opening_hours:24/7","lat":-25.1536386,"lng":-50.1649327},{"id":"7516035689","name":"Farmácia Bom Jesus","tags":"addr:city:Ponta Grossa,addr:street:Rua 14 Bis,addr:suburb:Cará-Cará,amenity:pharmacy,dispensing:yes,healthcare:pharmacy","lat":-25.1782388,"lng":-50.1423671},{"id":"7516035690","name":"Minimercado Cará-Cará","tags":"shop:convenience","lat":-25.1778512,"lng":-50.1431256},{"id":"7516035692","name":"Escola Municipal Deodoro Alves Quintiliano","tags":"addr:city:Ponta Grossa,addr:street:Rua Carajás,amenity:school","lat":-25.1776605,"lng":-50.1427224},{"id":"7516035693","name":"Centro Municipal de Educação Infantil Augusto Canto","tags":"amenity:school","lat":-25.1774935,"lng":-50.1421923}]