[{"id":"845504715","name":"Colégio SESI","tags":"amenity:school","lat":-25.0927985,"lng":-50.1699843},{"id":"848167063","name":"Churrascaria Lugano","tags":"amenity:restaurant,cuisine:barbecue","lat":-25.1232557,"lng":-50.1599194},{"id":"849022448","name":"Supermercado Tozzeto","tags":"capacity:2,shop:supermarket,source_ref:http://wiki.openstreetmap.org/wiki/Pt-br:WikiProject_Brazil/PR/Ponta_Grossa/Agreement","lat":-25.1061347,"lng":-50.1609781},{"id":"849022572","name":"Supermercado Muffato","tags":"capacity:2,shop:supermarket,source_ref:http://wiki.openstreetmap.org/wiki/Pt-br:WikiProject_Brazil/PR/Ponta_Grossa/Agreement","lat":-25.1058975,"lng":-50.1590386},{"id":"859537379","name":"Escola Municipal Vereador Orival Carneiro Martins","tags":"addr:housenumber:699,addr:postcode:84035060,addr:street:Rua Domício da Gama,amenity:school,source_ref:http://wiki.openstreetmap.org/wiki/Pt-br:WikiProject_Brazil/PR/Ponta_Grossa/Agreement","lat":-25.1052671,"lng":-50.1515047},{"id":"859537383","name":"Escola Municipal Thereza Cristina Pusch","tags":"addr:housenumber:537,addr:postcode:84001970,addr:street:Rua Santana,amenity:school,source_ref:http://wiki.openstreetmap.org/wiki/Pt-br:WikiProject_Brazil/PR/Ponta_Grossa/Agreement","lat":-25.0985707,"lng":-50.1592301},{"id":"859537386","name":"Escola Estadual Maestro Bento Mossurunga","tags":"addr:housenumber:1004,addr:postcode:84036150,addr:street:Avenida Aldo Vergani,amenity:school,source_ref:http://wiki.openstreetmap.org/wiki/Pt-br:WikiProject_Brazil/PR/Ponta_Grossa/Agreement","lat":-25.120542,"lng":-50.1436357},{"id":"859537404","name":"Escola Municipal Humberto Cordeiro","tags":"addr:housenumber:740,addr:street:Rua Lopes Trovão,amenity:school,source_ref:http://wiki.openstreetmap.org/wiki/Pt-br:WikiProject_Brazil/PR/Ponta_Grossa/Agreement","lat":-25.1106646,"lng":-50.1635999},{"id":"859537409","name":"Escola Municipal Prefeito Theodoro Batista Rosas","tags":"addr:housenumber:10,addr:postcode:84035490,addr:street:Rua Doutor Carlos Deszaunet Netto,amenity:school,source_ref:http://wiki.openstreetmap.org/wiki/Pt-br:WikiProject_Brazil/PR/Ponta_Grossa/Agreement","lat":-25.113786,"lng":-50.1481147},{"id":"859537415","name":"Escola Estadual Alberto Rebello Valente","tags":"addr:housenumber:78,addr:postcode:84046-015,addr:street:Rua Doutor Nilton Luiz de Castro,amenity:school,source_ref:http://wiki.openstreetmap.org/wiki/Pt-br:WikiProject_Brazil/PR/Ponta_Grossa/Agreement","lat":-25.127085,"lng":-50.1783371},{"id":"859537425","name":"Escola Municipal Lagoa Dourada","tags":"addr:street:Praça Roosevelt,amenity:school,postal_code:84010069,source_ref:http://wiki.openstreetmap.org/wiki/Pt-br:WikiProject_Brazil/PR/Ponta_Grossa/Agreement","lat":-25.0991872,"lng":-50.1585414},{"id":"859537435","name":"Escola Municipal Prefeito Doutor Elyseu de Campos","tags":"addr:housenumber:762,addr:postcode:84051090,addr:street:Rua Baltazar Lisboa,amenity:school,source_ref:http://wiki.openstreetmap.org/wiki/Pt-br:WikiProject_Brazil/PR/Ponta_Grossa/Agreement","lat":-25.1025177,"lng":-50.1841267},{"id":"859537437","name":"Escola Municipal Coronel Cláudio Gonçalves Guimarã","tags":"addr:housenumber:240,addr:street:Rua Bonifácio Ribas,amenity:school,source_ref:http://wiki.openstreetmap.org/wiki/Pt-br:WikiProject_Brazil/PR/Ponta_Grossa/Agreement","lat":-25.0986533,"lng":-50.1466793},{"id":"859537456","name":"Escola Municipal Prefeito Doutor Othon Mader","tags":"addr:housenumber:950,addr:postcode:84053-320,addr:street:Rua Londrina,amenity:school,source_ref:http://wiki.openstreetmap.org/wiki/Pt-br:WikiProject_Brazil/PR/Ponta_Grossa/Agreement","lat":-25.0934765,"lng":-50.1807223},{"id":"859537457","name":"Escola Estadual Espírito Santo","tags":"addr:housenumber:288,addr:postcode:84045340,addr:street:Rua Jorge Holzmann,amenity:school,source_ref:http://wiki.openstreetmap.org/wiki/Pt-br:WikiProject_Brazil/PR/Ponta_Grossa/Agreement","lat":-25.1342485,"lng":-50.15628},{"id":"859537463","name":"Escola Municipal Professora Zahira Catta Preta Mel","tags":"addr:housenumber:1720,addr:postcode:84046290,addr:street:Rua Bocaiúva do Sul,amenity:school,source_ref:http://wiki.openstreetmap.org/wiki/Pt-br:WikiProject_Brazil/PR/Ponta_Grossa/Agreement","lat":-25.1285606,"lng":-50.1460008},{"id":"859537464","name":"Escola Estadual Jesus Divino Operário","tags":"addr:housenumber:216,addr:postcode:84045540,addr:street:Praça Frei Elias Zulian,amenity:school,source_ref:http://wiki.openstreetmap.org/wiki/Pt-br:WikiProject_Brazil/PR/Ponta_Grossa/Agreement","lat":-25.1202059,"lng":-50.158453},{"id":"859537475","name":"Escola Municipal Professora Ana de Barros Holzmann","tags":"addr:housenumber:401,addr:postcode:84045350,addr:street:Rua Latino Coelho,amenity:school,source_ref:http://wiki.openstreetmap.org/wiki/Pt-br:WikiProject_Brazil/PR/Ponta_Grossa/Agreement","lat":-25.1357141,"lng":-50.157134},{"id":"859537479","name":"Escola Estadual Medalha Milagrosa","tags":"addr:city:Ponta Grossa,addr:housenumber:537,addr:postcode:84001970,addr:street:Rua Santana,amenity:school,source_ref:http://wiki.openstreetmap.org/wiki/Pt-br:WikiProject_Brazil/PR/Ponta_Grossa/Agreement","lat":-25.0983863,"lng":-50.1592676},{"id":"859537481","name":"Escola Municipal Loise Foltran De Lara","tags":"addr:housenumber:636,addr:postcode:84050000,addr:street:Rua Doutor Joaquim de Paula Xavier,amenity:school,source_ref:http://wiki.openstreetmap.org/wiki/Pt-br:WikiProject_Brazil/PR/Ponta_Grossa/Agreement","lat":-25.1021086,"lng":-50.1618568},{"id":"859537486","name":"Escola Municipal Vila Oficinas","tags":"addr:housenumber:650,addr:postcode:84045000,addr:street:Avenida Visconde de Mauá,amenity:school,source_ref:http://wiki.openstreetmap.org/wiki/Pt-br:WikiProject_Brazil/PR/Ponta_Grossa/Agreement","lat":-25.1142285,"lng":-50.1557444},{"id":"859537487","name":"Escola Municipal Padre José Bugatti","tags":"addr:housenumber:78,addr:postcode:84046-015,addr:street:Rua Doutor Nilton Luiz de Castro,amenity:school,source_ref:http://wiki.openstreetmap.org/wiki/Pt-br:WikiProject_Brazil/PR/Ponta_Grossa/Agreement","lat":-25.1272191,"lng":-50.178218},{"id":"859537488","name":"Escola Municipal Frei Elias Zulian","tags":"addr:housenumber:216,addr:postcode:84045540,addr:street:Praça Frei Elias Zulian,amenity:school,source_ref:http://wiki.openstreetmap.org/wiki/Pt-br:WikiProject_Brazil/PR/Ponta_Grossa/Agreement","lat":-25.1245892,"lng":-50.1604402},{"id":"859537494","name":"CEEBJA Professor Paschoal Salles Rosa","tags":"addr:city:Ponta Grossa,addr:housenumber:128,addr:postcode:84010-670,addr:street:Praça Barão do Rio Branco,addr:suburb:Centro,amenity:school,source_ref:http://wiki.openstreetmap.org/wiki/Pt-br:WikiProject_Brazil/PR/Ponta_Grossa/Agreement","lat":-25.0931376,"lng":-50.1590652},{"id":"859537499","name":"Escola Estadual Professor Becker e Silva","tags":"addr:housenumber:1145,addr:postcode:84051-000,addr:street:Avenida Visconde de Taunay,amenity:school,source_ref:http://wiki.openstreetmap.org/wiki/Pt-br:WikiProject_Brazil/PR/Ponta_Grossa/Agreement","lat":-25.097002,"lng":-50.1732686},{"id":"859537502","name":"Escola Municipal Professor Aristeu Costa Pinto","tags":"addr:housenumber:501,addr:postcode:84051530,addr:street:Rua Euzébio da Motta,amenity:school,source_ref:http://wiki.openstreetmap.org/wiki/Pt-br:WikiProject_Brazil/PR/Ponta_Grossa/Agreement","lat":-25.1027064,"lng":-50.1757419},{"id":"1031118407","name":"Mercado Vlastuin","tags":"shop:supermarket","lat":-25.1050439,"lng":-50.1792832},{"id":"1031118993","name":"Mercado Dmenjon","tags":"shop:supermarket","lat":-25.1072757,"lng":-50.1801183},{"id":"1031943563","name":"Farmacia Nissei","tags":"amenity:pharmacy,dispensing:yes","lat":-25.0935183,"lng":-50.1558824},{"id":"1770147986","name":"Correios -AC Ponta Grossa","tags":"addr:city:Ponta Grossa,addr:housenumber:802,addr:street:Rua Augusto Ribas,addr:suburb:Centro,amenity:post_office","lat":-25.0948172,"lng":-50.1603494},{"id":"1770154948","tags":"amenity:bar","lat":-25.0939282,"lng":-50.1594477},{"id":"1770878690","tags":"amenity:bank","lat":-25.0959152,"lng":-50.1623326},{"id":"1770879102","name":"Banco do Brasil","tags":"addr:street:Rua Marechal Deodoro,amenity:bank,name:pt:Banco do Brasil","lat":-25.0972366,"lng":-50.1605623},{"id":"1770957194","name":"Sukiyaki","tags":"addr:city:Ponta Grossa,addr:housenumber:737,addr:street:Rua Ricardo Lustosa Ribas,amenity:restaurant,cuisine:asian","lat":-25.1052264,"lng":-50.1638275},{"id":"1777085138","tags":"amenity:parking","lat":-25.0945305,"lng":-50.1580144},{"id":"1777087554","name":"Memorial Ponto Azul","tags":"amenity:fountain,tourism:attraction","lat":-25.0939729,"lng":-50.1592579},{"id":"1777091463","tags":"leisure:sports_centre","lat":-25.0962068,"lng":-50.155357},{"id":"1777092144","tags":"leisure:sports_centre","lat":-25.0955461,"lng":-50.1544987},{"id":"1777092523","tags":"leisure:sports_centre","lat":-25.0944967,"lng":-50.15496},{"id":"2086131282","name":"Centro Europeu","tags":"amenity:school","lat":-25.0976542,"lng":-50.1603634},{"id":"3192179958","name":"Farmácia Fleming","tags":"addr:city:Ponta Grossa,addr:housenumber:284,addr:street:Praça Barão do Rio Branco,addr:suburb:Centro,amenity:pharmacy,opening_hours:24/7","lat":-25.0931017,"lng":-50.1606185},{"id":"3644366402","name":"Caixa Econômica Federal - Ag Lagoa Dourada","tags":"addr:city:Ponta Grossa,addr:housenumber:1740,addr:street:Avenida Visconde de Mauá,amenity:bank","lat":-25.1232931,"lng":-50.1552496},{"id":"3644366404","name":"Caixa Econômica Federal - Ag Princesa dos Campos","tags":"addr:city:Ponta Grossa,addr:housenumber:201,addr:street:Rua Benjamim Constant,amenity:bank","lat":-25.0966396,"lng":-50.1557027},{"id":"4067232167","tags":"amenity:police","lat":-25.0944667,"lng":-50.153385},{"id":"4268870994","name":"Hipermercado Condor","tags":"addr:housenumber:330,addr:street:Rua Doutor Leopoldo Guimarães da Cunha,opening_hours:Mo-Sa 08:00-22:00; Su 08:00-20:00,phone:+55 42 3229 3714,shop:supermarket,website:https://www.condor.com.br/","lat":-25.1107305,"lng":-50.1556977},{"id":"4287184389","name":"Pronto Socorro","tags":"addr:housenumber:81,addr:street:Rua Augusto Ribas,amenity:hospital,opening_hours:24/7,phone:+554232207800","lat":-25.1011304,"lng":-50.1592929},{"id":"4287261390","name":"Estação Saudade","tags":"addr:street:Avenida Fernandes Pinheiro,tourism:attraction","lat":-25.0933828,"lng":-50.1532606},{"id":"4287268889","name":"Terminal Oficinas","tags":"addr:street:Rua Greenhals,amenity:bus_station","lat":-25.1261641,"lng":-50.1535883},{"id":"4309346906","name":"Locomotiva Maria Fumaça","tags":"tourism:attraction","lat":-25.0955966,"lng":-50.1553272},{"id":"4480989292","name":"Escola Municipal Professor Plácido Cardon","tags":"addr:housenumber:120,addr:postcode:84051-370,addr:street:Rua Alfredo Munhoz,amenity:school,name:pt:Escola Municipal Professor Plácido Cardon,phone:+554239011614","lat":-25.1041319,"lng":-50.1798428},{"id":"4481040592","name":"Supermercado Dmenjon","tags":"addr:housenumber:365,addr:postcode:84050-550,addr:street:Rua Professor Cardoso Fontes,name:pt:Supermercado Dmenjon,phone:+55 42 3028 1232,shop:supermarket","lat":-25.1049451,"lng":-50.1786316},{"id":"4643081790","name":"Restaurante e Mercado Elite","tags":"amenity:restaurant,name:pt:Restaurante e Mercado Elite","lat":-25.1108248,"lng":-50.1680141},{"id":"6838536583","tags":"amenity:restaurant","lat":-25.1249448,"lng":-50.154288},{"id":"6838685885","tags":"amenity:restaurant","lat":-25.1253239,"lng":-50.1543124},{"id":"7089905574","name":"Bom Gosto","tags":"craft:bakery","lat":-25.1196091,"lng":-50.1546912},{"id":"9579617217","name":"Polícia Federal do Brasil","tags":"addr:city:Ponta Grossa,addr:housenumber:316,addr:postcode:84040-120,addr:street:Rua Carlos Osternack,addr:suburb:Vila Estrela,amenity:police,email:dpf.pgz.srpr@pf.gov.br,operator:Polícia Federal do Brasil,operator:en:Federal Police of Brazil,operator:wikidata:Q2289697,operator:wikipedia:pt:Polícia Federal do Brasil,phone:+55 42 3026 5965","lat":-25.1028913,"lng":-50.1619114},{"id":"9624298241","name":"Salão de Beleza Renan Penteado","tags":"addr:city:Ponta Grossa,addr:housenumber:443,addr:postcode:84026-040,addr:suburb:Uvaranas,beauty:cabeleireiro;barbeiro;manicure;pedicure;maquiagem;massoterapia;designe_sobrancelha;estética,internet_access:wlan,opening_hours:Mo-Su 09:00-20:00,operator:Renan Willian Penteado da Silva,payment:cash:yes,payment:mastercard:yes,payment:visa:yes,payment:visa_debit:yes,phone:+55 42 9 9900 0263,shop:beauty","lat":-25.1014708,"lng":-50.1430648}]