[{"id":"3133113302","name":"Gruta da Pedra Ume","tags":"natural:cave_entrance,tourism:attraction","lat":-24.5719467,"lng":-50.2379413},{"id":"3133118970","name":"Lapa Floriano","tags":"addr:city:Tibagi,addr:street:Pe do Guartelá,natural:palaeontological_site,tourism:attraction","lat":-24.5764415,"lng":-50.2411243},{"id":"3133118971","name":"Lapa Ponciano","tags":"addr:city:Tibagi,addr:street:PE do Guartelá,natural:palaeontological_site,tourism:attraction","lat":-24.5688459,"lng":-50.2491062},{"id":"5107758778","name":"Pedra do Buraco","tags":"tourism:attraction","lat":-24.5741181,"lng":-50.2499103},{"id":"5107758779","name":"Pedra do gavião","tags":"tourism:attraction","lat":-24.572463,"lng":-50.2518682}]