[{"id":"2296573287","name":"Pronto Socorro","tags":"amenity:hospital","lat":-25.0165378,"lng":-47.9372595},{"id":"3469548680","name":"Academia","tags":"leisure:sports_centre","lat":-25.0083279,"lng":-47.9308312},{"id":"3469576413","tags":"amenity:pharmacy","lat":-25.0080168,"lng":-47.9310243},{"id":"3469576414","tags":"amenity:bar","lat":-25.0076667,"lng":-47.9311316},{"id":"3469577693","name":"Porto Camarão","tags":"amenity:restaurant","lat":-25.0060036,"lng":-47.9314197},{"id":"3469578989","name":"Supermercado Magnânimo","tags":"shop:supermarket","lat":-25.0088645,"lng":-47.9303344},{"id":"3469581147","name":"Banco Bradesco","tags":"amenity:bank","lat":-25.0074548,"lng":-47.930903},{"id":"3469583562","name":"Supermercado Milenium","tags":"shop:supermarket","lat":-25.0112544,"lng":-47.9293184},{"id":"3469587721","name":"Supermercado Yassui","tags":"shop:supermarket","lat":-25.0124017,"lng":-47.9289644},{"id":"3469589054","name":"Laboratório Laborclin","tags":"amenity:pharmacy","lat":-25.0116822,"lng":-47.9296189},{"id":"3469590861","tags":"amenity:pharmacy","lat":-25.0105447,"lng":-47.9300588},{"id":"3469591851","name":"Pastelaria","tags":"amenity:restaurant","lat":-25.0098641,"lng":-47.9302948},{"id":"3469592728","name":"Pizzaria","tags":"amenity:restaurant","lat":-25.0088918,"lng":-47.930681},{"id":"3469593940","name":"Casa do Pão","tags":"amenity:cafe","lat":-25.0067528,"lng":-47.9315393},{"id":"3469600258","name":"Clube União","tags":"amenity:nightclub","lat":-25.0135004,"lng":-47.9288356},{"id":"3469603963","name":"Correios","tags":"amenity:post_office","lat":-25.0143851,"lng":-47.9286318},{"id":"3469626269","name":"Delegacia","tags":"amenity:police","lat":-25.0138796,"lng":-47.9300158},{"id":"3469648695","name":"Santa Casa","tags":"amenity:hospital","lat":-25.0135762,"lng":-47.9280605},{"id":"3499064176","name":"Polícia Ambiental","tags":"amenity:police","lat":-25.0180885,"lng":-47.9286239},{"id":"3499064199","name":"Santander","tags":"amenity:bank","lat":-25.0160152,"lng":-47.9277241},{"id":"3499068513","name":"Sup. Ilha","tags":"shop:supermarket","lat":-25.0170969,"lng":-47.9276368},{"id":"3499084972","tags":"amenity:hospital","lat":-25.0113606,"lng":-47.9396532},{"id":"3499099093","name":"Dinorah","tags":"amenity:school","lat":-25.0117981,"lng":-47.9397175},{"id":"3499101447","name":"Navegantes","tags":"shop:convenience","lat":-25.0122152,"lng":-47.9373191},{"id":"3499101715","tags":"shop:convenience","lat":-25.0108939,"lng":-47.9373464},{"id":"3499110820","tags":"amenity:hospital","lat":-25.019333,"lng":-47.9352758},{"id":"3503046933","name":"Mercado Estrela","tags":"shop:convenience","lat":-25.0214524,"lng":-47.9341337},{"id":"3503060000","tags":"shop:convenience","lat":-25.0241745,"lng":-47.9336943},{"id":"3503973749","name":"BGV","tags":"shop:convenience","lat":-25.0073573,"lng":-47.9393578},{"id":"3503979856","name":"Yolanda","tags":"amenity:school","lat":-25.0160883,"lng":-47.929101},{"id":"3503980023","tags":"shop:convenience","lat":-25.0217661,"lng":-47.9301202},{"id":"3503983381","tags":"amenity:bar","lat":-25.0238951,"lng":-47.9331672},{"id":"3503985111","tags":"shop:convenience","lat":-25.0148925,"lng":-47.9389286},{"id":"3503985245","tags":"shop:convenience","lat":-25.015048,"lng":-47.9399586},{"id":"3504019234","tags":"shop:convenience","lat":-25.0064434,"lng":-47.9342079},{"id":"3504034967","name":"Tinajas","tags":"amenity:restaurant","lat":-25.0053544,"lng":-47.936815},{"id":"3504037200","tags":"leisure:sports_centre","lat":-25.0114798,"lng":-47.9307532},{"id":"5362285518","name":"Centro Histórico de Cananéia","tags":"historic:district,tourism:attraction","lat":-25.015738,"lng":-47.9267648},{"id":"5650769822","name":"Museu Municipal Histórico e Artístico de Cananéia Víctor Sadowski","tags":"addr:city:Cananéia,addr:housenumber:78,addr:postcode:11990-000,addr:street:Rua Tristão Lobo,addr:suburb:Centro,email:museumunicipal@cananeia.sp.gov.br,opening_hours:Tu-Su 09:00-18:00,operator:Departamento de Cultura da Prefeitura Municipal da Estância Turística de Cananéia,phone:(13) 3851-1930,tourism:museum","lat":-25.0169421,"lng":-47.9284367},{"id":"6767350600","name":"JaJu","tags":"amenity:restaurant,cuisine:pizza","lat":-25.015913,"lng":-47.9268155},{"id":"6767350601","name":"Miramar","tags":"amenity:restaurant,cuisine:seafood","lat":-25.016059,"lng":-47.9268366},{"id":"6767350602","name":"Caiçara","tags":"amenity:restaurant,cuisine:seafood","lat":-25.0161796,"lng":-47.9274553},{"id":"6767350603","name":"Ponto das Ostras","tags":"amenity:restaurant,cuisine:seafood","lat":-25.0156972,"lng":-47.9275931}]