[{"id":"2297728906","name":"EMEF Profa. Adelaide Pedroso Racanello","tags":"amenity:school","lat":-22.9767355,"lng":-49.8634673},{"id":"2297794759","name":"Colégio COC Jean Piaget Ourinhos","tags":"amenity:school","lat":-22.9785022,"lng":-49.8735534},{"id":"5667124340","name":"Golden Lounge Bar","tags":"addr:city:Ourinhos,addr:housenumber:739,addr:postcode:19900-011,addr:street:Rua Rio de Janeiro,addr:suburb:Centro,amenity:bar,brewery:yes,opening_hours:Mo-Th 17:00-23:45, Fr 17:00-02:00, Sa 11:00-02:00,outdoor_seating:yes,smoking:outside","lat":-22.9830214,"lng":-49.8705575},{"id":"6780010511","name":"Bar do Português","tags":"amenity:bar","lat":-22.9760468,"lng":-49.8772684},{"id":"8140674650","name":"Amigão Supermercados","tags":"addr:city:Ourinhos,addr:housenumber:970,addr:postcode:19912-120,addr:street:Rua Cardoso RIbeiro,addr:suburb:Vila Boa Esperança,level:1,phone:+55 14 3344-5739,shop:supermarket,website:https://amigaosupermercados.com.br/","lat":-22.9799492,"lng":-49.863},{"id":"8825252713","name":"Mais1 Café - Ourinhos","tags":"addr:city:Ourinhos,addr:housenumber:519,addr:postcode:19900-071,addr:street:Rua Nove de Julho,addr:suburb:Centro,amenity:cafe,cuisine:coffee_shop,website:https://www.mais1cafe.com.br","lat":-22.9776178,"lng":-49.8671263},{"id":"10282636200","name":"Caixa Eletrônico Banco24horas","tags":"amenity:atm,brand:Banco24Horas,brand:wikidata:Q4854069,currency:BRL:yes,drive_through:no,network:Banco24horas,operator:Banco24horas","lat":-22.9794703,"lng":-49.8632383}]