[{"id":"2327776927","tags":"amenity:school","lat":-24.0245814,"lng":-46.4999798},{"id":"6007698843","name":"Polícia Militar Rodoviária","tags":"amenity:police,police:traffic_police","lat":-24.0337776,"lng":-46.5104699},{"id":"7296207538","name":"Praça Teófilo Dias","tags":"leisure:park","lat":-24.0375278,"lng":-46.5317649},{"id":"7296207552","name":"Praça Simões Lopes Neto","tags":"leisure:park","lat":-24.0248213,"lng":-46.517561},{"id":"7296207574","name":"Praça João Ribeiro","tags":"leisure:park","lat":-24.0245887,"lng":-46.513585},{"id":"7296229604","name":"Praça Antonio Pio","tags":"leisure:park","lat":-24.0370729,"lng":-46.5094402},{"id":"7297915771","name":"Praça Antonio Miguel Nunes","tags":"leisure:park","lat":-24.0232647,"lng":-46.494306},{"id":"7535444635","name":"Etec de Praia Grande - Extensão Balneário Maracanã","tags":"addr:city:Praia Grande,addr:street:Avenida Dr. Roberto de Almeida Vinhas,addr:suburb:Maracanã,amenity:school,operator:Estado de São Paulo,operator:type:government","lat":-24.0322556,"lng":-46.5065905},{"id":"7535444637","name":"Mais Super Atacados","tags":"addr:city:Praia Grande,addr:housenumber:448,addr:street:Avenida do Corretor de Imóveis,addr:suburb:Jardim Samambaia Trevo,payment:cash:yes,payment:coins:yes,payment:credit_cards:yes,payment:debit_cards:yes,shop:supermarket","lat":-24.0361824,"lng":-46.5241674},{"id":"8630271536","name":"Goma do Galinha SEP Maior de Todos","tags":"amenity:restaurant","lat":-24.0295744,"lng":-46.5143699}]