[{"id":"2595752505","name":"Caixa Econômica Federal","tags":"amenity:bank,atm:yes,brand:Caixa Econômica Federal,brand:wikidata:Q835283,brand:wikipedia:pt:Caixa Econômica Federal","lat":-23.9961334,"lng":-46.2590496},{"id":"2595752510","name":"Joia","tags":"shop:supermarket","lat":-23.9958493,"lng":-46.2603791},{"id":"3758373000","name":"Avelinos","tags":"addr:city:Guarujá,addr:housenumber:1771,addr:street:Avenida Marechal Deodoro da Fonseca,addr:suburb:Pitangueiras,amenity:restaurant,phone:+55 13 3355-5043","lat":-24.0018348,"lng":-46.2649015},{"id":"3758373009","tags":"amenity:pharmacy,healthcare:pharmacy","lat":-24.0098492,"lng":-46.2712274},{"id":"4103664190","name":"Monte Carlo","tags":"addr:street:Avenida Miguel Alonso Gonzalez,amenity:restaurant,cuisine:brazilian;fish;seafood;regional;steak_house","lat":-24.0099309,"lng":-46.2711211},{"id":"4103692990","name":"Chopp Halle","tags":"addr:city:Guarujá,addr:housenumber:1520,addr:postcode:11410-222,addr:street:Avenida Marechal Deodoro da Fonseca,addr:suburb:Pitangueiras,amenity:restaurant,cuisine:brazilian;barbecue;fish;local;regional,phone:+55 13 3382-1040","lat":-24.0001741,"lng":-46.2626762},{"id":"4103693089","name":"Boca e Sabor","tags":"addr:street:Rua Rio de Janeiro,amenity:restaurant,cuisine:brazilian;burger;fish","lat":-23.9967728,"lng":-46.2608796},{"id":"4595525944","name":"Paulaner","tags":"amenity:bar","lat":-23.9963816,"lng":-46.2610806},{"id":"4692800401","name":"Pavilhão da Maria Fumaça","tags":"building:yes,historic:locomotive,locomotive:type:steam,tourism:attraction,wikidata:Q97009680","lat":-23.9949506,"lng":-46.2573064},{"id":"5290249922","name":"Sávio Cafe","tags":"addr:housenumber:744,addr:street:Avenida General Monteiro de Barros,amenity:cafe,cuisine:ice_cream,phone:+55 13 3383-4672","lat":-24.0101502,"lng":-46.2681269}]