[{"id":"938415845","name":"Sta. Margarida","tags":"amenity:pharmacy,healthcare:pharmacy","lat":-23.9619689,"lng":-46.4058673},{"id":"938415860","name":"Talismã II","tags":"shop:supermarket","lat":-23.9663171,"lng":-46.4056795},{"id":"940491954","name":"Padaria Kalunga","tags":"shop:convenience","lat":-23.962049,"lng":-46.4053637},{"id":"1995798114","name":"Segunda CIA de São Vicente","tags":"amenity:police","lat":-23.9507732,"lng":-46.4061211},{"id":"1995798115","name":"PS Cidade Náutica","tags":"amenity:hospital","lat":-23.9503766,"lng":-46.4061667},{"id":"1996012854","name":"Supermercado Talismã","tags":"shop:supermarket","lat":-23.9672498,"lng":-46.4035323},{"id":"1996055155","name":"Banco do Brasil","tags":"amenity:bank,brand:Banco do Brasil,brand:wikidata:Q610817,brand:wikipedia:en:Banco do Brasil,wheelchair:yes","lat":-23.9672689,"lng":-46.3827537},{"id":"1996055159","name":"Banco do Brasil","tags":"amenity:bank,atm:yes,brand:Banco do Brasil,brand:wikidata:Q610817,brand:wikipedia:en:Banco do Brasil","lat":-23.9670586,"lng":-46.3840755},{"id":"1999231444","name":"Memorial","tags":"alt_name:Cemitério Memorial,amenity:grave_yard","lat":-23.9672398,"lng":-46.3953333},{"id":"2000795044","name":"Primeiro DP de São Vicente","tags":"amenity:police","lat":-23.9644378,"lng":-46.3858341},{"id":"2013137841","name":"Ilha Porchat","tags":"tourism:attraction,wikidata:Q9009663,wikipedia:pt:Ilha Porchat","lat":-23.9797539,"lng":-46.3702485},{"id":"3556978324","name":"Minimercado Extra","tags":"shop:convenience","lat":-23.9719716,"lng":-46.3957485},{"id":"3560956203","name":"Biquinha de Anchieta","tags":"addr:city:São Vicente,addr:housenumber:0,addr:postcode:11310090,addr:street:Praça Vinte e Dois de Janeiro,addr:suburb:Biquinha,alt_name:Biquinha de São Vicente,historic:drinking_water,opening_hours:24/7,tourism:attraction,website:https://www.saovicente.sp.gov.br/publico/,wikidata:Q52389799,wikipedia:pt:Biquinha de Anchieta","lat":-23.9714183,"lng":-46.3859349},{"id":"4018487913","name":"Minimercado Extra","tags":"shop:convenience","lat":-23.9703815,"lng":-46.3848584},{"id":"4018488975","tags":"shop:convenience","lat":-23.9850771,"lng":-46.3959714},{"id":"4135952844","name":"Pista de Motocross","tags":"leisure:sports_centre,sport:motocross","lat":-23.9913428,"lng":-46.405907},{"id":"4324768991","name":"Bar do Tonho","tags":"addr:street:Rua Vinte e Um de Setembro,amenity:bar","lat":-23.9645641,"lng":-46.3962429},{"id":"4473453604","name":"Supermercado Extra","tags":"name:pt:Supermercado Extra,shop:supermarket,wheelchair:limited","lat":-23.9602572,"lng":-46.3969426},{"id":"6195213294","name":"Gaudio","tags":"addr:city:São Vicente,addr:housenumber:191,addr:street:Avenida Embaixador Pedro de Toledo,addr:suburb:Centro,amenity:restaurant","lat":-23.9689445,"lng":-46.380133},{"id":"6195213295","name":"Marrocos","tags":"addr:city:São Vicente,addr:housenumber:4,addr:street:Praça Heróis de Trinta e Dois,addr:suburb:Cenrto,amenity:restaurant","lat":-23.9688493,"lng":-46.3785361},{"id":"6399257915","name":"Itararé","tags":"alt_name:Estação Itararé (EMTU),light_rail:yes,operator:EMTU,public_transport:station,railway:station,station:light_rail,wikidata:Q30939743,wikipedia:pt:Estação Itararé (EMTU)","lat":-23.9683887,"lng":-46.3623574},{"id":"6399257919","name":"José Monteiro","tags":"alt_name:Estação José Monteiro,light_rail:yes,operator:EMTU,public_transport:station,railway:station,station:light_rail,wikidata:Q30938438,wikipedia:pt:Estação José Monteiro","lat":-23.9682975,"lng":-46.3709355},{"id":"6399257920","name":"Nossa Senhora das Graças","tags":"alt_name:Estação Nossa Senhora das Graças,light_rail:yes,operator:EMTU,public_transport:station,railway:station,station:light_rail,wikidata:Q30938436,wikipedia:pt:Estação Nossa Senhora das Graças","lat":-23.966351,"lng":-46.3762705},{"id":"6399257932","name":"Emmerich","tags":"alt_name:Estação Antônio Emmerich,light_rail:yes,operator:EMTU,public_transport:station,railway:station,station:light_rail,wikidata:Q30938432,wikipedia:pt:Estação Antônio Emmerich","lat":-23.9647005,"lng":-46.3808345},{"id":"6399257934","name":"São Vicente","tags":"alt_name:Estação São Vicente,light_rail:yes,operator:EMTU,public_transport:station,railway:station,station:light_rail,wikidata:Q30938433,wikipedia:pt:Estação São Vicente","lat":-23.9626951,"lng":-46.387687},{"id":"6399257936","name":"Mascarenhas","tags":"alt_name:Estação Mascarenhas de Moraes,light_rail:yes,operator:EMTU,public_transport:station,railway:station,station:light_rail,wikidata:Q30938428,wikipedia:pt:Estação Mascarenhas de Moraes","lat":-23.9617168,"lng":-46.3979089},{"id":"6414313472","name":"Estátua","tags":"tourism:attraction","lat":-23.9702094,"lng":-46.3862935},{"id":"6414313473","name":"Museu do Cinema","tags":"tourism:museum","lat":-23.9699111,"lng":-46.3870552},{"id":"6414357590","name":"Sorveteria","tags":"shop:convenience","lat":-23.9697216,"lng":-46.3862602},{"id":"6414357591","tags":"shop:convenience","lat":-23.9698697,"lng":-46.3859727},{"id":"6572812028","name":"Banco24Horas","tags":"amenity:atm,brand:Banco24Horas,brand:wikidata:Q4854069,brand:wikipedia:pt:Banco24Horas,level:1","lat":-23.9673578,"lng":-46.3834385},{"id":"6680139446","name":"Pizzaria Big","tags":"addr:city:São Vicente,addr:housenumber:208,addr:postcode:113803101,addr:street:Rua São Jorge,addr:suburb:vila voturuá,amenity:restaurant,cuisine:pizza;italian_pizza,opening_hours:Mo-Su 18:00-00:00,phone:+55 13 33268441","lat":-23.9596943,"lng":-46.374292},{"id":"6680139447","name":"Escola Educação Infantil Paschalis & Paschalis","tags":"addr:city:São Vicente,addr:housenumber:248,addr:postcode:113803101,addr:street:Rua São Jorge,addr:suburb:vila voturuá,amenity:school,website:http://www.artesemanhas.com.br/","lat":-23.9595897,"lng":-46.3740049},{"id":"6680144176","name":"Premium Bar e Restaurante","tags":"addr:city:São Vicente,addr:housenumber:131,addr:postcode:11380300,addr:street:Rua Dona Anita Costa,addr:suburb:vila voturuá,amenity:restaurant,cuisine:brazilian,delivery:yes,opening_hours:Mo-Su 10:00-00:00,outdoor_seating:yes,phone:+55 13 3395-3152","lat":-23.9602573,"lng":-46.3748656},{"id":"6681310631","tags":"amenity:restaurant","lat":-23.9527376,"lng":-46.3724254},{"id":"6681310640","name":"PLANETA ÁGUA AQUARIUM","tags":"addr:city:São Vicente,addr:housenumber:876,addr:postcode:11380020,addr:street:Rua Francisco Sá,addr:suburb:vila são jorge,opening_hours:Mo-Sa 10:00-18:00,payment:cash:yes,payment:credit_cards:yes,phone:+55 13 33564064,shop:pet","lat":-23.9517625,"lng":-46.3721222},{"id":"9201280906","name":"Posto Policial","tags":"amenity:police","lat":-23.9765102,"lng":-46.3888077},{"id":"9208361617","name":"Caixa Econômica Federal","tags":"addr:street:Rua Jacob Emerick,amenity:bank,brand:Caixa Econômica Federal,brand:wikidata:Q835283,brand:wikipedia:pt:Caixa Econômica Federal,opening_hours:Mo-Fr 10:00-14:00","lat":-23.9684587,"lng":-46.383632}]