[{"id":"5715258637","name":"Pizzaria Belizário","tags":"addr:city:Cotia,addr:housenumber:9,addr:postcode:06715-708,addr:street:Rua Tróia,addr:suburb:Jardim Belizário,amenity:restaurant,cuisine:pizza,delivery:yes,opening_hours:Tu-Su 18:00-23:50","lat":-23.6103659,"lng":-46.8821681},{"id":"9554184006","name":"Bless","tags":"addr:housenumber:2047,addr:street:Estrada do Capuava,addr:suburb:Jardim Belizário,amenity:restaurant,cuisine:regional,delivery:yes,phone:+55 11 98536 0502","lat":-23.6105792,"lng":-46.8841013},{"id":"9554184008","name":"Daniela Souza Estática Corporal","tags":"addr:housenumber:2047,addr:street:Estrada do Capuava,addr:suburb:Jardim Belizário,phone:+55 11 99331 3534,shop:beauty","lat":-23.6105461,"lng":-46.8840699},{"id":"9554239397","name":"Seu Dito Restaurante e Pizzaria","tags":"addr:housenumber:10,addr:postcode:06715-770,addr:street:Rua Pedro Rodrigues,addr:suburb:Rio Cotia,amenity:restaurant,contact:mobile:+55 11 99004 9835,cuisine:regional;pizza,delivery:yes,phone:+55 11 4616 4932","lat":-23.6039888,"lng":-46.8824514},{"id":"9554352578","name":"Patetas Bar","tags":"addr:housenumber:759,addr:street:Rua Balão Mágico,addr:suburb:Rio Cotia,amenity:bar","lat":-23.6047024,"lng":-46.8820787}]