[{"id":"726959630","tags":"amenity:police","lat":-23.6895889,"lng":-46.7732402},{"id":"3259806827","name":"100º DP","tags":"amenity:police,operator:Polícia Civil","lat":-23.69296,"lng":-46.7598884},{"id":"3270746599","name":"Baía de Apoio do Terminal Jardim Ângela","tags":"amenity:bus_station","lat":-23.6931074,"lng":-46.7785801},{"id":"3285739070","name":"Pça. Arno Konder","tags":"leisure:park","lat":-23.7130638,"lng":-46.7817082},{"id":"3856633457","name":"C.E.I. Jd. Copacabana","tags":"amenity:school","lat":-23.6893023,"lng":-46.7697249},{"id":"4135944790","name":"Pracinha Guarujá","tags":"leisure:park","lat":-23.6900824,"lng":-46.7907192},{"id":"4135975772","name":"Escola particular","tags":"amenity:school","lat":-23.694646,"lng":-46.7914114},{"id":"4135990620","tags":"leisure:park","lat":-23.6952969,"lng":-46.7895929},{"id":"4137532603","tags":"amenity:car_wash","lat":-23.6898788,"lng":-46.7894985},{"id":"4383942222","name":"Mercearia e Padaria Lamed","tags":"name:pt:Mercearia e Padaria Lamed,shop:supermarket","lat":-23.7019697,"lng":-46.7909681},{"id":"4384002400","name":"Estrada Do Jararaú, 15","tags":"addr:city:São Paulo,addr:country:BR,amenity:bus_station,bus:yes,description:Ref.: R Acatlan/ R Um,gtfs_id:420013376,name:pt:Final de Ônibus Jardim dos Reis,network:SPTrans,network:wikidata:Q7392689,network:wikipedia:pt:São Paulo Transporte,public_transport:station,route_ref:7011-31","lat":-23.7083006,"lng":-46.7920332},{"id":"4513969093","tags":"amenity:bus_station","lat":-23.7003361,"lng":-46.7886464},{"id":"4514016692","name":"Rua Paolo Porpora, 306","tags":"addr:city:São Paulo,addr:country:BR,amenity:bus_station,bus:yes,description:Ref.: R Jamil Sawaya,gtfs_id:420013048,network:SPTRANS,route_ref:6012-31;N735-11;7011-10","lat":-23.692808,"lng":-46.7838502},{"id":"4514018891","name":"Estrada Do Jararaú, 210","tags":"addr:city:São Paulo,addr:country:BR,amenity:bus_station,bus:yes,description:Ref.: R Macieira Do Sul,gtfs_id:420013375,name:pt:Parada São Lourenço,network:SPTrans,network:wikidata:Q7392689,network:wikipedia:pt:São Paulo Transporte,public_transport:station,route_ref:7011-10;7011-31","lat":-23.7037009,"lng":-46.791331},{"id":"4514018892","name":"Rua Paolo Porpora, 19","tags":"addr:city:São Paulo,addr:country:BR,amenity:bus_station,bus:yes,description:Ref.: R Jamil Sawaya/rua Francisca Queiros,gtfs_id:420013047,network:SPTRANS,route_ref:6012-31;N735-11;7011-10","lat":-23.693458,"lng":-46.7850956},{"id":"4514018990","name":"Elisam","tags":"name:pt:Elisam,shop:supermarket","lat":-23.7005009,"lng":-46.7816346},{"id":"4514018991","name":"Rua Francisca Queiros, 12","tags":"amenity:bus_station,bus:yes,gtfs_id:4203748,network:SPTRANS,route_ref:7011-10","lat":-23.696289,"lng":-46.785177},{"id":"4514018992","name":"Rua Paolo Porpora, 26","tags":"amenity:bus_station,bus:yes,gtfs_id:4203751,gtfs_stop_desc:Ref.: Rua Coelho Lousada,network:SPTRANS,route_ref:6012-10;6012-31;N735-11","lat":-23.694316,"lng":-46.782537},{"id":"4514019090","name":"Rua Das Três Marias, 309","tags":"amenity:bus_station,bus:yes,gtfs_id:4203744,network:SPTRANS,route_ref:N737-11;7011-10;7011-31","lat":-23.69974,"lng":-46.78756},{"id":"4514029689","name":"Farmácia","tags":"amenity:pharmacy,name:pt:Farmácia","lat":-23.700891,"lng":-46.789542},{"id":"4514029690","tags":"amenity:bus_station","lat":-23.6984446,"lng":-46.7857236},{"id":"4514029890","name":"Rua das Três Marias, 811","tags":"addr:city:São Paulo,addr:country:BR,amenity:bus_station,bus:yes,description:Ref.: R Ciclades/ R Jose Alves Da Silva,gtfs_id:420013372,network:SPTrans,network:wikidata:Q7392689,network:wikipedia:pt:São Paulo Transporte,public_transport:station,route_ref:N737-11;7011-10;7011-31","lat":-23.7010887,"lng":-46.7896678},{"id":"4514030189","name":"Escola Estadual Professora  Josephina Cintra Damião","tags":"addr:housenumber:152,addr:postcode:04943-120,addr:street:Estrada do Jararau,addr:suburb:Chácara Nani,amenity:school,contact:phone:+55 11 5833 3355,email:e041786a@educacao.sp.gov.br,operator:Secretaria da Educação do Estado de São Paulo,operator:type:government,phone:+55 11 5833 2777,short_name:EE Professora  Josephina Cintra Damião","lat":-23.7095148,"lng":-46.7920171},{"id":"4514030889","name":"Pronto Socorro","tags":"amenity:hospital,name:pt:Pronto Socorro","lat":-23.692611,"lng":-46.7760488},{"id":"4514031089","name":"Estrada Do Jararaú, 197","tags":"amenity:bus_station,bus:yes,gtfs_id:4203742,gtfs_stop_desc:Ref.: Rua Acatlan,name:pt:Parada,network:SPTRANS,route_ref:7011-10;7011-31","lat":-23.7068455,"lng":-46.7915837},{"id":"4514031090","name":"Rua das Três Marias, 919","tags":"addr:city:São Paulo,addr:country:BR,amenity:bus_station,bus:yes,description:Ref.: R Ciclades/ R Jose Alves Da Silva,gtfs_id:420013374,network:SPTrans,network:wikidata:Q7392689,network:wikipedia:pt:São Paulo Transporte,public_transport:platform,route_ref:N737-11;7011-10;7011-31","lat":-23.7018367,"lng":-46.7908526},{"id":"4514031189","name":"Estrada Do Jararaú, 29","tags":"amenity:bus_station,bus:yes,gtfs_id:4203737,name:pt:Parada Estância Mirim,network:SPTRANS,route_ref:7011-10;7011-31","lat":-23.70497,"lng":-46.791177},{"id":"4715775495","name":"Jerusalém","tags":"addr:street:Rua das Três Marias,name:pt:Jerusalém,shop:supermarket","lat":-23.7012956,"lng":-46.7898995},{"id":"4715775496","tags":"amenity:pharmacy","lat":-23.6997053,"lng":-46.7875246},{"id":"4715775497","name":"Solar dos Unidos","tags":"amenity:childcare,name:pt:Solar dos Unidos","lat":-23.6892076,"lng":-46.7966021},{"id":"6493239341","name":"Escola Estadual Gil Vicente","tags":"amenity:school","lat":-23.7150434,"lng":-46.7792775},{"id":"6493239342","name":"Escola Municipal","tags":"amenity:school","lat":-23.7151171,"lng":-46.7798032},{"id":"8490580072","name":"Happy burguer Family","tags":"addr:city:São Paulo,addr:housenumber:561,addr:postcode:04945130,addr:street:Rua Coronel Floriano Alvaro,addr:suburb:Parque do Lago,amenity:restaurant,cuisine:burger,opening_hours:18:00 - 2:00,opening_hours:covid19:open,phone:11949576319","lat":-23.714479,"lng":-46.7789369}]