[{"id":"3704915018","name":"´Drogaria Montanhão","tags":"addr:city:São Bernardo do Campo,addr:street:Estrada do Montanhão,addr:suburb:Montanhão,amenity:pharmacy,dispensing:yes,drive_through:no,healthcare:pharmacy","lat":-23.7396034,"lng":-46.5258612},{"id":"3705026968","tags":"addr:city:São Bernardo do Campo,addr:country:BR,addr:street:Avenida Visconde de Cairu,amenity:pharmacy,dispensing:yes,drive_through:no,healthcare:pharmacy","lat":-23.7375852,"lng":-46.5336128},{"id":"6384891927","tags":"leisure:park","lat":-23.7397727,"lng":-46.5280404},{"id":"6384891935","name":"Mercadinho Lucas","tags":"shop:supermarket","lat":-23.7431,"lng":-46.5279828},{"id":"6384891936","name":"Mercadinho Lucas","tags":"addr:street:Avenida Pedro Mendes,payment:cash:yes,payment:coins:yes,payment:notes:yes,shop:supermarket","lat":-23.7445534,"lng":-46.5258183},{"id":"6384891958","name":"Pizzaria Mister Boy","tags":"addr:street:Rua Odila Figueiredo Nicolau,amenity:restaurant,cuisine:pizza","lat":-23.7432582,"lng":-46.5260406},{"id":"6621636330","name":"Drogaria Juruna","tags":"addr:street:Avenida General Barreto de Menezes,amenity:pharmacy,dispensing:yes,drive_through:no,healthcare:pharmacy,phone:+55 11 4127 5981","lat":-23.7359487,"lng":-46.5361153},{"id":"6899454432","name":"Super Mini Preço Todo Dia","tags":"addr:street:Avenida General Barreto de Menezes,shop:supermarket","lat":-23.7371375,"lng":-46.5337038},{"id":"6997557927","tags":"shop:pet","lat":-23.7367099,"lng":-46.5347535}]