[{"id":"4650903493","name":"EMEF Plínio Marcos","tags":"addr:city:São Paulo,addr:postcode:04884-390,addr:street:Rua Belém,addr:suburb:Jardim Papai Noel,amenity:school,name:pt:EMEF Plínio Marcos","lat":-23.8259921,"lng":-46.7006987},{"id":"4651091391","name":"Escola Municipal de Educação Fundamental Vargem Grande 1","tags":"addr:city:São Paulo,addr:country:BR,addr:housenumber:1,addr:postcode:04895-280,addr:street:Rua Beija-Flor,addr:suburb:Vargem Grande,amenity:school,contact:phone:+55 11 5920 4004,email:emefvgrande@prefeitura.sp.gov.br,name:pt:Escola Municipal de Educação Fundamental Vargem Grande 1,phone:+55 11 5920 4003","lat":-23.8615768,"lng":-46.7128036},{"id":"6223559350","tags":"amenity:childcare","lat":-23.8239219,"lng":-46.7055721},{"id":"6648341515","name":"Leishe","tags":"amenity:restaurant","lat":-23.8476309,"lng":-46.6990265},{"id":"10177466048","name":"EMEF Ulysses da Sylveira Guimaraes","tags":"addr:city:São Paulo,addr:housenumber:209,addr:postcode:04890-290,addr:street:Rua Conde de Lancastre,addr:suburb:Jardim Santa Fé,amenity:school,currency:XBT:yes,denomination:roman_catholic,description:Ensino Fundamental,email:emefuguimaraes@prefeitura.sp.gov.br,fax:+55 11 5921-9947,height:7.078,level:5,operator:SP,payment:account_cards:yes,payment:american_express:yes,payment:amex:yes,payment:cards:yes,payment:cash:yes,payment:cheque:yes,payment:coins:yes,payment:contactless:yes,payment:credit_cards:yes,payment:cryptocurrencies:yes,payment:debit_cards:yes,payment:diners_club:yes,payment:discover_card:yes,payment:dkv:yes,payment:electronic_purses:yes,payment:girocard:yes,payment:maestro:yes,payment:mastercard:yes,payment:notes:yes,payment:pikepass:yes,payment:uta:yes,payment:visa:yes,payment:visa_debit:yes,payment:visa_electron:yes,phone:+55 11 5920-8892,religion:christian,start_date:1987,tourism:attraction,website:http://eolgerenciamento.prefeitura.sp.gov.br/frmgerencial/menuescola.aspx?Cod=012688,wheelchair:yes,wikidata:Q10369227,wikipedia:pt:Secretaria Municipal de Educação de São Paulo","lat":-23.8325818,"lng":-46.7099432}]