[{"id":"60641425","tags":"colour:red,lit:yes,tourism:attraction","lat":-23.5567794,"lng":-46.6351573},{"id":"567551704","tags":"amenity:parking","lat":-23.5900045,"lng":-46.6307368},{"id":"598678142","name":"Caixa Econômica Federal","tags":"addr:city:São Paulo,addr:housenumber:580,addr:postcode:01318-000,addr:street:Avenida Brigadeiro Luís Antônio,amenity:bank,atm:yes,brand:Caixa Econômica Federal,brand:wikidata:Q835283,brand:wikipedia:pt:Caixa Econômica Federal,operator:Caixa Economica","lat":-23.5554004,"lng":-46.6394836},{"id":"598678143","tags":"amenity:parking","lat":-23.5548436,"lng":-46.6391995},{"id":"598678145","name":"Target Fit Club","tags":"addr:city:São Paulo,addr:postcode:01317-000,addr:street:Avenida Brigadeiro Luís Antônio,addr:suburb:Bela Vista,atm:yes,leisure:fitness_centre","lat":-23.5550567,"lng":-46.6390273},{"id":"598678156","tags":"amenity:parking","lat":-23.5551828,"lng":-46.6407984},{"id":"599006012","name":"Trevo","tags":"access:yes,amenity:parking,layer:-1,opening_hours:24/7,parking:underground,surface:concrete","lat":-23.5550332,"lng":-46.6352404},{"id":"599006013","name":"Tanka","tags":"amenity:restaurant,cuisine:chinese,opening_hours:Tu-Th 11:30-15:00,18:00-22:00; Fr,Sa 11:30-15:30,18:00-22:30; PH,Su 11:30-15:30,18:00-22:00","lat":-23.555258,"lng":-46.6351745},{"id":"663480298","name":"EEPG Lazar Segall","tags":"amenity:school","lat":-23.5954349,"lng":-46.6343311},{"id":"745720891","name":"Fnac","tags":"addr:city:São Paulo,addr:country:BR,addr:housenumber:901,addr:postcode:01311-100,addr:state:São Paulo,addr:street:Avenida Paulista,opening_hours:Mo-Sa 10:00-22:00; Su 11:00-20:00,shop:books","lat":-23.5659703,"lng":-46.6513863},{"id":"745720898","name":"Juanita","tags":"amenity:restaurant,cuisine:batata,_empanadas","lat":-23.5579761,"lng":-46.6633192},{"id":"745723007","name":"Athos Cafe","tags":"amenity:cafe","lat":-23.5597255,"lng":-46.6378913},{"id":"745723008","tags":"amenity:parking","lat":-23.5611721,"lng":-46.6382169},{"id":"745723009","name":"Bradesco","tags":"amenity:bank,brand:Bradesco,brand:wikidata:Q806181,brand:wikipedia:en:Banco Bradesco","lat":-23.5632326,"lng":-46.6386984},{"id":"745723010","tags":"amenity:parking","lat":-23.5614252,"lng":-46.6383248},{"id":"745723012","name":"FMU","tags":"amenity:university","lat":-23.5606489,"lng":-46.6385492},{"id":"745723014","name":"Drogaria São Paulo","tags":"addr:housenumber:840,addr:postcode:01502-001,addr:street:Avenida da Liberdade,opening_hours:24/7,phone:+55 11 3207-4168,shop:chemist,website:https://www.drogariasaopaulo.com.br/","lat":-23.559899,"lng":-46.6380053},{"id":"745723016","tags":"amenity:parking","lat":-23.5597966,"lng":-46.6379204},{"id":"745723017","tags":"amenity:parking","lat":-23.5605361,"lng":-46.6380273},{"id":"745728699","name":"Santander","tags":"amenity:bank,brand:Santander,brand:wikidata:Q5835668,brand:wikipedia:en:Santander Bank","lat":-23.5640406,"lng":-46.6351679},{"id":"745728708","tags":"amenity:bar","lat":-23.5567912,"lng":-46.6301747},{"id":"745728709","name":"EMEF Duque de Caxias","tags":"addr:city:São Paulo,addr:housenumber:35,addr:postcode:01514-020,addr:street:Praça Doutor Mário Margarido,addr:suburb:Liberdade,amenity:school,phone:+55 11 3209 8283,phone_1:+55 11 3277 6112","lat":-23.5547,"lng":-46.6291299},{"id":"745728710","name":"Anglo Vestibulares","tags":"amenity:school","lat":-23.5636722,"lng":-46.6348742},{"id":"745728722","tags":"amenity:bar","lat":-23.5597761,"lng":-46.6310636},{"id":"745728723","name":"Correios","tags":"amenity:post_office,brand:Correios,brand:wikidata:Q3375004,brand:wikipedia:en:Correios","lat":-23.5637298,"lng":-46.6361059},{"id":"759724327","name":"TemakiYa","tags":"addr:city:São Paulo,addr:housenumber:1834,addr:street:Rua Vergueiro,amenity:restaurant,capacity:50,cuisine:temaki","lat":-23.5784761,"lng":-46.640457},{"id":"765169342","name":"1ª Delegacia de Polícia","tags":"amenity:police","lat":-23.556997,"lng":-46.6343196},{"id":"840695877","name":"Hospital São Paulo","tags":"addr:housenumber:715,addr:postcode:04024-002,addr:street:Rua Napoleão de Barros,amenity:hospital,healthcare:hospital,phone:+55 11 576-4000,website:http://www.hospitalsaopaulo.org.br,wikidata:Q10298486","lat":-23.5977766,"lng":-46.6435335},{"id":"840696601","name":"UNIFESP","tags":"amenity:university","lat":-23.5979732,"lng":-46.6429053},{"id":"840709333","tags":"amenity:cafe","lat":-23.5982878,"lng":-46.6425464},{"id":"840709498","name":"Drogaria São Paulo","tags":"addr:city:São Paulo,addr:country:BR,addr:housenumber:763,addr:postcode:04039-032,addr:state:SP,addr:street:Rua Pedro de Toledo,amenity:pharmacy,brand:Drogaria São Paulo,brand:wikidata:Q5308184,brand:wikipedia:en:Grupo DPSP,contact:phone:+55 11 5549-9647;+55 11 5571-5663;0800 779 8767,contact:website:http://www.drogariasaopaulo.com.br,drive_through:no,healthcare:pharmacy,opening_hours:24/7","lat":-23.5984324,"lng":-46.6442291},{"id":"840718002","name":"Dinos","tags":"amenity:restaurant","lat":-23.5967934,"lng":-46.6423796},{"id":"840718341","tags":"amenity:restaurant","lat":-23.5970589,"lng":-46.6445254},{"id":"846124349","name":"Veneza","tags":"amenity:restaurant","lat":-23.597645,"lng":-46.6424628},{"id":"846469793","tags":"amenity:cafe","lat":-23.598509,"lng":-46.6425751},{"id":"856729087","name":"Bolsão para motos","tags":"addr:city:São Paulo,addr:street:Rua Manoel da Nóbrega,amenity:parking,parking:surface,surface:asphalt","lat":-23.5680741,"lng":-46.6490241},{"id":"922094743","name":"Lycee Pasteur","tags":"amenity:school,name:en:Lycée Pasteur de São Paulo,wikidata:Q3268878,wikipedia:en:Lycée Pasteur de São Paulo","lat":-23.5922627,"lng":-46.6298562},{"id":"955679991","name":"econ","tags":"shop:supermarket","lat":-23.5882375,"lng":-46.6305984},{"id":"992017314","tags":"addr:city:São Paulo,addr:housenumber:2244,addr:postcode:01412-000,addr:street:Rua Augusta,shop:supermarket","lat":-23.5614312,"lng":-46.6637853},{"id":"1004651489","tags":"amenity:parking,fee:yes","lat":-23.558151,"lng":-46.6371734},{"id":"1004651492","name":"Restaurante Katsuzen Katian","tags":"amenity:restaurant","lat":-23.5583138,"lng":-46.6362838},{"id":"1004651497","name":"MJ-1","tags":"amenity:parking,fee:yes","lat":-23.5583213,"lng":-46.6356614},{"id":"1004651641","name":"Tequila's Bar e Restaurante","tags":"amenity:bar","lat":-23.5580327,"lng":-46.6339058},{"id":"1041601043","name":"Escola Pipoquinha","tags":"addr:housenumber:61,addr:street:Alameda Sarutaiá,amenity:school","lat":-23.5707203,"lng":-46.6527579},{"id":"1044883943","name":"Esacionamento","tags":"amenity:parking","lat":-23.5703102,"lng":-46.6532595},{"id":"1056659344","name":"Bar Casa de Francisca","tags":"addr:housenumber:190,addr:postcode:01423-000,addr:street:Al. José Maria Lisboa,amenity:bar","lat":-23.5707183,"lng":-46.6547996},{"id":"1056659348","name":"Pizzaria Prestíssimo","tags":"addr:housenumber:1135,addr:street:Alameda Joaquim Eugênio de Lima,amenity:restaurant,website:https://www.prestissimo.com.br/","lat":-23.5703294,"lng":-46.6548216},{"id":"1056698093","name":"Restaurante Estación Sur","tags":"addr:street:Alameda Joaquim Eugênio de Lima, 1396,amenity:restaurant,cuisine:spanish","lat":-23.571976,"lng":-46.6567874},{"id":"1056698095","name":"Restaurante Sinha'na","tags":"amenity:restaurant,cuisine:regional","lat":-23.5720041,"lng":-46.656532},{"id":"1056698096","tags":"amenity:bar","lat":-23.5722303,"lng":-46.6569186},{"id":"1056714454","name":"Bom Jesus 2 Lanches","tags":"amenity:restaurant,cuisine:regional","lat":-23.5731694,"lng":-46.6577096},{"id":"1056714456","name":"Escola de idiomas","tags":"amenity:school,int_name:Full Conversation","lat":-23.5730292,"lng":-46.6575299},{"id":"1056733094","name":"Restaurante Trattoria do Pietro","tags":"amenity:restaurant,website:http://www.trattoriadopiero.com.br/","lat":-23.5743125,"lng":-46.6587299},{"id":"1056733098","name":"Escola Dom Ratinho","tags":"amenity:school","lat":-23.5727588,"lng":-46.6577123},{"id":"1056734035","tags":"amenity:bar","lat":-23.5744157,"lng":-46.6592894},{"id":"1056786840","name":"Calçadão de Ouro","tags":"addr:city:São Paulo,addr:housenumber:535,addr:street:Alameda Santos,addr:suburb:Jardim Paulista,amenity:restaurant,cuisine:regional,drive_through:no,outdoor_seating:yes","lat":-23.5691746,"lng":-46.6493579},{"id":"1056786843","name":"Livraria Martins Fontes","tags":"addr:city:São Paulo,addr:housenumber:509,addr:postcode:01311-000,addr:street:Avenida Paulista,shop:books,website:http://www.martinsfontespaulista.com.br/","lat":-23.5682361,"lng":-46.6486354},{"id":"1056786853","name":"Washoi","tags":"addr:city:São Paulo,addr:housenumber:88,addr:postcode:04001-000,addr:street:Rua Manuel da Nóbrega,amenity:restaurant,cuisine:japanese,email:contato@washoi.com.br,phone:+55 11 4108 3333,website:http://washoi.com.br/","lat":-23.5686122,"lng":-46.649197},{"id":"1056786855","name":"Restaurante Diner´s","tags":"addr:city:São Paulo,addr:housenumber:129,addr:postcode:04001-080,addr:street:Rua Manoel da Nóbrega,amenity:restaurant","lat":-23.5689928,"lng":-46.6491029},{"id":"1056896812","name":"La Morenita Restaurante","tags":"addr:city:São Paulo,addr:housenumber:2483,addr:street:Avenida Brigadeiro Luís Antônio,amenity:restaurant,contact:mobile:++55 11 93431 5051,cuisine:regional,delivery:yes,outdoor_seating:no,phone:+55 3288 8747,smoking:outside","lat":-23.5692547,"lng":-46.6502997},{"id":"1056937241","tags":"access:private,addr:city:São Paulo,addr:street:Avenida Brigadeiro Luís Antônio,amenity:parking,capacity:0,fee:yes,layer:-1,park_ride:no,parking:underground,supervised:yes,surface:paved","lat":-23.5693416,"lng":-46.6503634},{"id":"1056948107","name":"Faculdade Cásper Líbero","tags":"addr:city:São Paulo,addr:housenumber:900,addr:street:Avenida Paulista,amenity:university,wikidata:Q5091543,wikipedia:pt:Faculdade Cásper Líbero","lat":-23.5655573,"lng":-46.6510915},{"id":"1058995437","tags":"access:private,addr:city:São Paulo,addr:housenumber:2692,addr:postcode:01402-000,addr:street:Avenida Brigadeiro Luís Antônio,amenity:parking,fee:yes,supervised:yes","lat":-23.5703967,"lng":-46.6519356},{"id":"1059019970","tags":"addr:city:São Paulo,addr:housenumber:2748,addr:postcode:01402-000,addr:street:Avenida Brigadeiro Luís Antônio,amenity:bar","lat":-23.5706816,"lng":-46.6522125},{"id":"1059193002","name":"Estacionamento Fac Park","tags":"addr:city:São Paulo,addr:housenumber:88A,addr:postcode:04001-000,addr:street:Rua Manoel da Nóbrega,amenity:parking,fee:yes,supervised:yes,surface:paved","lat":-23.5686822,"lng":-46.6492094},{"id":"1059201626","name":"Natural Da Terra","tags":"addr:city:São Paulo,addr:housenumber:209,addr:postcode:04001-081,addr:street:Rua Manuel da Nóbrega,cuisine:seafood,shop:supermarket","lat":-23.5695453,"lng":-46.6494263},{"id":"1059209790","name":"Escola do Vinho","tags":"addr:housenumber:305,addr:street:Rua Maria Figueiredo,amenity:school","lat":-23.5709442,"lng":-46.6489907},{"id":"1059209796","name":"Estacionamento Trevo","tags":"amenity:parking","lat":-23.5709742,"lng":-46.6499348},{"id":"1059213957","name":"Escola de Yoga","tags":"addr:housenumber:189,addr:street:Rua Maria Figueiredo,amenity:school,school:sport,sport:yoga","lat":-23.5702509,"lng":-46.6483781},{"id":"1059213958","name":"Restaurante Natural","tags":"addr:housenumber:189,addr:street:Rua Maria Figueiredo,amenity:restaurant","lat":-23.5703788,"lng":-46.6484915},{"id":"1059492730","name":"Restaurante Comida Chinesa","tags":"addr:city:São Paulo,addr:housenumber:658,addr:postcode:01418-002,addr:street:Alameda Santos,amenity:restaurant,cuisine:chinese","lat":-23.5682526,"lng":-46.6502366},{"id":"1059504591","name":"Loreto","tags":"addr:city:São Paulo,addr:housenumber:877,addr:street:Al. Santos,amenity:restaurant","lat":-23.5670349,"lng":-46.651964},{"id":"1059504617","name":"Itaú","tags":"addr:street:Al. Santos,amenity:bank,brand:Itaú Unibanco,brand:wikidata:Q1424293,brand:wikipedia:pt:Itaú Unibanco","lat":-23.5668781,"lng":-46.6521933},{"id":"1059506161","name":"Starbucks","tags":"addr:city:São Paulo,addr:housenumber:1054,addr:postcode:01418-100,addr:street:Alameda Santos,addr:suburb:Cerqueira César,amenity:cafe,brand:Starbucks,brand:wikidata:Q37158,brand:wikipedia:en:Starbucks,cuisine:coffee_shop,official_name:Starbucks Coffee,opening_hours:Mo-Fr 07:00-23:00, Sa 08:00-24:00, Su 12:00-23:00,phone:+55 11 3285-2553,takeaway:yes,toilets:wheelchair:yes,wheelchair:yes","lat":-23.5659178,"lng":-46.6530161},{"id":"1059511081","name":"Shintori","tags":"addr:housenumber:600,addr:street:Alameda Campinas,amenity:restaurant","lat":-23.5662197,"lng":-46.6537748},{"id":"1059511085","name":"La Cabaleriza","tags":"addr:housenumber:530,addr:street:Alameda Campinas,amenity:restaurant","lat":-23.565964,"lng":-46.6534851},{"id":"1059530991","tags":"amenity:parking","lat":-23.5695271,"lng":-46.6524838},{"id":"1065872138","name":"Drogaria Tio Luiz","tags":"addr:housenumber:261,addr:street:Rua José Maria Lisboa,amenity:pharmacy,healthcare:pharmacy","lat":-23.5704075,"lng":-46.6554145},{"id":"1066854995","name":"Rotisserie Santa Gema","tags":"addr:housenumber:1105,addr:postcode:01403-003,addr:street:Alameda Joaquim Eugênio de Lima,amenity:restaurant","lat":-23.570211,"lng":-46.6546896},{"id":"1066859189","name":"Farmácio Orthomolecular","tags":"addr:housenumber:77,addr:postcode:01423-000,addr:street:Rua José Maria Lisboa,amenity:pharmacy,healthcare:pharmacy,wheelchair:limited","lat":-23.5718417,"lng":-46.6539957},{"id":"1066862942","name":"Colégio Winnicott","tags":"addr:housenumber:1111,addr:street:Alameda Campinas,amenity:school","lat":-23.5701355,"lng":-46.6571707},{"id":"1066862944","name":"Kuka Biruta","tags":"addr:street:Alameda José Maria Lisboa,amenity:bar","lat":-23.5693382,"lng":-46.6566993},{"id":"1066862947","name":"Fran's Café","tags":"addr:housenumber:1061,addr:street:Alameda Campinas,amenity:cafe,brand:Fran's Café,brand:wikidata:Q62075645,cuisine:coffee_shop,takeaway:yes","lat":-23.5698287,"lng":-46.6567898},{"id":"1066864055","name":"Restaurante Orange","tags":"addr:housenumber:388,addr:postcode:01423-010,addr:street:Rua Batatais,amenity:restaurant","lat":-23.57033,"lng":-46.656999},{"id":"1066864702","name":"Escola Kumon","tags":"addr:housenumber:264,addr:postcode:01423-010,addr:street:Rua Batatais,amenity:school","lat":-23.5712647,"lng":-46.6561862},{"id":"1066864703","name":"Pizzaria Delluccio","tags":"addr:housenumber:282,addr:postcode:01423-010,addr:street:Rua Batatais,amenity:restaurant,cuisine:pizza","lat":-23.5710717,"lng":-46.6564156},{"id":"1066866502","name":"Supermercado Pão de Açúcar","tags":"addr:city:São Paulo,addr:country:BR,addr:housenumber:67,addr:street:Rua Batatais,shop:supermarket","lat":-23.572881,"lng":-46.6547767},{"id":"1066867885","name":"Restaurante China in Box","tags":"addr:city:São Paulo,addr:country:BR,addr:housenumber:2986,addr:postcode:01402-000,addr:street:Avenida Brigadeiro Luis Antônio,amenity:restaurant","lat":-23.5722522,"lng":-46.6539524},{"id":"1066867886","name":"Restaurante Minas Tutu e Prosa","tags":"addr:city:São Paulo,addr:housenumber:2790,addr:postcode:01402-000,addr:street:Avenida Brigadeiro Luís Antônio,amenity:restaurant","lat":-23.5709448,"lng":-46.6525802},{"id":"1066868351","name":"Escola UNS de Inglês","tags":"addr:city:São Paulo,addr:street:Alameda Sarutaiá,amenity:school","lat":-23.5696672,"lng":-46.6541592},{"id":"1066869006","name":"Supletivo e cursos técnicos Inaci","tags":"addr:housenumber:2877,addr:street:Avenida Brigadeiro Luis Antônio,amenity:school","lat":-23.5717164,"lng":-46.6529169},{"id":"1069542770","name":"Correios","tags":"addr:city:São Paulo,addr:housenumber:2375,addr:postcode:01401-971,addr:street:Avenida Brigadeiro Luís Antônio,alt_name:Agência dos Correios Jardim Paulista,amenity:post_office,brand:Correios,brand:wikidata:Q3375004,brand:wikipedia:en:Correios,collection_times:Mo-Fr 09:00-17:00,opening_hours:Mo-Fr 09:00-17:00,operator:Correios,operator:wikidata:Q3375004,operator:wikipedia:en:Correios,phone:+55 11 3884 5265,wheelchair:yes","lat":-23.5684762,"lng":-46.6495509},{"id":"1070507590","name":"Banco do Brasil","tags":"addr:city:São Paulo,addr:country:BR,addr:housenumber:3370,addr:postcode:01402-001,addr:street:Avenida Brigadeiro Luís Antônio,amenity:bank,atm:yes,brand:Banco do Brasil,brand:wikidata:Q610817,brand:wikipedia:en:Banco do Brasil","lat":-23.5746835,"lng":-46.6566224},{"id":"1070507632","name":"Caixa Econômica Federal","tags":"addr:city:São Paulo,addr:country:BR,addr:housenumber:3380,addr:postcode:01402-001,addr:street:Avenida Brigadeiro Luís Antônio,amenity:bank,atm:yes,brand:Caixa Econômica Federal,brand:wikidata:Q835283,operator:Caixa Econômica Federal","lat":-23.5747617,"lng":-46.6566923},{"id":"1070507652","name":"Bradesco","tags":"addr:city:São Paulo,addr:country:BR,addr:postcode:01402-001,addr:street:Avenida Brigadeiro Luís Antônio,amenity:bank,atm:yes,brand:Bradesco,brand:wikidata:Q806181,brand:wikipedia:en:Banco Bradesco","lat":-23.5748691,"lng":-46.6568237},{"id":"1070561890","name":"Pizzaria Camelo","tags":"addr:city:São Paulo,addr:country:BR,addr:street:Al. Pamplona,amenity:restaurant,cuisine:pizza","lat":-23.5723849,"lng":-46.6618107},{"id":"1070566536","name":"Trattoria do Sargento","tags":"addr:housenumber:1354,addr:street:Rua Pamplona,amenity:restaurant","lat":-23.5686596,"lng":-46.6587146},{"id":"1147642984","name":"ampm","tags":"addr:city:São Paulo,addr:housenumber:1920,addr:postcode:04036-000,addr:street:Rua Domingos de Morais,brand:ampm,brand:wikidata:Q306960,brand:wikipedia:en:Ampm,shop:convenience","lat":-23.5930986,"lng":-46.6370091},{"id":"1180813951","name":"Ghost Bike Márcia Prado","tags":"historic:memorial,memorial:ghost_bike,tourism:attraction","lat":-23.5641167,"lng":-46.6530247},{"id":"1201852970","tags":"amenity:cafe,food:yes","lat":-23.5704948,"lng":-46.6460148},{"id":"1201852978","name":"Vaz","tags":"addr:city:São Paulo,addr:housenumber:102,addr:postcode:04003-010,addr:street:Rua Leôncio de Carvalho,amenity:parking,fee:yes,layer:-1,parking:underground,supervised:yes,surface:paved","lat":-23.5707189,"lng":-46.6461329},{"id":"1247141019","name":"Itaú","tags":"addr:city:São Paulo,addr:housenumber:153,addr:postcode:04004-070,addr:street:Praça Oswaldo Cruz,amenity:bank,atm:yes,brand:Itaú Unibanco,brand:wikidata:Q1424293,brand:wikipedia:pt:Itaú Unibanco,operator:Itau","lat":-23.571351,"lng":-46.6446144},{"id":"1393378082","name":"Praça Bon Caccino","tags":"leisure:park","lat":-23.5933372,"lng":-46.6545622},{"id":"1555882709","name":"Itaú","tags":"amenity:bank,atm:yes","lat":-23.5808385,"lng":-46.6501864},{"id":"1597731422","name":"Mascarino","tags":"amenity:restaurant","lat":-23.5895476,"lng":-46.629629},{"id":"1617202931","name":"Colégio Bandeirantes","tags":"addr:housenumber:268,amenity:school,description:Private School,wheelchair:yes","lat":-23.5777066,"lng":-46.6436704},{"id":"1634767131","name":"Suplicy Cafés Especiais","tags":"addr:city:São Paulo,addr:housenumber:1430,addr:postcode:01424-002,addr:street:Alameda Lorena,amenity:cafe,cuisine:coffee_shop,internet_access:wlan,internet_access:fee:no,website:http://www.suplicycafes.com.br,wheelchair:yes","lat":-23.5643953,"lng":-46.6652134},{"id":"1646829764","name":"Pró Matre Paulista","tags":"addr:city:São Paulo,addr:housenumber:139,addr:postcode:01333-001,addr:street:Rua São Carlos do Pinhal,amenity:hospital,healthcare:hospital,phone:+55 11 3269-2233,website:http://www.promatre.com.br","lat":-23.5657296,"lng":-46.6493847},{"id":"1671277694","name":"Drogasil","tags":"addr:city:São Paulo,addr:country:BR,addr:housenumber:32;38;42,addr:postcode:04116-000,addr:state:SP,addr:street:Avenida Prefeito Fábio Prado,amenity:pharmacy,brand:Drogasil,brand:wikidata:Q5308185,brand:wikipedia:pt:Drogasil,contact:email:atendimento@drogasil.com.br,contact:phone:+55 11 5081-4417;+55 11 5081-3579,contact:website:http://www.drogasil.com.br/,healthcare:pharmacy,opening_hours:Mo-Fr 07:00-23:00;Sa 07:00-23:00;Su 07:00-23:00,wheelchair:yes","lat":-23.5903205,"lng":-46.630429},{"id":"1708934524","name":"Lagoa Tropical","tags":"addr:housenumber:406,addr:street:Rua Borges Lagoa,amenity:restaurant,diet:vegetarian:only","lat":-23.5971832,"lng":-46.6404927},{"id":"1711714198","name":"Casa Anro","tags":"addr:housenumber:824,addr:street:Rua Humberto I,amenity:restaurant,internet_access:wlan,name:en:Anro House","lat":-23.5871151,"lng":-46.6409433},{"id":"1747564182","name":"Pier Paulista","tags":"addr:city:São Paulo,addr:housenumber:571,addr:postcode:01403-001,addr:street:Alameda Joaquim Eugênio de Lima,amenity:bar,opening_hours:Mo-Fr 08:00-02:00; Sa,Su closed","lat":-23.5666506,"lng":-46.6512405},{"id":"1747574209","name":"Top Center Shopping","tags":"addr:city:São Paulo,addr:housenumber:854,addr:postcode:01310-100,addr:street:Avenida Paulista,internet_access:wlan,shop:mall,toilets:wheelchair:yes,wheelchair:yes","lat":-23.5658231,"lng":-46.6508703},{"id":"1769540780","name":"Bar da Piscina","tags":"amenity:restaurant,cuisine:regional","lat":-23.5947018,"lng":-46.6522327},{"id":"1773751435","name":"Gopala Mãdahva","tags":"addr:city:São Paulo,addr:housenumber:413,addr:postcode:01309-011,addr:street:Rua Antônio Carlos,amenity:restaurant,description:Ovolactovegetarian,diet:vegetarian:only,website:http://www.gopalamadhava.com.br/","lat":-23.5560353,"lng":-46.6586169},{"id":"1846130661","name":"Urbe Café","tags":"addr:city:São Paulo,addr:housenumber:404,addr:postcode:01309-010,addr:street:Rua Antônio Carlos,amenity:cafe,cuisine:coffee_shop,internet_access:wlan,internet_access:fee:no,opening_hours:Mo 12:00-01:30; Tu-Th 10:00-01:30; Fr-Sa 10:00-04:00; Su 10:00-01:30,website:https://www.facebook.com/urbecafe","lat":-23.5560155,"lng":-46.6584189},{"id":"1846135716","name":"Hamburgueria 162","tags":"addr:city:São Paulo,addr:housenumber:162,addr:postcode:01309-000,addr:street:Rua Luís Coelho,amenity:restaurant,cuisine:burger,website:http://www.hamburgueria162.com.br/","lat":-23.5568208,"lng":-46.6590068},{"id":"1939128092","name":"Saddy Center - Especialidades Arabes","tags":"addr:street:Rua Guarará,shop:convenience","lat":-23.5740791,"lng":-46.6567817},{"id":"1939918421","name":"Hospital 9 de Julho","tags":"addr:housenumber:625,addr:postcode:01409-902,addr:street:Rua Peixoto Gomide,amenity:hospital,emergency:yes,healthcare:hospital,phone:+55 11 3147-9999,website:https://www.h9j.com.br/","lat":-23.5593803,"lng":-46.6549653},{"id":"2057950240","name":"Droga Raia","tags":"addr:city:São Paulo,addr:country:BR,addr:housenumber:512,addr:postcode:04010-000,addr:state:SP,addr:street:Rua Domingos de Morais,amenity:pharmacy,brand:Droga Raia,brand:wikidata:Q10357101,brand:wikipedia:pt:RaiaDrogasil,contact:phone:+55 11 5574-0057,contact:website:http://www.drogaraia.com.br/,healthcare:pharmacy,opening_hours:24/7","lat":-23.5814781,"lng":-46.6390419},{"id":"2057958386","tags":"amenity:pharmacy,healthcare:pharmacy","lat":-23.5878276,"lng":-46.6429526},{"id":"2057958387","tags":"shop:books","lat":-23.5890812,"lng":-46.639404},{"id":"2058056919","name":"Itaú","tags":"amenity:bank,brand:Itaú Unibanco,brand:wikidata:Q1424293,brand:wikipedia:pt:Itaú Unibanco","lat":-23.5925151,"lng":-46.6374031},{"id":"2058067825","tags":"amenity:cafe","lat":-23.5948748,"lng":-46.6377249},{"id":"2074045683","name":"Banco do Brasil","tags":"addr:city:São Paulo,addr:housenumber:726,addr:postcode:01318-001,addr:street:Avenida Brigadeiro Luís Antônio,amenity:bank,atm:yes,brand:Banco do Brasil,brand:wikidata:Q610817,brand:wikipedia:en:Banco do Brasil","lat":-23.5563889,"lng":-46.6400757},{"id":"2074045684","name":"Drogaria Milani","tags":"addr:city:São Paulo,addr:housenumber:572,addr:postcode:01315-000,addr:street:Rua Santo Amaro,addr:suburb:Bela Vista,amenity:pharmacy,drive_through:no,healthcare:pharmacy,phone:+55 11 3242 2787,phone_1:+55 11 3104 2887","lat":-23.554841,"lng":-46.6403827},{"id":"2074045686","name":"Extra Supermercado","tags":"shop:supermarket","lat":-23.5577098,"lng":-46.6400676},{"id":"2074045688","name":"Itaú","tags":"addr:city:São Paulo,addr:housenumber:1030,addr:postcode:01318-001,addr:street:Avenida Brigadeiro Luís Antônio,amenity:bank,atm:yes,opening_hours:Mo-Fr 10:00-16:00,wheelchair:limited","lat":-23.5585305,"lng":-46.641922},{"id":"2082333804","name":"5ª Delegacia de Polícia","tags":"amenity:police","lat":-23.5655827,"lng":-46.6380598},{"id":"2283621582","name":"The Garden","tags":"addr:housenumber:20,addr:street:Avenida Engenheiro Luis Gomes Cardim Sangirardi,amenity:bar,phone:+55 11 5082-2520,website:http://www.thegarden.com.br/","lat":-23.5790056,"lng":-46.6292751},{"id":"2356661316","name":"Madhu","tags":"addr:city:São Paulo,addr:housenumber:1422,addr:postcode:01304-001,addr:street:Rua Augusta,amenity:restaurant,cuisine:indian,website:http://www.madhurestaurante.com.br/","lat":-23.5561062,"lng":-46.6581768},{"id":"2419408204","name":"Pizzaria Ruberto's","tags":"addr:city:São Paulo,addr:country:BR,addr:housenumber:354,addr:street:Rua Doutor Luís Barreto,amenity:restaurant,contact:phone:+55 11 3263-0182,cuisine:pizza,delivery:yes,website:https://www.pizzariarubertos.com/","lat":-23.557468,"lng":-46.647419},{"id":"2430087257","name":"Casella","tags":"addr:city:Sao Paulo,addr:housename:Pizzaria Casena,addr:housenumber:403,addr:postcode:01409-001,addr:street:Rua Peixoto Gomide,amenity:restaurant,cuisine:pizza,phone:+55 11 3259-0242,website:https://pizzariacasella.com.br/","lat":-23.5574421,"lng":-46.6553731},{"id":"2505504134","name":"Pastel da Augusta","tags":"addr:city:São Paulo,addr:housenumber:1526,addr:postcode:01304-001,addr:street:Rua Augusta,amenity:restaurant,cuisine:Pastéis","lat":-23.5568061,"lng":-46.6589269},{"id":"2576273169","name":"Starbucks","tags":"addr:city:São Paulo,addr:housenumber:1499 L2,addr:postcode:01311-200,addr:street:Avenida Paulista,amenity:cafe,brand:Starbucks,brand:wikidata:Q37158,brand:wikipedia:en:Starbucks,cuisine:coffee_shop,internet_access:wlan,official_name:Starbucks Coffee,takeaway:yes","lat":-23.562291,"lng":-46.6557866},{"id":"2610217600","name":"Carrieri Pizza Pub","tags":"addr:housenumber:700,addr:street:Rua Pedra Azul,amenity:restaurant,cuisine:pizza,phone:+55 11 2528-1010,website:http://carrieripizzapub.com.br/","lat":-23.5788647,"lng":-46.6292693},{"id":"2610217608","name":"Espetinhos Aclimação","tags":"addr:housenumber:356,addr:street:Rua Brás Cubas,amenity:bar,phone:+55 11 5579-9187","lat":-23.5766642,"lng":-46.6310796},{"id":"2610217614","name":"Esquina do Espeto","tags":"addr:housenumber:379,addr:street:Rua Brás Cubas,amenity:bar,phone:+55 11 5083-2986","lat":-23.5767531,"lng":-46.6307881},{"id":"2614740726","name":"Barão de Itararé","tags":"addr:city:São Paulo,addr:housenumber:155,addr:postcode:01409-001,addr:street:Rua Peixoto Gomide,amenity:bar,outdoor_seating:yes,smoking:outside,website:http://www.baraodaitarare.com.br/","lat":-23.5552974,"lng":-46.6553185},{"id":"2637705028","name":"Bar e Restaurante 1010","tags":"addr:city:São Paulo,addr:housenumber:1010,addr:street:Rua Cubatão,amenity:restaurant,cuisine:regional","lat":-23.5806123,"lng":-46.6416403},{"id":"2637705068","name":"Fran's Café","tags":"addr:city:São Paulo,addr:housenumber:1111,addr:street:Rua Cubatão,amenity:cafe,brand:Fran's Café,brand:wikidata:Q62075645,cuisine:coffee_shop,internet_access:yes,opening_hours:07:00-23:00,takeaway:yes","lat":-23.5815293,"lng":-46.6410446},{"id":"2637705292","name":"Chapadão","tags":"addr:housename:Restaurante Chapadão,addr:housenumber:1116,addr:street:Rua Cubatão,amenity:restaurant","lat":-23.5814633,"lng":-46.6412231},{"id":"2637706038","name":"Restaurante Kyodai","tags":"addr:housenumber:90,addr:street:Rua Domingos de Moraes,amenity:restaurant,cuisine:japanese","lat":-23.5780264,"lng":-46.6411375},{"id":"2637706609","name":"Bar e Restaurante Chaplin","tags":"addr:city:São Paulo,addr:housename:Chaplin,addr:housenumber:100,addr:postcode:04010-000,addr:street:Rua Domingos de Moraes,addr:suburb:Paraíso,amenity:restaurant","lat":-23.5781213,"lng":-46.6411638},{"id":"2637706862","name":"Restaurante Volentieri","tags":"addr:city:São Paulo,addr:housenumber:955,addr:street:Rua Cubatão,amenity:restaurant,cuisine:italian","lat":-23.5801984,"lng":-46.6417918},{"id":"2637707326","name":"Estação do Café","tags":"addr:housenumber:62,addr:street:Avenida Conselheiro Rodrigues Alves,amenity:cafe,internet_access:no","lat":-23.5816223,"lng":-46.6393215},{"id":"2637707791","name":"Itaú","tags":"amenity:bank,atm:yes,brand:Itaú Unibanco,brand:wikidata:Q1424293,brand:wikipedia:pt:Itaú Unibanco","lat":-23.5810482,"lng":-46.6394312},{"id":"2637707882","name":"Save-Planet Café","tags":"addr:city:São Paulo,addr:housenumber:208,addr:street:Avenida Conselheiro Rodrigues Alves,amenity:cafe","lat":-23.5831663,"lng":-46.6413424},{"id":"2637711115","name":"Ceará","tags":"addr:housenumber:2688,addr:street:Rua Vergueiro,amenity:bar","lat":-23.5852519,"lng":-46.6363002},{"id":"2637736270","name":"Café Creme","tags":"addr:city:São Paulo,addr:housenumber:813,addr:postcode:01311-100,addr:street:Avenida Paulista,amenity:restaurant","lat":-23.566354,"lng":-46.6508719},{"id":"2637738149","name":"Asterix","tags":"addr:city:São Paulo,addr:housenumber:575,addr:postcode:01403-001,addr:street:Alameda Joaquim Eugênio de Lima,amenity:bar,website:http://barasterix.com.br","lat":-23.566686,"lng":-46.6512751},{"id":"2637739286","name":"Tollocos","tags":"addr:city:São Paulo,addr:housenumber:1524 L1,addr:postcode:01304-001,addr:street:Rua Augusta,amenity:restaurant,cuisine:mexican,website:http://www.tollocos.com.br","lat":-23.5567596,"lng":-46.658877},{"id":"2687705125","name":"Sabor Real Restaurante & Grill","tags":"addr:city:São Paulo,addr:housenumber:49,addr:postcode:04004-030,addr:street:Rua Desembargador Eliseu Guilherme,amenity:restaurant,cuisine:regional","lat":-23.5722401,"lng":-46.6441306},{"id":"2687705131","name":"Starbucks","tags":"addr:city:São Paulo,addr:postcode:04004-030,addr:street:Rua Desembargador Eliseu Guilherme,amenity:cafe,brand:Starbucks,brand:wikidata:Q37158,brand:wikipedia:en:Starbucks,cuisine:coffee_shop,internet_access:yes,official_name:Starbucks Coffee,takeaway:yes","lat":-23.5733557,"lng":-46.6439473},{"id":"2687705142","name":"Kyoto Oriental Fast Food","tags":"addr:city:São Paulo,addr:housenumber:37,addr:postcode:04004-004,addr:street:Avenida Bernardino de Campos,amenity:restaurant,cuisine:japanese","lat":-23.5716948,"lng":-46.643503},{"id":"2700754143","name":"Dia","tags":"brand:Dia,brand:wikidata:Q925132,brand:wikipedia:es:Supermercados DIA,shop:supermarket","lat":-23.5931985,"lng":-46.6294663},{"id":"2710167598","name":"Quinto Pecado","tags":"addr:city:São Paulo,addr:housenumber:12,addr:street:Rua Coronel Artur Godoi,amenity:cafe,opening_hours:Mo-Fr 10:00-19:00; Sa 11:00-18:00,website:http://quintopecadodoces.com.br","lat":-23.5841214,"lng":-46.6397979},{"id":"2711660364","name":"Margherita Pizzeria","tags":"addr:city:São Paulo,addr:housenumber:255,addr:postcode:01417-020,addr:street:Alameda Tietê,amenity:restaurant,cuisine:pizza,phone:+55 11 2714-3000,website:http://margherita.com.br/","lat":-23.5620631,"lng":-46.6658029},{"id":"2720385310","tags":"shop:books","lat":-23.5868658,"lng":-46.634349},{"id":"2795181549","name":"Ajissai","tags":"amenity:restaurant,cuisine:japanese","lat":-23.5834375,"lng":-46.6418609},{"id":"2795181550","name":"Huang","tags":"amenity:restaurant,cuisine:chinese","lat":-23.5834486,"lng":-46.6419239},{"id":"2795181551","name":"New Daruma","tags":"amenity:restaurant,cuisine:japonesa","lat":-23.5832647,"lng":-46.6415657},{"id":"2795237613","name":"Catedral Especialidades Árabes","tags":"amenity:restaurant,cuisine:árabe","lat":-23.5783443,"lng":-46.6411901},{"id":"2795237614","name":"Villa di Marianna","tags":"amenity:restaurant,cuisine:italian","lat":-23.5825443,"lng":-46.6429446},{"id":"2795239420","name":"Casa Anco","tags":"shop:supermarket","lat":-23.580144,"lng":-46.6439345},{"id":"2795241837","name":"Pizzaria San Michelli","tags":"addr:country:BR,addr:housenumber:339,addr:street:Rua José Antônio Coelho,amenity:restaurant,contact:email:sanmichelli@ig.com.br,contact:phone:+55 11 5081-6591;+55 11 5579-1425,contact:website:http://www.sanmichelli.com.br/,cuisine:pizza,internet_access:wlan,opening_hours:Tu-Su 18:00-23:30","lat":-23.5804038,"lng":-46.6438205},{"id":"2795285664","name":"Sauroditalia","tags":"addr:city:São Paulo,addr:housenumber:831,addr:postcode:04013-043,addr:street:Rua Cubatão,amenity:restaurant,cuisine:italian","lat":-23.5790936,"lng":-46.6421497},{"id":"2795285665","tags":"amenity:pharmacy,healthcare:pharmacy","lat":-23.5810268,"lng":-46.6430726},{"id":"2795285666","name":"Drogasil","tags":"addr:city:São Paulo,addr:country:BR,addr:housenumber:173,addr:postcode:04009-000,addr:state:SP,addr:street:Rua Domingos de Morais,amenity:pharmacy,brand:Drogasil,brand:wikidata:Q5308185,brand:wikipedia:pt:Drogasil,contact:phone:+55 11 5571-2925;+55 11 5579-6554;0800 779 8767,contact:website:http://www.drogasil.com.br/,healthcare:pharmacy,opening_hours:24/7,wheelchair:yes","lat":-23.5787605,"lng":-46.6408867},{"id":"2795352482","name":"Primavera Gourmet","tags":"addr:city:São Paulo,addr:housenumber:99,addr:postcode:04011-030,addr:street:Rua Eça de Queiroz,amenity:restaurant","lat":-23.5785902,"lng":-46.6419407},{"id":"2797920669","name":"São Paulo Tokyo","tags":"addr:city:São Paulo,addr:housenumber:1172,addr:street:Rua Borges Lagoa,addr:suburb:Vila Clementino,amenity:restaurant,cuisine:japanese,phone:+55 11 5081-6444,smoking:outside,wheelchair:yes","lat":-23.5964985,"lng":-46.6482547},{"id":"2812210894","name":"Museu de Arte Moderna de São Paulo","tags":"alt_name:Museu de Arte Moderna,museum:art,name:en:São Paulo Museum of Modern Art,name:es:Museo de Arte Moderno de São Paulo,opening_hours:Tu-Su 10:00-18:00,phone:(11) 5085-1300,short_name:MAM,start_date:1948,tourism:museum,website:https://www.mam.org.br/,wikidata:Q1581634,wikipedia:pt:Museu de Arte Moderna de São Paulo","lat":-23.5880162,"lng":-46.655484},{"id":"2812233693","name":"Carandá","tags":"amenity:school","lat":-23.5949383,"lng":-46.6498814},{"id":"2812260952","name":"Il Sogno Di Anarelo","tags":"amenity:restaurant,cuisine:italian","lat":-23.5825377,"lng":-46.6481033},{"id":"2815978181","name":"As Mineiras","tags":"amenity:restaurant,cuisine:regional","lat":-23.5889776,"lng":-46.6455294},{"id":"2847700929","name":"Capim Santo","tags":"addr:city:São Paulo,addr:housenumber:471,addr:postcode:01410-001,addr:street:Alameda Ministro Rocha Azevedo,amenity:restaurant,cuisine:regional,opening_hours:Tu-Fr 12:00-15:00, 19:30-23:55; Sa 12:30-16:00, 20:00-23:55; Su 12:30-17:00,phone:+55 11 3089 9500","lat":-23.5622275,"lng":-46.6600729},{"id":"2860552969","name":"Colégio Estação Fundamental","tags":"amenity:school","lat":-23.5792306,"lng":-46.6437706},{"id":"2860553191","name":"Point Beer","tags":"addr:housenumber:151,addr:street:Rua Artur de Almeida,amenity:bar","lat":-23.5801307,"lng":-46.6463411},{"id":"2860593131","tags":"amenity:car_wash","lat":-23.5798037,"lng":-46.646376},{"id":"2860593133","name":"Café Pannini","tags":"amenity:cafe","lat":-23.5779231,"lng":-46.6435704},{"id":"2862035164","name":"Starbucks","tags":"addr:city:São Paulo,addr:country:BR,addr:housenumber:608,addr:postcode:01414-000,addr:state:São Paulo,addr:street:Rua Haddock Lobo,amenity:cafe,brand:Starbucks,brand:wikidata:Q37158,brand:wikipedia:en:Starbucks,contact:phone:+55 11 3083-6101,cuisine:coffee_shop,internet_access:wlan,official_name:Starbucks Coffee,opening_hours:Mo-Th 06:30-22:30; Fr 06:30-23:00; Sa 06:30-00:00; Su 00:00-23:00,operator:Starbucks,takeaway:yes,website:https://www.starbucks.com.br","lat":-23.5579426,"lng":-46.6618157},{"id":"2862035165","name":"Fran's Café","tags":"addr:city:São Paulo,addr:country:BR,addr:housenumber:586,addr:postcode:01414-000,addr:state:São Paulo,addr:street:Rua Haddock Lobo,amenity:cafe,brand:Fran's Café,brand:wikidata:Q62075645,contact:phone:+55 11 3083-1019,cuisine:coffee_shop,internet_access:wlan,opening_hours:24/7,takeaway:yes","lat":-23.5578737,"lng":-46.6617462},{"id":"2862747065","name":"Nur El Chams","tags":"amenity:restaurant,cuisine:arab","lat":-23.5780296,"lng":-46.6426384},{"id":"2862747293","name":"Correios","tags":"addr:city:São Paulo,addr:housenumber:2222,addr:postcode:01418-200,addr:street:Alameda Santos,amenity:post_office,brand:Correios,brand:wikidata:Q3375004,brand:wikipedia:en:Correios","lat":-23.5586167,"lng":-46.661532},{"id":"2862747297","name":"Banco do Brasil","tags":"addr:city:São Paulo,addr:housenumber:2163,addr:postcode:01311-300,addr:street:Avenida Paulista,amenity:bank,brand:Banco do Brasil,brand:wikidata:Q610817,brand:wikipedia:en:Banco do Brasil","lat":-23.5581552,"lng":-46.6605151},{"id":"2862747298","name":"Bovinus","tags":"addr:city:São Paulo,addr:housenumber:1513,addr:postcode:01305-100,addr:street:Rua Augusta,amenity:restaurant","lat":-23.5567682,"lng":-46.6586691},{"id":"2862747299","name":"Maoz Vegetarian","tags":"addr:city:São Paulo,addr:housenumber:1523,addr:postcode:01305-100,addr:street:Rua Augusta,addr:suburb:Consolação,amenity:restaurant,diet:vegan:only,self_service:yes,website:http://maoz.com.br/,wheelchair:no","lat":-23.5568564,"lng":-46.6587637},{"id":"2869109747","name":"Les Café","tags":"amenity:cafe","lat":-23.5777143,"lng":-46.6429489},{"id":"2916226350","name":"Pão de Açúcar","tags":"brand:Pão de Açúcar,brand:wikidata:Q3411543,brand:wikipedia:pt:Pão de Açúcar (supermercado brasileiro),shop:supermarket","lat":-23.5742819,"lng":-46.6456793},{"id":"2942867268","name":"Bar da Villa","tags":"addr:city:São Paulo,addr:housenumber:621,addr:postcode:04511-011,addr:street:Rua Afonso Brás,addr:suburb:Moema,amenity:bar,brewery:no,opening_hours:covid19:open,phone:+55 11 3846-8814,smoking:outside","lat":-23.5954311,"lng":-46.6699086},{"id":"2961589538","name":"Porque Sim","tags":"addr:housenumber:75,addr:street:Rua Tomás Gonzaga,amenity:restaurant,cuisine:asian","lat":-23.5576837,"lng":-46.6356457},{"id":"2961589539","name":"Jardim Meio Hectare","tags":"amenity:restaurant,cuisine:chinese","lat":-23.5576858,"lng":-46.6355505},{"id":"2972400179","name":"Bistro Reserva","tags":"amenity:restaurant,cuisine:international,phone:+55 11 3287-3529,website:https://www.reservacultural.com.br/","lat":-23.5653467,"lng":-46.6513527},{"id":"3009240882","name":"Onodera","tags":"shop:beauty","lat":-23.5975499,"lng":-46.6622088},{"id":"3027016682","name":"Banco Itaú","tags":"amenity:bank","lat":-23.5612898,"lng":-46.6325127},{"id":"3046163092","name":"Droga Raia","tags":"addr:city:São Paulo,addr:country:BR,addr:housenumber:378,addr:postcode:01414-000,addr:state:SP,addr:street:Rua Haddock Lobo,addr:suburb:Consolação,amenity:pharmacy,brand:Droga Raia,brand:wikidata:Q10357101,brand:wikipedia:pt:RaiaDrogasil,contact:phone:+55 11 3256-2609,contact:website:http://www.drogaraia.com.br,healthcare:pharmacy,opening_hours:Mo-Su 07:00-23:00","lat":-23.5566214,"lng":-46.6604206},{"id":"3046163095","name":"Starbucks","tags":"addr:city:São Paulo,addr:housenumber:1987,addr:postcode:01413-000,addr:street:Rua Augusta,amenity:cafe,brand:Starbucks,brand:wikidata:Q37158,brand:wikipedia:en:Starbucks,cuisine:coffee_shop,internet_access:wlan,name:pt:Starbucks Coffee,official_name:Starbucks Coffee,takeaway:yes","lat":-23.5598291,"lng":-46.6618969},{"id":"3058186382","name":"AC Rafael de Barros","tags":"amenity:post_office,operator:Correios","lat":-23.571812,"lng":-46.6442405},{"id":"3058198163","name":"Caixa Econômica Federal","tags":"addr:city:São Paulo,addr:housenumber:1970,addr:postcode:01327-002,addr:street:Rua Treze de Maio,amenity:bank,atm:yes,brand:Caixa Econômica Federal,brand:wikidata:Q835283,brand:wikipedia:pt:Caixa Econômica Federal,opening_hours:Mo-Fr 10:00-16:00,operator:Caixa Economica Federal","lat":-23.5704724,"lng":-46.6440015},{"id":"3058198164","name":"Itaú","tags":"addr:city:São Paulo,addr:housenumber:113,addr:postcode:04004-070,addr:street:Praça Oswaldo Cruz,amenity:bank,branch:Personnalité,brand:Itaú Unibanco,brand:wikidata:Q1424293,brand:wikipedia:pt:Itaú Unibanco,opening_hours:Mo-Fr 10:00-16:00,operator:Citi","lat":-23.5715768,"lng":-46.6445566},{"id":"3058198166","name":"Santander","tags":"amenity:bank,atm:yes,brand:Santander,brand:wikidata:Q5835668,brand:wikipedia:en:Santander Bank,operator:Santander,wheelchair:yes","lat":-23.5720526,"lng":-46.6447455},{"id":"3091100625","name":"Banco do Brasil","tags":"amenity:bank,atm:yes,brand:Banco do Brasil,brand:wikidata:Q610817,brand:wikipedia:en:Banco do Brasil","lat":-23.5808073,"lng":-46.6395869},{"id":"3091794268","name":"Bradesco","tags":"amenity:bank,atm:yes,brand:Bradesco,brand:wikidata:Q806181,brand:wikipedia:en:Banco Bradesco,website:https://banco.bradesco/","lat":-23.5732026,"lng":-46.652338},{"id":"3091797865","name":"Mini Extra Supermercado","tags":"addr:street:Rua Cubatão,shop:supermarket","lat":-23.5735702,"lng":-46.6448324},{"id":"3091809408","name":"Banco do Brasil","tags":"amenity:bank,atm:yes,brand:Banco do Brasil,brand:wikidata:Q610817,brand:wikipedia:en:Banco do Brasil","lat":-23.5735092,"lng":-46.6426794},{"id":"3092683996","name":"Bolsão para motos","tags":"addr:city:São Paulo,addr:street:Rua Chris Tronbjerg,amenity:parking,parking:surface","lat":-23.5700212,"lng":-46.6509606},{"id":"3092685244","name":"Bolsão para motos","tags":"addr:city:São Paulo,addr:street:Rua Maria Figueiredo,amenity:parking,parking:surface","lat":-23.570048,"lng":-46.6485214},{"id":"3126084279","name":"Osteria Generale","tags":"addr:housenumber:957,addr:street:Rua Pamplona,amenity:restaurant,cuisine:italian,internet_access:wlan,smoking:no,website:https://www.generale.com.br/","lat":-23.5661315,"lng":-46.6559716},{"id":"3220605737","name":"Banco do Brasil","tags":"addr:city:São Paulo,addr:housenumber:2421,addr:postcode:01311-300,addr:street:Avenida Paulista,amenity:bank,brand:Banco do Brasil,brand:wikidata:Q610817,brand:wikipedia:en:Banco do Brasil,entrance:yes,opening_hours:Mo-Fr 10:00-16:00,operator:Banco do Brasil","lat":-23.5565923,"lng":-46.662283},{"id":"3227217162","name":"Pão de Açúcar","tags":"addr:city:São Paulo,addr:housenumber:2581,addr:postcode:01416-001,addr:street:Rua da Consolação,brand:Pão de Açúcar,brand:wikidata:Q3411543,brand:wikipedia:pt:Pão de Açúcar (supermercado brasileiro),name:en:Sugar Loaf,operator:Pão de Açúcar,phone:+55 11 3062-3319,shop:supermarket,website:https://www.paodeacucar.com/","lat":-23.5564237,"lng":-46.6636985},{"id":"3227217163","name":"Pão de Açúcar","tags":"addr:city:São Paulo,addr:housenumber:2071,addr:postcode:01419-100,addr:street:Alameda Santos,addr:suburb:Cerqueira César,brand:Pão de Açúcar,brand:wikidata:Q3411543,brand:wikipedia:pt:Pão de Açúcar (supermercado brasileiro),opening_hours:Mo-Su 07:00-22:00,operator:GPA - Grupo Pão de Açúcar,shop:supermarket","lat":-23.5597201,"lng":-46.6605019},{"id":"3232289422","name":"Itaú Personalite","tags":"addr:city:São Paulo,addr:housenumber:1294,addr:postcode:01310-100,addr:street:Avenida Paulista,amenity:bank,entrance:yes,opening_hours:Mo-Fr 10:00-16:00","lat":-23.5631921,"lng":-46.6540145},{"id":"3418065894","name":"Casa Santa Luzia","tags":"addr:city:São Paulo,addr:housenumber:1471,addr:postcode:01424-005,addr:street:Alameda Lorena,email:sac@santaluzia.com.br,opening_hours:Mo-Sa 08:00-20:45,phone:+55 11 3897-5000,shop:supermarket,website:https://www.santaluzia.com.br/,wheelchair:yes","lat":-23.5642491,"lng":-46.6656004},{"id":"3441942625","name":"Japatche","tags":"addr:city:São Paulo,addr:housenumber:1372,addr:postcode:01415-004,addr:street:Rua Bela Cintra,amenity:restaurant,name:pt:Japatche,survey:date:2015-04-06","lat":-23.5581082,"lng":-46.6638099},{"id":"3449922200","name":"Liberdade Grill","tags":"addr:city:São Paulo,addr:housenumber:1088,addr:postcode:01502-001,addr:street:Avenida da Liberdade,amenity:restaurant,cuisine:regional","lat":-23.5621432,"lng":-46.6389122},{"id":"3495343593","name":"Pé no Parque","tags":"amenity:restaurant","lat":-23.5977751,"lng":-46.6654267},{"id":"3524847690","name":"Caixa Economica Federal","tags":"addr:city:São Paulo,addr:housenumber:912,addr:postcode:01318-001,addr:street:Avenida Brigadeiro Luís Antônio,amenity:bank,opening_hours:Mo-Fr 10:00-16:00","lat":-23.5577394,"lng":-46.6412329},{"id":"3534998366","name":"Drogasil","tags":"addr:city:São Paulo,addr:housenumber:2066,addr:postcode:01318-002,addr:street:Avenida Brigadeiro Luís Antônio,amenity:pharmacy,healthcare:pharmacy","lat":-23.5660184,"lng":-46.6481438},{"id":"3565334401","name":"Mercadinho Dalva e Dito","tags":"addr:city:São Paulo,addr:housenumber:1115,addr:postcode:01411-001,addr:street:Rua Padre João Manuel,shop:convenience,wheelchair:yes","lat":-23.5664096,"lng":-46.6668211},{"id":"3565334406","name":"Santo Grão Oscar Freire","tags":"addr:city:São Paulo,addr:housenumber:413,addr:postcode:01426-001,addr:street:Rua Oscar Freire,amenity:restaurant,cuisine:coffee_shop,internet_access:wlan,opening_hours:Mo 09:00-01:00, Tu-Th 07:30-01:00, Fr 07:30-02:00, Sa 08:00-02:00, Su 08:00-00:00,phone:+55 11 3082-4892,smoking:no,website:http://www.santograo.com.br/,wheelchair:limited","lat":-23.5661481,"lng":-46.6656832},{"id":"3614315878","name":"Carrefour Express","tags":"addr:city:São Paulo,addr:housenumber:2318,addr:postcode:01402-000,addr:street:Avenida Brigadeiro Luís Antônio,brand:Carrefour Express,brand:wikidata:Q2940190,brand:wikipedia:fr:Carrefour Express,shop:convenience","lat":-23.5679321,"lng":-46.6493765},{"id":"3621336500","name":"Itaú","tags":"amenity:bank,brand:Itaú Unibanco,brand:wikidata:Q1424293,brand:wikipedia:pt:Itaú Unibanco","lat":-23.5723175,"lng":-46.6433944},{"id":"3621336501","tags":"amenity:pharmacy,healthcare:pharmacy","lat":-23.5717324,"lng":-46.6440354},{"id":"3621336502","name":"Caixa Econômica Federal","tags":"addr:city:São Paulo,addr:housenumber:306,addr:postcode:01310-000,addr:street:Avenida Paulista,amenity:bank,brand:Caixa Econômica Federal,brand:wikidata:Q835283,brand:wikipedia:pt:Caixa Econômica Federal,opening_hours:Mo-Fr 10:00-16:00","lat":-23.5691422,"lng":-46.6466948},{"id":"3621336503","name":"Santander","tags":"addr:city:São Paulo,addr:housenumber:447,addr:postcode:01311-000,addr:street:Avenida Paulista,amenity:bank,brand:Santander,brand:wikidata:Q5835668,brand:wikipedia:en:Santander Bank,entrance:yes,opening_hours:Mo-Fr 10:00-16:00","lat":-23.5687218,"lng":-46.6479807},{"id":"3621336504","name":"Itaú","tags":"addr:city:São Paulo,addr:country:BR,addr:housenumber:459,addr:postcode:01311-000,addr:street:Avenida Paulista,amenity:bank,brand:Itaú Unibanco,brand:wikidata:Q1424293,brand:wikipedia:pt:Itaú Unibanco,entrance:yes,opening_hours:Mo-Fr 10:00-16:00","lat":-23.5686493,"lng":-46.648073},{"id":"3621336505","name":"Santander","tags":"addr:city:São Paulo,addr:housenumber:436,addr:postcode:01310-000,addr:street:Avenida Paulista,amenity:bank,brand:Santander,brand:wikidata:Q5835668,brand:wikipedia:en:Santander Bank,entrance:yes,opening_hours:Mo-Fr 10:00-16:00","lat":-23.5683722,"lng":-46.6477087},{"id":"3621336506","name":"Banco do Brasil","tags":"addr:city:São Paulo,addr:housenumber:460,addr:postcode:01310-000,addr:street:Avenida Paulista,amenity:bank,brand:Banco do Brasil,brand:wikidata:Q610817,brand:wikipedia:en:Banco do Brasil,opening_hours:Mo-Fr 10:00-16:00","lat":-23.5681512,"lng":-46.6478309},{"id":"3621336508","name":"Itaú","tags":"addr:city:São Paulo,addr:housenumber:694,addr:postcode:01310-100,addr:street:Avenida Paulista,amenity:bank,brand:Itaú Unibanco,brand:wikidata:Q1424293,brand:wikipedia:pt:Itaú Unibanco,entrance:yes,opening_hours:Mo-Fr 10:00-16:00","lat":-23.5668932,"lng":-46.6495838},{"id":"3621336510","name":"Bradesco","tags":"addr:city:São Paulo,addr:housenumber:967,addr:postcode:01311-100,addr:street:Avenida Paulista,amenity:bank,brand:Bradesco,brand:wikidata:Q806181,brand:wikipedia:en:Banco Bradesco,opening_hours:Mo-Fr 10:00-16:00","lat":-23.5655627,"lng":-46.6520045},{"id":"3621336511","name":"Drogasil","tags":"addr:city:São Paulo,addr:country:BR,addr:housenumber:995,addr:postcode:01311-100,addr:state:São Paulo,addr:street:Avenida Paulista,amenity:pharmacy,brand:Drogasil,brand:wikidata:Q5308185,brand:wikipedia:pt:Drogasil,contact:email:contato@drogasil.com.br,contact:phone:+55 11 3286-0114;+55 11 3253-2501,contact:website:https://www.drogasil.com.br/,healthcare:pharmacy,opening_hours:Mo-Sa 07:00-23:00; Su 08:00-22:00,wheelchair:yes","lat":-23.5654273,"lng":-46.6520986},{"id":"3621336513","name":"Itaú","tags":"addr:city:São Paulo,addr:housenumber:1151,addr:postcode:01311-200,addr:street:Avenida Paulista,amenity:bank,brand:Itaú Unibanco,brand:wikidata:Q1424293,brand:wikipedia:pt:Itaú Unibanco","lat":-23.5643244,"lng":-46.6532951},{"id":"3621336514","name":"Drogasil","tags":"addr:city:São Paulo,addr:country:BR,addr:housenumber:1257,addr:postcode:01311-200,addr:state:São Paulo,addr:street:Avenida Paulista,amenity:pharmacy,contact:phone:+55 11 3251-5252,healthcare:pharmacy","lat":-23.563772,"lng":-46.6540412},{"id":"3621336515","name":"Drogaria São Paulo","tags":"addr:city:São Paulo,addr:country:BR,addr:housenumber:1227,addr:postcode:01311-200,addr:state:São Paulo,addr:street:Avenida Paulista,amenity:pharmacy,brand:Drogaria São Paulo,brand:wikidata:Q5308184,brand:wikipedia:en:Grupo DPSP,contact:phone:+55 11 3288-8061;+55 11 3289-4182,contact:website:http://www.drogariasaopaulo.com.br/,healthcare:pharmacy,opening_hours:24/7","lat":-23.5640496,"lng":-46.6537481},{"id":"3621336516","name":"Santander","tags":"addr:city:São Paulo,addr:housenumber:1374B,addr:postcode:01310-100,addr:street:Avenida Paulista,amenity:bank,brand:Santander,brand:wikidata:Q5835668,brand:wikipedia:en:Santander Bank","lat":-23.562578,"lng":-46.6547644},{"id":"3621336517","name":"Bradesco","tags":"addr:city:São Paulo,addr:housenumber:1415,addr:postcode:01311-200,addr:street:Avenida Paulista,amenity:bank,brand:Bradesco,brand:wikidata:Q806181,brand:wikipedia:en:Banco Bradesco,entrance:yes,opening_hours:Mo-Fr 10:00-16:00","lat":-23.5627548,"lng":-46.6552616},{"id":"3621336518","name":"Bradesco Prime","tags":"addr:city:São Paulo,addr:housenumber:1450,addr:postcode:01310-100,addr:street:Avenida Paulista,amenity:bank,entrance:yes,opening_hours:Mo-Fr 10:00-16:00","lat":-23.5622367,"lng":-46.6550988},{"id":"3621336519","name":"Banco do Brasil Estilo","tags":"addr:city:São Paulo,addr:housenumber:1500,addr:postcode:01310-100,addr:street:Avenida Paulista,amenity:bank,entrance:yes,opening_hours:Mo-Fr 10:00-16:00","lat":-23.5620546,"lng":-46.6554004},{"id":"3621336520","name":"Bradesco","tags":"addr:city:São Paulo,addr:housenumber:1708,addr:postcode:01310-200,addr:street:Avenida Paulista,amenity:bank,brand:Bradesco,brand:wikidata:Q806181,brand:wikipedia:en:Banco Bradesco,entrance:yes,opening_hours:Mo-Fr 10:00-16:00","lat":-23.5605324,"lng":-46.6570221},{"id":"3621336522","name":"Citibank","tags":"addr:city:São Paulo,addr:housenumber:1776,addr:postcode:01310-200,addr:street:Avenida Paulista,amenity:bank,brand:Citibank,brand:wikidata:Q857063,brand:wikipedia:en:Citibank,entrance:yes,opening_hours:Mo-Fr 10:00-16:00,short_name:Citi","lat":-23.5602519,"lng":-46.6574316},{"id":"3621336524","name":"Caixa Econômica Federal","tags":"addr:city:São Paulo,addr:housenumber:1842,addr:postcode:01310-200,addr:street:Avenida Paulista,amenity:bank,brand:Caixa Econômica Federal,brand:wikidata:Q835283,brand:wikipedia:pt:Caixa Econômica Federal,entrance:yes,opening_hours:Mo-Fr 10:00-16:00","lat":-23.5597157,"lng":-46.6579375},{"id":"3621336525","name":"Itaú","tags":"addr:city:São Paulo,addr:housenumber:1948,addr:postcode:01310-200,addr:street:Avenida Paulista,amenity:bank,brand:Itaú Unibanco,brand:wikidata:Q1424293,brand:wikipedia:pt:Itaú Unibanco","lat":-23.559125,"lng":-46.6587339},{"id":"3621336527","name":"Santander","tags":"addr:city:São Paulo,addr:housenumber:2086,addr:postcode:01310-200,addr:street:Avenida Paulista,amenity:bank,atm:yes,brand:Santander,brand:wikidata:Q5835668,brand:wikipedia:en:Santander Bank,drive_through:no,opening_hours:Mo-Fr 10:00-16:00","lat":-23.5582684,"lng":-46.6597068},{"id":"3621336529","name":"Banrisul","tags":"addr:city:São Paulo,addr:housenumber:2381,addr:postcode:01311-300,addr:street:Avenida Paulista,amenity:bank,brand:Banrisul,brand:wikidata:Q4857098,brand:wikipedia:en:Banrisul,entrance:yes,opening_hours:Mo-Fr 10:00-16:00","lat":-23.5568087,"lng":-46.6620748},{"id":"3621336530","name":"Drogasil","tags":"addr:city:São Paulo,addr:country:BR,addr:housenumber:2408,addr:postcode:01310-300,addr:state:São Paulo,addr:street:Avenida Paulista,amenity:pharmacy,brand:Drogasil,brand:wikidata:Q5308185,brand:wikipedia:pt:Drogasil,contact:phone:+55 11 3255-2345,contact:website:http://www.onofre.com.br/,entrance:yes,healthcare:pharmacy,wheelchair:yes","lat":-23.5563052,"lng":-46.6619012},{"id":"3621336531","name":"Caixa Econômica Federal","tags":"addr:city:São Paulo,addr:housenumber:2358,addr:postcode:01310-300,addr:street:Avenida Paulista,amenity:bank,brand:Caixa Econômica Federal,brand:wikidata:Q835283,brand:wikipedia:pt:Caixa Econômica Federal,entrance:yes,opening_hours:Mo-Fr 10:00-16:00","lat":-23.556582,"lng":-46.6614723},{"id":"3621336532","name":"Santander","tags":"addr:city:São Paulo,addr:housenumber:2224,addr:postcode:01310-300,addr:street:Avenida Paulista,amenity:bank,brand:Santander,brand:wikidata:Q5835668,brand:wikipedia:en:Santander Bank,entrance:yes,opening_hours:Mo-Fr 10:00-16:00","lat":-23.557417,"lng":-46.6606729},{"id":"3621336533","name":"Itaú","tags":"addr:city:São Paulo,addr:housenumber:2212,addr:postcode:01310-300,addr:street:Avenida Paulista,amenity:bank,brand:Itaú Unibanco,brand:wikidata:Q1424293,entrance:yes,opening_hours:Mo-Fr 10:00-16:00","lat":-23.5574577,"lng":-46.6606269},{"id":"3671037217","name":"Carrefur Express","tags":"addr:city:São Paulo,addr:housenumber:2074,addr:postcode:01412-000,addr:street:Rua Augusta,shop:convenience","lat":-23.5603056,"lng":-46.6626521},{"id":"3671037628","name":"Mini Extra","tags":"addr:city:São Paulo,addr:housenumber:2107,addr:postcode:01413-000,addr:street:Rua Augusta,shop:convenience","lat":-23.5606309,"lng":-46.6627343},{"id":"3698987686","name":"Nosso Ranchinho","tags":"addr:city:São Paulo,addr:housenumber:1223,addr:postcode:01317-001,addr:street:Avenida Brigadeiro Luís Antônio,addr:suburb:Bela Vista,amenity:restaurant,capacity:40,cuisine:regional,takeaway:yes","lat":-23.5601285,"lng":-46.6429489},{"id":"3721036232","name":"Santander","tags":"amenity:bank,brand:Santander,brand:wikidata:Q5835668,brand:wikipedia:en:Santander Bank","lat":-23.5558243,"lng":-46.6351898},{"id":"3722275000","name":"Extra","tags":"addr:city:São Paulo,addr:housenumber:455,addr:postcode:01503-001,addr:street:Avenida da Liberdade,brand:Extra,brand:wikidata:Q5422131,brand:wikipedia:pt:Extra (rede varejista),shop:supermarket,website:https://www.extra.com.br/","lat":-23.5569834,"lng":-46.6362086},{"id":"3722288068","name":"Villa Tavola","tags":"addr:housenumber:848,addr:street:Rua Treze de Maio,amenity:restaurant,website:http://www.villatavola.com.br/","lat":-23.5606945,"lng":-46.646332},{"id":"3722288069","name":"Pizzaria Speranza","tags":"addr:housenumber:1004,addr:street:Rua Treze de Maio,amenity:restaurant,cuisine:pizza,opening_hours:Mo-Su 18:00-12:00,website:http://pizzaria.com.br/","lat":-23.5621293,"lng":-46.6461858},{"id":"3722289716","name":"MiniMercado Extra","tags":"shop:supermarket","lat":-23.5575585,"lng":-46.6456233},{"id":"3722289717","name":"Cantina C...Que Sabe!","tags":"addr:housenumber:192,addr:postcode:01326-010,addr:street:Rua Rui Barbosa,amenity:restaurant,website:http://www.cquesabe.com.br","lat":-23.5571061,"lng":-46.645685},{"id":"3722289718","name":"Caixa Econômica Federal","tags":"amenity:bank,atm:yes,brand:Caixa Econômica Federal,brand:wikidata:Q835283,brand:wikipedia:pt:Caixa Econômica Federal","lat":-23.5568258,"lng":-46.6452907},{"id":"3722289719","name":"Santander","tags":"amenity:bank,atm:yes,brand:Santander,brand:wikidata:Q5835668,brand:wikipedia:en:Santander Bank","lat":-23.5569828,"lng":-46.6452672},{"id":"3722289721","name":"Itaú","tags":"amenity:bank,atm:yes","lat":-23.5579101,"lng":-46.645178},{"id":"3722289722","name":"Bradesco","tags":"amenity:bank,atm:yes,brand:Bradesco,brand:wikidata:Q806181,brand:wikipedia:en:Banco Bradesco","lat":-23.5587116,"lng":-46.6450949},{"id":"3722298679","name":"Gigetto","tags":"amenity:restaurant","lat":-23.5592248,"lng":-46.6465156},{"id":"3722298685","name":"Cantina Roperto","tags":"addr:housenumber:2101,addr:street:Rua Treze de Maio,amenity:restaurant,opening_hours:Mo-Su 09:00-22:00,website:http://www.cantinaroperto.com.br/,wikidata:Q42409327","lat":-23.5588093,"lng":-46.646529},{"id":"3722298686","name":"Mexilhão","tags":"addr:housenumber:626,addr:street:Rua Treze de Maio,amenity:restaurant,website:http://www.restaurantemexilhao.com.br/","lat":-23.558738,"lng":-46.6465531},{"id":"3722298688","name":"Lazarella","tags":"addr:housenumber:589,addr:street:Rua Treze de Maio,amenity:restaurant,opening_hours:Mo-Su 00:00-23:30,website:https://www.lazzarella.com.br/","lat":-23.5582883,"lng":-46.6463456},{"id":"3722298689","name":"Conchetta","tags":"amenity:restaurant","lat":-23.5580927,"lng":-46.6466012},{"id":"3722298690","name":"Cantina L'italiano","tags":"amenity:restaurant","lat":-23.5568553,"lng":-46.6467266},{"id":"3722302633","name":"Templo da Carne Marcos Bassi","tags":"amenity:restaurant","lat":-23.5590083,"lng":-46.6466551},{"id":"3755214617","name":"Carrefour Express","tags":"addr:city:São Paulo,addr:housenumber:33,addr:postcode:04011-030,addr:street:Rua Eça de Queiroz,brand:Carrefour Express,brand:wikidata:Q2940190,brand:wikipedia:fr:Carrefour Express,shop:convenience","lat":-23.5783744,"lng":-46.6413053},{"id":"3755216504","name":"Escola Mundial de Línguas","tags":"amenity:school","lat":-23.5796678,"lng":-46.6450433},{"id":"3756403711","name":"Correios","tags":"amenity:post_office,brand:Correios,brand:wikidata:Q3375004,brand:wikipedia:en:Correios","lat":-23.5777012,"lng":-46.641087},{"id":"3756623656","name":"Fran's Café","tags":"addr:city:São Paulo,addr:country:BR,addr:housenumber:358,addr:postcode:01310-000,addr:state:São Paulo,addr:street:Avenida Paulista,amenity:cafe,brand:Fran's Café,brand:wikidata:Q62075645,contact:email:franscafe@franscafe.com.br,contact:phone:+55 11 3283-5306,contact:website:http://www.franscafe2.com.br/,cuisine:coffee_shop,takeaway:yes","lat":-23.5688171,"lng":-46.6471224},{"id":"3756710174","name":"Bradesco Prime","tags":"addr:city:São Paulo,addr:housenumber:329,addr:postcode:01311-000,addr:street:Avenida Paulista,amenity:bank,entrance:yes,opening_hours:Mo-Fr 10:00-16:00","lat":-23.5693418,"lng":-46.6471717},{"id":"3759013035","name":"Kopenhagen","tags":"addr:city:São Paulo,addr:housenumber:194,addr:postcode:04010-000,addr:street:Rua Domingos de Morais,amenity:cafe,brand:Kopenhagen,brand:wikidata:Q10314624,brand:wikipedia:pt:Kopenhagen,shop:chocolate,wheelchair:yes","lat":-23.578957,"lng":-46.6409809},{"id":"3759015390","name":"Bela Santos","tags":"amenity:restaurant","lat":-23.5572882,"lng":-46.6629785},{"id":"3759015391","name":"Delícias do Café","tags":"amenity:cafe","lat":-23.557837,"lng":-46.6633077},{"id":"3759016393","name":"Correios","tags":"addr:city:São Paulo,addr:country:BR,addr:housenumber:566,addr:postcode:01414-000,addr:state:São Paulo,addr:street:Rua Haddock Lobo,amenity:post_office,brand:Correios,brand:wikidata:Q3375004,brand:wikipedia:en:Correios,contact:phone:+55 11 3088-1610,operator:Correios,operator:wikidata:Q3375004","lat":-23.5577563,"lng":-46.6616337},{"id":"3759018563","name":"Santa Cevada","tags":"amenity:bar","lat":-23.5739568,"lng":-46.6419944},{"id":"3760651108","name":"Quartiere della Pasta","tags":"amenity:restaurant,cuisine:italian","lat":-23.5783228,"lng":-46.6427218},{"id":"3760663773","name":"Lig Lig","tags":"amenity:restaurant,cuisine:chinese","lat":-23.577939,"lng":-46.642715},{"id":"3771306822","tags":"addr:city:São Paulo,addr:housenumber:3147,addr:postcode:01407-000,addr:street:Avenida Nove de Julho,amenity:restaurant","lat":-23.5673758,"lng":-46.6590783},{"id":"3806631700","name":"Santander","tags":"addr:city:São Paulo,addr:street:Rua Vergueiro,amenity:bank,brand:Santander,brand:wikidata:Q5835668,brand:wikipedia:en:Santander Bank","lat":-23.5882073,"lng":-46.6324227},{"id":"3809313821","name":"36º DP","tags":"amenity:police","lat":-23.5791807,"lng":-46.650861},{"id":"3824962653","name":"Shell Select","tags":"brand:Shell Select,brand:wikidata:Q154950,brand:wikipedia:en:Royal Dutch Shell,shop:convenience","lat":-23.5599638,"lng":-46.6293128},{"id":"3826482075","tags":"shop:convenience","lat":-23.5833148,"lng":-46.6273769},{"id":"3841730580","name":"Borges Café","tags":"addr:city:São Paulo,addr:housenumber:1132,addr:postcode:04038-002,addr:street:Rua Borges Lagoa,amenity:cafe,internet_access:no,phone:+55 11 2893-7703,smoking:outside","lat":-23.5965494,"lng":-46.6477333},{"id":"3841741622","name":"Bradesco","tags":"addr:city:São Paulo,addr:street:Rua Borges Lagoa,amenity:bank,atm:yes,brand:Bradesco,brand:wikidata:Q806181,brand:wikipedia:en:Banco Bradesco,drive_through:no,operator:Bradesco,website:https://banco.bradesco/","lat":-23.5964056,"lng":-46.6474906},{"id":"3861635857","name":"BicBanco","tags":"amenity:bank","lat":-23.5791707,"lng":-46.6618508},{"id":"3876513819","name":"Minuto Pão de Açúcar","tags":"addr:city:São Paulo,addr:housenumber:1635,addr:street:Rua Peixoto Gomide,opening_hours:Mo-Sa 07:00-22:00, Su 08:00-20:00,shop:supermarket","lat":-23.5662183,"lng":-46.6623704},{"id":"3886191657","name":"Luk Restaurante","tags":"addr:city:São Paulo,addr:housenumber:953,addr:postcode:01307-003,addr:street:Rua Frei Caneca,amenity:restaurant,cuisine:regional,drive_in:no,organic:no,outdoor_seating:no,smoking:no","lat":-23.5554257,"lng":-46.6558957},{"id":"3890509457","name":"Itaú","tags":"addr:city:São Paulo,addr:postcode:01310-100,addr:street:Avenida Paulista,amenity:bank,atm:yes,brand:Itaú Unibanco,brand:wikidata:Q1424293,brand:wikipedia:pt:Itaú Unibanco,drive_through:no,operator:Itaú Unibanco","lat":-23.5639675,"lng":-46.6530132},{"id":"3890670757","name":"Minuto Pão de Açúcar","tags":"addr:city:São Paulo,addr:street:Alameda Santos,payment:cash:yes,payment:coins:yes,payment:credit_cards:yes,payment:debit_cards:yes,payment:notes:yes,shop:supermarket","lat":-23.5688642,"lng":-46.6496852},{"id":"3891577383","name":"Duque Conveniência","tags":"opening_hours:24/7,operator:Rede Duque,shop:convenience","lat":-23.5663715,"lng":-46.6629069},{"id":"3939977873","name":"Coffe Corner","tags":"addr:city:São Paulo,addr:housenumber:2597,addr:postcode:01416-001,addr:street:Rua da Consolação,amenity:restaurant","lat":-23.5565657,"lng":-46.6638449},{"id":"3942012603","name":"Sol Café","tags":"addr:city:São Paulo,addr:housenumber:5,addr:street:Rua Galvão Bueno,amenity:cafe,cuisine:coffee_shop,opening_hours:Mo-Sa 07:30-19:30; Su 08:00-19:00; PH 09:00-18:00","lat":-23.5556416,"lng":-46.6351825},{"id":"4011501023","name":"Restaurante Gerações","tags":"addr:city:São Paulo,addr:housenumber:516,addr:postcode:01315-010,addr:street:Rua Jaceguai,addr:suburb:Bixiga,amenity:restaurant,cuisine:regional,level:0,phone:+55 11 3107-5643,smoking:no,takeaway:no","lat":-23.5552154,"lng":-46.6410839},{"id":"4015903448","tags":"amenity:car_wash","lat":-23.5598274,"lng":-46.6292651},{"id":"4015903452","tags":"amenity:car_wash","lat":-23.5832433,"lng":-46.6273654},{"id":"4024140666","name":"Itaú","tags":"addr:city:São Paulo,addr:housenumber:30,addr:postcode:01405-100,addr:street:Rua Pamplona,amenity:bank,brand:Itaú Unibanco,brand:wikidata:Q1424293,brand:wikipedia:pt:Itaú Unibanco","lat":-23.5589755,"lng":-46.6517619},{"id":"4024140670","name":"Manteigaria Lisboa","tags":"addr:city:São Paulo,addr:housenumber:674,addr:postcode:01405-001,addr:street:Rua Pamplona,amenity:cafe,cuisine:portuguese,email:contato@manteigarialisboa.com,internet_access:wlan,name:en:Manteigaria,phone:+55 11 3032-2229","lat":-23.5640284,"lng":-46.6541854},{"id":"4024140673","name":"Camelo","tags":"addr:city:São Paulo,addr:housenumber:1877,addr:postcode:01405-003,addr:street:Rua Pamplona,amenity:restaurant","lat":-23.5722653,"lng":-46.6619163},{"id":"4077530089","name":"AC São Joaquim","tags":"amenity:post_office,operator:Correios","lat":-23.5659595,"lng":-46.6393245},{"id":"4103934091","name":"Hirota Food Express","tags":"disused:amenity:fast_food,old_brand:Subway,old_name:Subway,shop:supermarket","lat":-23.5550841,"lng":-46.6359748},{"id":"4128352039","name":"Bradesco","tags":"addr:city:São Paulo,addr:housenumber:2026,addr:postcode:01310-200,addr:street:Avenida Paulista,amenity:bank,brand:Bradesco,brand:wikidata:Q806181,brand:wikipedia:en:Banco Bradesco,opening_hours:Mo-Fr 10:00-16:00","lat":-23.5587195,"lng":-46.6591941},{"id":"4128352209","name":"Rei do Mate","tags":"addr:city:São Paulo,addr:country:BR,addr:housenumber:1997,addr:postcode:01311-300,addr:state:São Paulo,addr:street:Avenida Paulista,amenity:cafe,brand:Rei do Mate,brand:wikidata:Q7309875,contact:phone:+55 11 3289-7878,contact:website:http://www.reidomate.com.br/loja_interna.php?id=114,cuisine:tea,takeaway:yes","lat":-23.5592874,"lng":-46.6592197},{"id":"4128365592","name":"Starbucks","tags":"addr:city:São Paulo,addr:housenumber:2006,addr:postcode:01310-200,addr:street:Avenida Paulista,amenity:cafe,brand:Starbucks,brand:wikidata:Q37158,brand:wikipedia:en:Starbucks,cuisine:coffee_shop,official_name:Starbucks Coffee,takeaway:yes","lat":-23.5588018,"lng":-46.6591008},{"id":"4128370691","name":"Banco do Brasil Estilo","tags":"addr:city:São Paulo,addr:housenumber:2278,addr:postcode:01310-300,addr:street:Avenida Paulista,amenity:bank","lat":-23.5570182,"lng":-46.6610016},{"id":"4128370693","name":"Estapar","tags":"addr:city:São Paulo,addr:postcode:01310-200,addr:street:Avenida Paulista,amenity:parking,fee:yes,layer:-1,parking:underground,supervised:yes,surface:paved","lat":-23.5573765,"lng":-46.6607168},{"id":"4128372409","name":"Posto Policial","tags":"addr:housenumber:2163,addr:street:Avenida Paulista,amenity:police","lat":-23.5582013,"lng":-46.6604179},{"id":"4128376190","name":"America","tags":"addr:city:São Paulo,addr:country:BR,addr:housenumber:2295,addr:postcode:01311-300,addr:state:São Paulo,addr:street:Avenida Paulista,amenity:restaurant,contact:phone:+55 11 3067-4424,contact:website:https://www.restauranteamerica.com.br/","lat":-23.5572686,"lng":-46.661524},{"id":"4128411489","name":"Banco de la Nacion Argentina","tags":"addr:city:São Paulo,addr:housenumber:2319,addr:postcode:01311-300,addr:street:Avenida Paulista,amenity:bank,brand:Banco de la Nacion Argentina,brand:wikidata:Q2883376,brand:wikipedia:en:Banco de la Nación Argentina,opening_hours:Mo-Fr 10:00-16:00","lat":-23.5570811,"lng":-46.6617381},{"id":"4128411689","name":"Faculdade Mundial","tags":"addr:city:São Paulo,addr:housenumber:2198,addr:postcode:01310-300,addr:street:Avenida Paulista,amenity:university,phone:+55 11 3266-5944,website:www.faculdademundial.edu.br","lat":-23.5576702,"lng":-46.6603799},{"id":"4128424588","name":"Shopping Market Paulista","tags":"addr:city:São Paulo,addr:housenumber:1941,addr:postcode:01311-300,addr:street:Avenida Paulista,shop:mall","lat":-23.5595845,"lng":-46.658988},{"id":"4128587056","name":"Citibank","tags":"addr:city:São Paulo,addr:housenumber:1111,addr:postcode:01311-920,addr:street:Avenida Paulista,amenity:bank,atm:yes,brand:Citibank,brand:wikidata:Q857063,brand:wikipedia:en:Citibank,contact:website:https://www.citibank.com.br,opening_hours:Mo-Fr 10:00-16:00,phone:+55 11 4009-2536,short_name:Citi","lat":-23.56468,"lng":-46.6532144},{"id":"4128625593","name":"Banco Itaú Personalite","tags":"addr:city:São Paulo,addr:housenumber:1000A,addr:postcode:01310-100,addr:street:Avenida Paulista,amenity:bank","lat":-23.5647754,"lng":-46.6518832},{"id":"4128749472","tags":"addr:street:Avenida Paulista,amenity:parking,layer:-1,parking:underground","lat":-23.5707961,"lng":-46.6444356},{"id":"4128777763","name":"Bradesco Prime","tags":"addr:city:São Paulo,addr:housenumber:778,addr:postcode:01310-100,addr:street:Avenida Paulista,amenity:bank,entrance:yes,opening_hours:Mo-Fr 10:00-16:00","lat":-23.5663282,"lng":-46.6502612},{"id":"4128788904","name":"Droga Raia","tags":"addr:city:São Paulo,addr:housenumber:809,addr:postcode:01311-100,addr:street:Avenida Paulista,amenity:pharmacy,brand:Droga Raia,brand:wikidata:Q10357101,brand:wikipedia:pt:RaiaDrogasil,healthcare:pharmacy,opening_hours:Mo-Su 07:00-23:00,phone:+55 11 3171-0248,website:https://www.drogaraia.com.br","lat":-23.5664017,"lng":-46.6508148},{"id":"4128789603","name":"Bovinu's Fast Grill","tags":"addr:city:São Paulo,addr:housenumber:735A,addr:postcode:01311-100,addr:street:Avenida Paulista,amenity:restaurant,cuisine:brazilian,opening_hours:Mo-Fr 11:00-16:00; Sa-Su 11:30-16:00,phone:+55 11 3284-7756","lat":-23.5670011,"lng":-46.650147},{"id":"4128789891","name":"Estacione Amira Park","tags":"addr:city:São Paulo,addr:housenumber:776,addr:postcode:01310-100,addr:street:Avenida Paulista,amenity:parking,fee:yes,supervised:yes,surface:paved","lat":-23.5664052,"lng":-46.6501673},{"id":"4128789896","name":"Drogaria São Paulo","tags":"addr:city:São Paulo,addr:country:BR,addr:housenumber:2215,addr:postcode:01317-002,addr:state:São Paulo,addr:street:Avenida Brigadeiro Luís Antônio,amenity:pharmacy,brand:Drogaria São Paulo,brand:wikidata:Q5308184,brand:wikipedia:en:Grupo DPSP,contact:phone:+55 11 3287-0568;+55 11 3285-0741,contact:website:http://www.drogariasaopaulo.com.br/,healthcare:pharmacy,opening_hours:24/7","lat":-23.5672936,"lng":-46.6486957},{"id":"4128823607","name":"Banco do Brasil","tags":"addr:city:São Paulo,addr:housenumber:552,addr:postcode:01310-000,addr:street:Avenida Paulista,amenity:bank,brand:Banco do Brasil,brand:wikidata:Q610817,brand:wikipedia:en:Banco do Brasil,opening_hours:Mo-Fr 10:00-16:00","lat":-23.5676474,"lng":-46.6485783},{"id":"4128823612","name":"Americanas Express","tags":"addr:city:São Paulo,addr:housenumber:332,addr:postcode:01310-000,addr:street:Avenida Paulista,shop:convenience","lat":-23.5689628,"lng":-46.6469304},{"id":"4131789673","name":"AMMA","tags":"addr:city:São Paulo,addr:housenumber:1052,addr:postcode:01410-002,addr:street:Alameda Ministro Rocha Azevedo,amenity:cafe,cuisine:chocolate_+_coffee,internet_access:no","lat":-23.5658198,"lng":-46.664124},{"id":"4131790415","name":"Pão de Açúcar","tags":"addr:city:São Paulo,addr:housenumber:1136,addr:postcode:01410-002,addr:street:Alameda Ministro Rocha Azevedo,brand:Pão de Açúcar,brand:wikidata:Q3411543,brand:wikipedia:pt:Pão de Açúcar (supermercado brasileiro),entrance:yes,opening_hours:Mo-Sa 07:00-00:00; Su 07:00-23:00,phone:+55 11 3088-6868,shop:supermarket,website:http://www.paodeacucar.com.br,wheelchair:yes","lat":-23.5664652,"lng":-46.6647345},{"id":"4133625389","name":"Salmon & Co.","tags":"addr:city:São Paulo,addr:housenumber:1199,addr:postcode:01420-005,addr:street:Alameda Jaú,amenity:restaurant,internet_access:wlan,opening_hours:Mo-Fr 12:00-15:00, 18:00-22:30; Sa-Su 12:00-17:00,phone:+55 11 3085-1419,website:salmoncompany.com.br","lat":-23.5622522,"lng":-46.6595633},{"id":"4134768091","name":"D.O.M.","tags":"addr:city:São Paulo,addr:housenumber:549,addr:postcode:01411-011,addr:street:Rua Barão de Capanema,amenity:restaurant","lat":-23.5662205,"lng":-46.6674763},{"id":"4134768092","name":"Alumni - Cursos de inglês","tags":"amenity:school,training:language","lat":-23.5613957,"lng":-46.6612792},{"id":"4138893291","name":"Restaurante Yamaga","tags":"addr:housenumber:66,addr:street:Rua Tomás Gonzaga,amenity:restaurant","lat":-23.5578473,"lng":-46.6357825},{"id":"4139871552","name":"Drogaria São Paulo","tags":"addr:city:São Paulo,addr:housenumber:1766,addr:postcode:01310-200,addr:street:Avenida Paulista,amenity:pharmacy,brand:Drogaria São Paulo,brand:wikidata:Q5308184,brand:wikipedia:en:Grupo DPSP,healthcare:pharmacy","lat":-23.5603851,"lng":-46.6573121},{"id":"4150312892","name":"Santander","tags":"addr:street:Rua Afonso Brás,amenity:bank","lat":-23.5955503,"lng":-46.6685117},{"id":"4150312895","name":"Pão de Açúcar","tags":"addr:city:São Paulo,addr:housenumber:480,addr:postcode:04511-011,addr:street:Rua Afonso Braz,addr:suburb:Moema,brand:Pão de Açúcar,brand:wikidata:Q3411543,brand:wikipedia:pt:Pão de Açúcar (supermercado brasileiro),opening_hours:Mo-Su 08:00-22:00,opening_hours:covid19:open,shop:supermarket","lat":-23.5952938,"lng":-46.6685049},{"id":"4150333090","name":"Dia Market","tags":"addr:city:São Paulo,addr:housenumber:578,addr:postcode:04511-001,addr:street:Rua Afonso Brás,addr:suburb:Moema,brand:Dia Market,brand:wikidata:Q925132,brand:wikipedia:es:Supermercados DIA,opening_hours:covid19:open,shop:supermarket","lat":-23.5951663,"lng":-46.6692723},{"id":"4158577061","tags":"access:private,addr:city:São Paulo,addr:housenumber:343,addr:postcode:05401-000,addr:street:Avenida Rebouças,amenity:parking,height:3.077,layer:-1,parking:underground","lat":-23.5571709,"lng":-46.665945},{"id":"4223880350","name":"World Wine","tags":"addr:city:São Paulo,addr:housenumber:1269,addr:postcode:01411-001,addr:street:Rua Padre João Manuel,amenity:restaurant","lat":-23.5673667,"lng":-46.6677687},{"id":"4223880351","name":"Cuca Legal","tags":"addr:city:São Paulo,addr:housenumber:1268,addr:postcode:01411-000,addr:street:Rua Padre João Manuel,amenity:restaurant","lat":-23.5672421,"lng":-46.6679402},{"id":"4223880360","name":"Cebola Brava","tags":"addr:city:São Paulo,addr:housenumber:708,addr:postcode:01411-000,addr:street:Rua Padre João Manuel,amenity:restaurant,cuisine:regional","lat":-23.5636038,"lng":-46.6641535},{"id":"4228423328","tags":"addr:city:São Paulo,addr:housenumber:2907,addr:postcode:01416-001,addr:street:Rua da Consolação,amenity:parking,capacity:35,fee:yes,supervised:yes","lat":-23.5585518,"lng":-46.6659186},{"id":"4240281940","name":"Bar e Lanches Chibana","tags":"addr:city:São Paulo,addr:housenumber:252,addr:postcode:01510-000,addr:street:Rua da Glória,amenity:bar,name:pt:Bar e Lanches Chibana","lat":-23.5554635,"lng":-46.6343283},{"id":"4260989190","name":"Gopala Hari","tags":"addr:city:São Paulo,addr:housenumber:429,addr:postcode:01309-011,addr:street:Rua Antônio Carlos,amenity:restaurant,cuisine:indian,opening_hours:Mo-Sa 11:00-15:00,phone:+55 11 3283-1292,website:http://www.gopalahari.com.br","lat":-23.5559475,"lng":-46.6587636},{"id":"4266463544","name":"Rancho da Traira","tags":"addr:housenumber:556,addr:street:Rua Machado de Assis,amenity:restaurant,building:yes","lat":-23.5799367,"lng":-46.6328556},{"id":"4346624758","name":"Drogaria São Paulo","tags":"addr:city:São Paulo,addr:housenumber:2460,addr:postcode:01402-000,addr:street:Avenida Brigadeiro Luís Antônio,addr:suburb:Jardim Paulista,amenity:pharmacy,brand:Drogaria São Paulo,brand:wikidata:Q5308184,brand:wikipedia:en:Grupo DPSP,dispensing:yes,drive_through:no,healthcare:pharmacy,payment:cash:yes,payment:coins:yes,payment:credit_cards:yes,payment:debit_cards:yes,payment:notes:yes","lat":-23.5689287,"lng":-46.6503116},{"id":"4349925391","name":"La Quottidiana Trattoria","tags":"addr:city:Sao Paulo,addr:housenumber:710,addr:postcode:04515-001,addr:street:Dr. Jesuíno Maciel,amenity:restaurant,phone:+55 11 5093-0773,toilets:wheelchair:yes,wheelchair:yes","lat":-23.5964478,"lng":-46.6684388},{"id":"4351636645","name":"Escola Estadual Caetano de Campos","tags":"addr:housenumber:99,addr:street:Rua Pires da Mota,amenity:school,phone:+55 11 3259-5206,website:www.caetanodecampos.com","lat":-23.5652553,"lng":-46.6303198},{"id":"4351865932","tags":"amenity:atm","lat":-23.5658285,"lng":-46.6325387},{"id":"4357866706","name":"Fnac","tags":"brand:Fnac,brand:wikidata:Q676585,brand:wikipedia:en:Fnac,shop:books","lat":-23.5664922,"lng":-46.6520917},{"id":"4366660090","name":"Tatu Bola","tags":"addr:city:São Paulo,addr:housenumber:3008,addr:postcode:01412-100,addr:street:Rua Augusta,amenity:restaurant,contact:facebook:https://de-de.facebook.com/tatubolabar/,name:pt:Tatu Bola,website:http://www.tatubolabar.com.br/","lat":-23.5664426,"lng":-46.669017},{"id":"4367701911","name":"Z Deli Sandwich Shop","tags":"addr:city:São Paulo,addr:housenumber:1386,addr:postcode:01414-002,addr:street:Rua Haddock Lobo,amenity:restaurant,name:pt:Z Deli Sandwich Shop,opening_hours:Mo-Su 12:00-00:00","lat":-23.5630497,"lng":-46.6671569},{"id":"4367701912","name":"Empório Frutaria","tags":"addr:housenumber:198,addr:street:Avenida Hélio Pellegrino,amenity:restaurant,name:pt:Empório Frutaria,opening_hours:Mo-Su 10:00-24:00","lat":-23.5972615,"lng":-46.6680171},{"id":"4367781589","name":"MYK","tags":"addr:housenumber:1972,addr:street:Rua Peixoto Gomide,amenity:restaurant,name:pt:MYK","lat":-23.5681553,"lng":-46.6648782},{"id":"4367781689","name":"Frutaria São Paulo","tags":"addr:housenumber:187,addr:street:Rua Oscar Freire,amenity:restaurant,name:pt:Frutaria São Paulo,opening_hours:Mo-Su 10:00-01:00","lat":-23.5675427,"lng":-46.6640947},{"id":"4379228098","name":"Yoi rolls & temaki","tags":"addr:housenumber:369,addr:street:Rua Afonso Brás,amenity:restaurant,name:pt:Yoi rolls & temaki","lat":-23.5956811,"lng":-46.6674068},{"id":"4380779711","name":"Correios","tags":"addr:housenumber:193,addr:street:Avenida da Aclimação,alt_name:Correios AGF Aclimação,amenity:post_office,brand:Correios,brand:wikidata:Q3375004,brand:wikipedia:en:Correios,opening_hours:Mo-Fr 09:00-17:00,operator:Correios,phone:+55 11 3297-5516,website:http://m.correios.com.br/movel/buscaAgencia.do?metodo=buscarAgencia&idAgencia=++++00424461","lat":-23.5708932,"lng":-46.6311176},{"id":"4380795361","name":"Extra Supermercado","tags":"addr:housenumber:1440,addr:street:Rua Conselheiro Furtado,opening_hours:Mo-Sa 07:00-22:00; Su 08:00-21:00,phone:+55 11 3209-5267,shop:supermarket,website:extra.com.br","lat":-23.5658234,"lng":-46.6325407},{"id":"4380797323","name":"Estacionamento supermercado","tags":"addr:housenumber:1440,addr:street:Conselheiro Furtado,amenity:parking,parking:surface","lat":-23.5656595,"lng":-46.6326923},{"id":"4383969732","name":"Caixa Econômica Federal","tags":"addr:housenumber:94,addr:street:Avenida da Aclimação,amenity:bank,opening_hours:Mo-Fr 10:00-16:00,phone:+55 11 3475-7900,website:caixa.gov.br","lat":-23.56777,"lng":-46.6336857},{"id":"4383984432","name":"Academia Top Swim","tags":"addr:housenumber:558,addr:street:Rua Pires da Mota,leisure:fitness_centre,phone:+55 11 3277-3033,website:https://topswim.com.br/","lat":-23.5670586,"lng":-46.6340617},{"id":"4388760583","name":"Carrefour Express","tags":"addr:city:São Paulo,addr:housenumber:1035,addr:postcode:01317-001,addr:street:Avenida Brigadeiro Luís Antônio,brand:Carrefour Express,brand:wikidata:Q2940190,brand:wikipedia:fr:Carrefour Express,shop:convenience","lat":-23.5587565,"lng":-46.6417893},{"id":"4392912037","name":"Feijão de Corda","tags":"addr:city:São Paulo,addr:housenumber:428,addr:postcode:01315-010,addr:street:Rua Jaceguai,addr:suburb:Bixiga,amenity:restaurant,cuisine:regional,opening_hours:Mo-Su 11:00-23:00,phone:+55 11 3105-8463,smoking:no,website:https://www.facebook.com/feijaodecordacentro/","lat":-23.5552879,"lng":-46.6403238},{"id":"4398192522","name":"Empório Azuki","tags":"addr:city:São Paulo,addr:housenumber:16,addr:postcode:01506-000,addr:street:Rua Galvão Bueno,addr:suburb:Liberdade,opening_hours:Mo-Su 08:00-19:00,shop:convenience,website:http://www.azukiya.com.br/","lat":-23.5556877,"lng":-46.6353365},{"id":"4398192523","name":"Sushi Lika","tags":"addr:housenumber:152A,addr:street:Rua dos Estudantes,amenity:restaurant,cuisine:japanese","lat":-23.5555862,"lng":-46.6337082},{"id":"4398192524","name":"Lamen Kazu","tags":"addr:city:São Paulo,addr:housenumber:51,addr:postcode:01506-020,addr:street:Rua Tomás Gonzaga,addr:suburb:Liberdade,amenity:restaurant,cuisine:ramen,opening_hours:Mo-Sa 11:00-15:00,18:00-22:30; Su,PH 11:00-15:00,18:00-21:00,phone:+55 11 3277-4286,website:http://lamenkazu.com.br/","lat":-23.55768,"lng":-46.635899},{"id":"4398192525","name":"Izakaya Kazu","tags":"addr:housenumber:84,addr:postcode:01506-020,addr:street:Rua Tomás Gonzaga,addr:suburb:Liberdade,amenity:restaurant,cuisine:japanese,opening_hours:Tu-Sa 11:00-15:00,18:00-22:30; Su 11:00-15:00,18:00-21:00,website:http://www.espacokazu.com.br/izakaya/","lat":-23.5578539,"lng":-46.6355684},{"id":"4398192526","name":"Meu Udon","tags":"addr:housenumber:90,addr:postcode:01506-020,addr:street:Rua Tomás Gonzaga,addr:suburb:Liberdade,amenity:restaurant,cuisine:udon,opening_hours:Tu-Sa 11:00-15:00,18:00-22:30; Su 11:00-15:00,18:00-21:00","lat":-23.5578544,"lng":-46.6355054},{"id":"4425607793","name":"luncheonette","tags":"amenity:restaurant,name:pt:luncheonette","lat":-23.5574416,"lng":-46.6442371},{"id":"4428074723","name":"Resilience","tags":"addr:housenumber:119,addr:street:Rocha Pombo,leisure:fitness_centre","lat":-23.5639293,"lng":-46.6334479},{"id":"4428077221","name":"Multibar","tags":"amenity:restaurant","lat":-23.5636925,"lng":-46.6326856},{"id":"4431384432","name":"Bradesco","tags":"amenity:bank,brand:Bradesco,brand:wikidata:Q806181,brand:wikipedia:en:Banco Bradesco,website:https://banco.bradesco/","lat":-23.5650536,"lng":-46.6323673},{"id":"4431384497","name":"Clube de Golfe Aclimação","tags":"addr:housenumber:1360,addr:street:Conselheiro Furtado,leisure:sports_centre","lat":-23.5651015,"lng":-46.6325953},{"id":"4436454011","name":"Santander","tags":"addr:street:Rua Muniz de Souza,amenity:bank,atm:yes,brand:Santander,brand:wikidata:Q5835668,brand:wikipedia:en:Santander Bank","lat":-23.5732101,"lng":-46.6310398},{"id":"4436454017","name":"Banco do Brasil","tags":"amenity:bank,brand:Banco do Brasil,brand:wikidata:Q610817,brand:wikipedia:en:Banco do Brasil","lat":-23.5723298,"lng":-46.6327901},{"id":"4436454055","name":"Itaú","tags":"amenity:bank","lat":-23.5720995,"lng":-46.6329158},{"id":"4436454056","tags":"amenity:restaurant","lat":-23.5722943,"lng":-46.6333135},{"id":"4436454057","tags":"amenity:restaurant","lat":-23.5698722,"lng":-46.6324167},{"id":"4436454058","tags":"amenity:restaurant","lat":-23.5691192,"lng":-46.6324787},{"id":"4436454099","name":"Caixa Econômica Federal","tags":"addr:street:Avenida da Aclimação,amenity:bank,brand:Caixa Econômica Federal,brand:wikidata:Q835283,brand:wikipedia:pt:Caixa Econômica Federal","lat":-23.5729356,"lng":-46.6322917},{"id":"4436454131","name":"Bradesco","tags":"amenity:bank,brand:Bradesco,brand:wikidata:Q806181,brand:wikipedia:en:Banco Bradesco","lat":-23.5724029,"lng":-46.6333146},{"id":"4436454132","name":"Bradesco Prime","tags":"amenity:bank","lat":-23.5724956,"lng":-46.6332209},{"id":"4436455240","tags":"amenity:restaurant","lat":-23.5722138,"lng":-46.6333544},{"id":"4436455269","tags":"amenity:restaurant","lat":-23.5689663,"lng":-46.6325955},{"id":"4436455270","name":"Laço de Ouro","tags":"amenity:restaurant","lat":-23.5670412,"lng":-46.6334863},{"id":"4436455700","name":"Restaurante Flor & Sabor","tags":"addr:street:Avenida da Aclimação,amenity:restaurant,cuisine:regional","lat":-23.5735676,"lng":-46.6314799},{"id":"4436455757","tags":"amenity:pharmacy,healthcare:pharmacy","lat":-23.5689154,"lng":-46.6330757},{"id":"4436455841","tags":"addr:street:Avenida da Aclimação,amenity:pharmacy,dispensing:yes,healthcare:pharmacy","lat":-23.5654343,"lng":-46.6279556},{"id":"4436455844","name":"Drogasil","tags":"addr:city:São Paulo,addr:housenumber:707,addr:postcode:19015-150,addr:street:Avenida da Aclimação,addr:suburb:Aclimação,amenity:pharmacy,brand:Drogasil,brand:wikidata:Q5308185,brand:wikipedia:pt:Drogasil,dispensing:yes,healthcare:pharmacy,wheelchair:yes","lat":-23.5724359,"lng":-46.6327506},{"id":"4436456921","tags":"leisure:fitness_centre","lat":-23.5695355,"lng":-46.6321418},{"id":"4442480217","tags":"shop:supermarket","lat":-23.5618947,"lng":-46.6325779},{"id":"4442483033","name":"Colégio Nova Geração","tags":"amenity:school","lat":-23.5662244,"lng":-46.6328639},{"id":"4453413625","name":"Udon Nakamura","tags":"amenity:restaurant","lat":-23.5583299,"lng":-46.6330561},{"id":"4472017893","name":"Pão","tags":"addr:city:São Paulo,addr:housenumber:1618,addr:postcode:01415-004,addr:street:Rua Bela Cintra,amenity:cafe,cuisine:breakfast;coffee_shop,name:en:Pao","lat":-23.5597087,"lng":-46.6654883},{"id":"4512901990","name":"Minuto Pão de Açúcar","tags":"name:pt:Minuto Pão de Açúcar,shop:supermarket","lat":-23.5680801,"lng":-46.6614224},{"id":"4518057075","name":"Caixa Econômica Federal","tags":"addr:city:São Paulo,addr:street:Rua Borges Lagoa,amenity:bank,atm:yes,operator:Caixa Econômica Federal,toilets:wheelchair:yes,wheelchair:yes","lat":-23.5968323,"lng":-46.6480219},{"id":"4518403489","name":"Cabana Burguer","tags":"addr:housenumber:56,addr:postcode:01426-000,addr:street:Rua Oscar Freire,amenity:restaurant,cuisine:burger,internet_access:wlan,opening_hours:Su-Th 12:00-23:00; Fr-Sa 12:00-00:00,phone:+55 11 3061-2905,website:http://cabanaburguer.com.br","lat":-23.5683185,"lng":-46.662926},{"id":"4518426497","name":"Lox deli","tags":"addr:housenumber:403,addr:postcode:01423-010,addr:street:Rua Batataes,amenity:restaurant,cuisine:burger;sandwich;bagel;breakfast;tea;coffee_shop,email:mkt@loxdeli.com.br,internet_access:wlan,opening_hours:Mo-Sa 09:00-23:00,phone:+55 11 3051-6020,website:http://www.loxdeli.com","lat":-23.5704482,"lng":-46.6574171},{"id":"4519404583","name":"Extra","tags":"addr:street:Espírito Santo,brand:Extra,brand:wikidata:Q11964085,brand:wikipedia:no:Extra (Coop),shop:supermarket,website:https://www.extra.com.br/","lat":-23.567838,"lng":-46.6295475},{"id":"4523224390","name":"Maracujá","tags":"addr:housenumber:884,addr:street:Alameda Lorena,amenity:restaurant,cuisine:international,email:contato@restaurantemaracuja.com.br,internet_access:wlan,name:en:Maracuja,opening_hours:Mo-Fr 12:00-15:00; Sa-Su 12:00-16:00,phone:+55 11 3061-0699,website:http://restaurantemaracuja.com.br","lat":-23.5677843,"lng":-46.6613625},{"id":"4525573466","tags":"amenity:restaurant,cuisine:regional","lat":-23.5934008,"lng":-46.6378655},{"id":"4526467790","tags":"amenity:school,name:en:Skill","lat":-23.5807276,"lng":-46.6368141},{"id":"4526494789","tags":"amenity:restaurant,name:en:Esquina da Vila","lat":-23.5806397,"lng":-46.6372554},{"id":"4526531991","tags":"amenity:restaurant,name:en:Duas Rosas","lat":-23.5812425,"lng":-46.6382171},{"id":"4526673893","tags":"amenity:restaurant,name:en:BBQ Premium Chicken","lat":-23.5808981,"lng":-46.638467},{"id":"4527213589","name":"Itaú","tags":"amenity:bank,brand:Itaú Unibanco,brand:wikidata:Q1424293,brand:wikipedia:pt:Itaú Unibanco,name:en:Itaú","lat":-23.584104,"lng":-46.6699077},{"id":"4528875793","name":"Starbucks","tags":"addr:city:São Paulo,addr:housenumber:500A,addr:postcode:01310-000,addr:street:Avenida Paulista,amenity:cafe,brand:Starbucks,brand:wikidata:Q37158,brand:wikipedia:en:Starbucks,cuisine:coffee_shop,official_name:Starbucks Coffee,takeaway:yes","lat":-23.5679649,"lng":-46.6480845},{"id":"4528876498","name":"Attimo","tags":"addr:housenumber:341,addr:street:Rua Diogo Jácome,amenity:restaurant","lat":-23.595162,"lng":-46.6662716},{"id":"4528877492","name":"Tête à Tête Restaurante","tags":"addr:city:São Paulo,addr:housenumber:216,addr:postcode:01417-010,addr:street:Rua Melo Alves,amenity:restaurant,cuisine:regional","lat":-23.55968,"lng":-46.6692005},{"id":"4528895690","name":"Jiquitaia","tags":"addr:city:São Paulo,addr:housenumber:268,addr:postcode:01309-010,addr:street:Rua Antônio Carlos,amenity:restaurant,cuisine:brazilian,opening_hours:Mo 12:00-15:00; Tu-Fr 12:00-15:00, 19:00-23:30; Sa 12:00-17:00, 19:00-23:30,phone:+55 11 3262 2366,website:http://www.jiquitaia.com.br/,wikidata:Q55805827","lat":-23.5567961,"lng":-46.6575305},{"id":"4528907289","tags":"amenity:pharmacy,healthcare:pharmacy,name:en:Onofre","lat":-23.5815724,"lng":-46.6391978},{"id":"4528907391","name":"Starbucks","tags":"addr:city:São Paulo,addr:housenumber:65,addr:postcode:04001-080,addr:street:Rua Manoel da Nóbrega,amenity:cafe,brand:Starbucks,brand:wikidata:Q37158,brand:wikipedia:en:Starbucks,cuisine:coffee_shop,official_name:Starbucks Coffee,takeaway:yes","lat":-23.5681911,"lng":-46.6489224},{"id":"4532565191","tags":"addr:city:São Paulo,addr:housenumber:166,addr:postcode:01309-000,addr:street:Rua Luís Coelho,amenity:cafe,cuisine:coffee_shop,name:en:Soul cafe,opening_hours:Mo-Fr 09:00-19:00,website:https://m.facebook.com/soulcafesp","lat":-23.5567973,"lng":-46.6590336},{"id":"4535431189","name":"Charme da Paulista","tags":"addr:city:São Paulo,addr:housenumber:1499 L1,addr:postcode:01311-200,addr:street:Avenida Paulista,amenity:bar,name:pt:Charme da Paulista,outdoor_seating:yes","lat":-23.5622306,"lng":-46.6558687},{"id":"4544930590","name":"Bovinu's","tags":"addr:housenumber:2393,addr:street:Alameda Santos,amenity:restaurant,cuisine:brazilian,opening_hours:Mo-Su 18:00-23:00,phone:+55 11 3088-6103","lat":-23.5577478,"lng":-46.6627409},{"id":"4544977889","name":"Laco de Ouro II","tags":"addr:housenumber:215,addr:postcode:04008-060,addr:street:Rua Pirapora,amenity:restaurant,cuisine:brazilian,opening_hours:Mo-Sa 11:30-23:30; Su 11:30-23:00,phone:+55 11 3885-4348","lat":-23.5817883,"lng":-46.6519658},{"id":"4546559689","name":"Taicum Sushi Bar","tags":"addr:housenumber:114,addr:postcode:04008-060,addr:street:Rua Pirapora,amenity:restaurant,cuisine:sushi,opening_hours:Mo-Sa 12:00-00:00,phone:+55 11 3887-7819","lat":-23.581166,"lng":-46.6513036},{"id":"4548016093","name":"laranjinha","tags":"amenity:restaurant,wheelchair:no","lat":-23.5667888,"lng":-46.6495262},{"id":"4560173391","name":"Droga Raia","tags":"addr:country:BR,addr:housenumber:1327,addr:postcode:01410-003,addr:state:SP,addr:street:Alameda Ministro Rocha Azevedo,amenity:pharmacy,brand:Droga Raia,brand:wikidata:Q10357101,brand:wikipedia:pt:RaiaDrogasil,contact:phone:+55 11 3085-2313,contact:website:http://www.drogaraia.com.br/,healthcare:pharmacy,opening_hours:Mo-Su 07:00-23:00","lat":-23.5677744,"lng":-46.6657416},{"id":"4560230693","name":"Onofre Mega Store","tags":"addr:housenumber:278,addr:street:Rua Oscar Freire,amenity:pharmacy,healthcare:pharmacy","lat":-23.5667354,"lng":-46.6647342},{"id":"4560287990","name":"Beach Burger","tags":"addr:city:São Paulo,addr:housenumber:1420,addr:postcode:01424-004,addr:street:Alameda Lorena,amenity:restaurant,cuisine:burger,opening_hours:Mo 12:00-16:00; Tu-We 12:00-16:00, 19:00-23:00; Th 12:00-16:00, 19:00-00:00; Fr-Sa 12:00-00:00; Su 12:00-23:00,phone:+55 11 2628-7511,website:http://beachburger.com.br","lat":-23.5644815,"lng":-46.6651166},{"id":"4560440189","name":"Luz da Villa","tags":"addr:housenumber:422,addr:street:Rua Áurea,amenity:cafe,cuisine:cake;coffee_shop;pasta;brazilian,internet_access:wlan,website:http://luzdavilla.com.br","lat":-23.5880026,"lng":-46.6452266},{"id":"4561913699","tags":"addr:city:São Paulo,addr:housenumber:950,addr:postcode:01318-001,addr:street:Avenida Brigadeiro Luís Antônio,amenity:parking,surface:paved","lat":-23.558002,"lng":-46.6414228},{"id":"4561913712","tags":"addr:city:São Paulo,addr:housenumber:480,addr:street:Rua Humaitá,amenity:school","lat":-23.5571786,"lng":-46.6420751},{"id":"4561913713","tags":"addr:city:São Paulo,addr:housenumber:536,addr:street:Rua Humaitá,amenity:school","lat":-23.5566827,"lng":-46.6418744},{"id":"4561921090","name":"Plena Jardins","tags":"addr:city:São Paulo,addr:housenumber:19,addr:postcode:01417-020,addr:street:Alameda Tietê,amenity:pharmacy,opening_hours:Mo-Fr 09:00-19:00; Sa 09:00-14:00,phone:+55 11 3087-1561,website:http://plenajardins.com.br","lat":-23.5634904,"lng":-46.6642075},{"id":"4562098095","name":"Ícone Park Estacionamentos Unidade 2","tags":"access:customers,addr:city:São Paulo,addr:housenumber:130,addr:postcode:01331-000,addr:street:Alameda Ribeirão Preto,addr:suburb:Bela Vista,amenity:parking,capacity:90,fee:yes,opening_hours:24/7,parking:surface,phone:+55 11 3093-0800,supervised:yes,website:http://www.iconepark.com.br/,wheelchair:yes","lat":-23.5645703,"lng":-46.6485561},{"id":"4563807823","tags":"addr:city:São Paulo,addr:housenumber:1061,addr:postcode:01317-001,addr:street:Avenida Brigadeiro Luís Antônio,amenity:parking,fee:yes,parking:surface,supervised:yes,surface:paved","lat":-23.5588892,"lng":-46.641903},{"id":"4564096506","tags":"addr:city:São Paulo,addr:housenumber:1410,addr:postcode:01318-001,addr:street:Avenida Brigadeiro Luís Antônio,amenity:restaurant","lat":-23.5612611,"lng":-46.6441887},{"id":"4565353091","name":"Le Botteghe di Leonardo","tags":"addr:housenumber:42,addr:postcode:01426-000,addr:street:Rua Oscar Freire,amenity:restaurant,cuisine:ice_cream,diet:gluten_free:only,diet:vegan:yes,internet_access:wlan,opening_hours:Su-Th 09:00-00:00; Fr-Sa 09:00-01:00,phone:+55 11 2528-2000,website:http://lebotteghedileonardo.com.br","lat":-23.5683573,"lng":-46.662871},{"id":"4565424065","tags":"addr:city:São Paulo,addr:housenumber:1025,addr:postcode:01525-001,addr:street:Rua Tamandaré,amenity:parking","lat":-23.5671818,"lng":-46.6375992},{"id":"4566867799","name":"Pão de Queijo","tags":"addr:city:São Paulo,addr:housenumber:1408,addr:postcode:01414-002,addr:street:Rua Haddock Lobo,amenity:restaurant,cuisine:diner,email:paodequeijo@paodequeijohaddocklobo.com.br,internet_access:wlan,opening_hours:Mo-Sa 09:00-19:00,phone:+55 11 3088-3087,website:http://www.paodequeijohaddocklobo.com.br/","lat":-23.5631875,"lng":-46.6673016},{"id":"4567091990","name":"Apfel Restaurante Vegetariano","tags":"addr:city:São Paulo,addr:housenumber:1343,addr:street:Rua Bela Cintra,amenity:restaurant,diet:vegetarian:yes,outdoor_seating:no,smoking:no,website:https://www.apfel.com.br/","lat":-23.5580681,"lng":-46.6635217},{"id":"4581327186","tags":"amenity:library","lat":-23.5849106,"lng":-46.6613135},{"id":"4581538515","tags":"tourism:attraction","lat":-23.584122,"lng":-46.6607804},{"id":"4595260290","name":"Kouzina","tags":"addr:housenumber:1710,addr:postcode:01409-002,addr:street:Rua Peixoto Gomide,amenity:restaurant,cuisine:greek,opening_hours:Mo-Su 12:00-00:15,phone:+55 11 2935-0888","lat":-23.5665442,"lng":-46.6630827},{"id":"4612467359","name":"Livraria Takano","tags":"addr:housenumber:759,addr:street:Conselheiro Furtado,shop:books","lat":-23.5596951,"lng":-46.6326488},{"id":"4635859450","name":"Portal Pets","tags":"shop:pet","lat":-23.5686601,"lng":-46.6328018},{"id":"4635867916","name":"Macro Bella","tags":"amenity:restaurant","lat":-23.5695961,"lng":-46.6334231},{"id":"4649303366","tags":"addr:city:São Paulo,addr:housenumber:1212,addr:postcode:01318-001,addr:street:Avenida Brigadeiro Luís Antônio,amenity:parking,fee:yes,supervised:yes,surface:paved","lat":-23.5598431,"lng":-46.6429693},{"id":"4650385589","name":"Al Hoda","tags":"addr:housenumber:2000,addr:street:Rua Vergueiro,amenity:restaurant,name:pt:Al Hoda","lat":-23.5794966,"lng":-46.6397609},{"id":"4652676458","tags":"addr:city:São Paulo,addr:housenumber:1285,addr:postcode:01317-001,addr:street:Avenida Brigadeiro Luís Antônio,amenity:parking,fee:yes,parking:surface,supervised:yes","lat":-23.5605597,"lng":-46.6432541},{"id":"4652676466","tags":"addr:city:São Paulo,addr:housenumber:134,addr:postcode:01322-000,addr:street:Rua Artur Prado,amenity:parking,fee:yes,parking:multi-storey,supervised:yes,surface:paved","lat":-23.5615366,"lng":-46.6428864},{"id":"4683209391","name":"Dia","tags":"addr:city:São Paulo,addr:street:Avenida Brigadeiro Luís Antônio,brand:Dia,brand:wikidata:Q925132,brand:wikipedia:es:Supermercados DIA,shop:supermarket","lat":-23.5690489,"lng":-46.6504348},{"id":"4683209392","name":"Restaurante Caldeirão Mineiro","tags":"addr:city:São Paulo,addr:housenumber:2493,addr:street:Avenida Brigadeiro Luís Antônio,amenity:restaurant,cuisine:regional","lat":-23.5692802,"lng":-46.6503613},{"id":"4683209991","name":"Toque de Café","tags":"addr:city:São Paulo,addr:full:Avenida Brigadeiro Luís Antônio, 2504,addr:street:Avenida Brigadeiro Luís Antônio,addr:suburb:Jardim Paulista,amenity:cafe,outdoor_seating:yes,smoking:no","lat":-23.5691411,"lng":-46.6506248},{"id":"4683255792","name":"Pomar Café","tags":"addr:city:São Paulo,addr:country:BR,addr:housenumber:2471,addr:street:Avenida Brigadeiro Luís Antônio,addr:suburb:Jardim Paulista,amenity:cafe,cuisine:sandwich,delivery:yes,opening_hours:off,opening_hours:covid19:off,outdoor_seating:no,phone:+55 11 3171 0630,website:https://www.pomardeli.com.br/menu","lat":-23.5690824,"lng":-46.6501097},{"id":"4683297789","name":"Progress Park","tags":"access:permissive,amenity:parking,fee:yes","lat":-23.5690552,"lng":-46.6504501},{"id":"4685631789","name":"Banco do Brasil","tags":"amenity:bank,atm:yes,brand:Banco do Brasil,brand:wikidata:Q610817,brand:wikipedia:en:Banco do Brasil,name:pt:Banco do Brasil,opening_hours:Mo-Fr 10:00-16:00,website:https://www.bb.com.br/","lat":-23.59824,"lng":-46.6424239},{"id":"4687126604","tags":"amenity:cafe","lat":-23.5715928,"lng":-46.6404317},{"id":"4695904694","name":"Clemente Café","tags":"addr:housenumber:659,addr:street:Rua Coronel Lisboa,amenity:cafe,cuisine:brazilian;cake;coffee_shop,diet:vegan:yes,diet:vegetarian:yes,internet_access:wlan,name:pt:Clemente Café,opening_hours:Mo-Fr 09:30-18:45; Sa 10:00-18:00,outdoor_seating:yes,website:http://facebook.com/clementecafe.sp","lat":-23.5963012,"lng":-46.6397354},{"id":"4717087693","name":"Droga Raia","tags":"addr:city:São Paulo,addr:country:BR,addr:housenumber:610,addr:postcode:04511-001,addr:state:SP,addr:street:Rua Afonso Brás,amenity:pharmacy,contact:phone:+55 11 3842-5936,contact:website:http://www.drogaraia.com.br/,opening_hours:24/7","lat":-23.5951418,"lng":-46.6696855},{"id":"4717544055","name":"Droga Raia","tags":"addr:city:São Paulo,addr:country:BR,addr:housenumber:645,addr:postcode:01423-001,addr:state:SP,addr:street:Rua José Maria Lisboa,amenity:pharmacy,contact:phone:+55 11 3884-8235,contact:website:http://www.drogaraia.com.br/,opening_hours:24/7","lat":-23.5680705,"lng":-46.6581749},{"id":"4718353705","name":"Dia","tags":"addr:city:São Paulo,addr:housenumber:792,addr:postcode:01529-000,addr:street:Rua Pires da Mota,brand:Dia,brand:wikidata:Q925132,brand:wikipedia:es:Supermercados DIA,contact:facebook:https://www.facebook.com/diasupermercado,contact:instagram:https://instagram.com/diasupermercado/,contact:twitter:https://twitter.com/diasupermercado,contact:website:https://www.dia.com.br,contact:youtube:https://www.youtube.com/user/DiaSupermercado,opening_hours:Mo-Sa 08:00-21:00;PH Su 09:00-14:00,shop:supermarket","lat":-23.5684665,"lng":-46.6358309},{"id":"4725062498","name":"Sal Gastronomia","tags":"addr:city:São Paulo,addr:housenumber:352,addr:postcode:01244-011,addr:street:Rua Minas Gerais,addr:suburb:Higienópolis,air_conditioning:yes,amenity:restaurant,name:pt:Sal Gastronomia,phone:+55 11 31513085","lat":-23.5547983,"lng":-46.6648783},{"id":"4732226858","name":"Paris 6 Classique","tags":"addr:city:São Paulo,addr:housenumber:1240,addr:postcode:01414-002,addr:street:Rua Haddock Lobo,addr:suburb:Jardins,amenity:restaurant,contact:twitter:https://twitter.com/Paris_6,cuisine:bistro,opening_hours:24/7,outdoor_seating:yes,phone:+55 11 3085-1595,reservation:recommended,source:date:2017-03-03,start_date:2006-09-26,website:https://www.paris6.com.br/home","lat":-23.5620656,"lng":-46.6662014},{"id":"4742364437","name":"Pirajá","tags":"addr:city:São Paulo,addr:housenumber:998,addr:postcode:01409-000,addr:street:Alameda Santos,amenity:bar,cuisine:brazilian,name:en:Piraja","lat":-23.5618033,"lng":-46.6582084},{"id":"4746795694","name":"The Fifties","tags":"addr:city:São Paulo,addr:housenumber:1015,addr:postcode:01419-001,addr:street:Alameda Santos,addr:suburb:Cerqueira César,amenity:restaurant,cuisine:american,email:janaina.bonafe@thefifties.com.br,opening_hours:Mo-Th 11:30-00:30, Fr-Sa 11:30-01:30, Su 12:00-00:30,operator:Janaina Bonafe,payment:cheque:no,payment:credit_cards:yes,phone:+55 11 3266-4278,toilets:wheelchair:yes,website:http://thefifties.com.br,wheelchair:yes","lat":-23.5662733,"lng":-46.6528977},{"id":"4756120622","name":"Izakaya Issa","tags":"addr:housenumber:89,addr:postcode:01507-001,addr:street:Rua Barão de Iguape,amenity:restaurant,cuisine:japanese,opening_hours:Mo-Fr 18:30-23:30; Sa-Su 11:30-15:30, 18:30-23:30,phone:+55 11 3208 8819","lat":-23.5582855,"lng":-46.6359355},