[{"id":"438679064","name":"Terminal Vila Carrao","tags":"amenity:bus_station,bus:yes,public_transport:station,trolleybus:yes","lat":-23.5583977,"lng":-46.5227261},{"id":"1040038931","name":"Fátima","tags":"amenity:school","lat":-23.5977657,"lng":-46.5254347},{"id":"1069878010","name":"EMEI Clóvis Bevilacqua","tags":"amenity:school","lat":-23.5983101,"lng":-46.5157171},{"id":"1069924383","name":"Posto Policial Jardim Grimaldi","tags":"amenity:police","lat":-23.5985166,"lng":-46.5196761},{"id":"1447552231","tags":"amenity:school","lat":-23.5555946,"lng":-46.5359627},{"id":"2066388049","tags":"addr:city:São Paulo,addr:street:Avenida Rio das Pedras,addr:suburb:Jardim Aricanduva,amenity:pharmacy","lat":-23.5692407,"lng":-46.5083479},{"id":"2066388055","name":"Farmais","tags":"amenity:pharmacy","lat":-23.5718111,"lng":-46.5105882},{"id":"2142525680","name":"Banco Bradesco","tags":"amenity:bank,atm:yes","lat":-23.5810406,"lng":-46.499238},{"id":"2142525761","name":"Santander","tags":"amenity:bank,atm:yes","lat":-23.5809029,"lng":-46.4994794},{"id":"2324401943","name":"Correios","tags":"amenity:post_office","lat":-23.5574476,"lng":-46.5237995},{"id":"2324408735","name":"E. E. Professora Irene Ribeiro","tags":"amenity:school,building:yes,operator:Governo do Estado de São PAulo","lat":-23.5547848,"lng":-46.5224342},{"id":"3044501915","name":"Cerealista Ideal São Caetano","tags":"addr:city:São Paulo,addr:housenumber:6,addr:postcode:03389-020,addr:street:Rua Professor Cortines Laxo,addr:suburb:Vila Primavera,phone:+55 11 2216-3948,shop:convenience","lat":-23.5905124,"lng":-46.530069},{"id":"3044501917","name":"Colégio São Paulo 2000","tags":"addr:city:São Paulo,addr:housenumber:43,addr:street:Avenida Francisco Vieira Bueno,addr:suburb:Vila Primavera,amenity:school","lat":-23.5902641,"lng":-46.5304204},{"id":"3811238175","tags":"addr:city:São Paulo,addr:housenumber:715,addr:postcode:03585-100,addr:street:Rua Elza dos Anjos Neves,amenity:pharmacy","lat":-23.5673543,"lng":-46.4943603},{"id":"4015903390","name":"BR Mania","tags":"shop:convenience","lat":-23.5622346,"lng":-46.4999841},{"id":"4015903392","name":"Banco 24 Horas","tags":"amenity:atm","lat":-23.5622839,"lng":-46.5000973},{"id":"4015903403","name":"Lava Mania","tags":"amenity:car_wash","lat":-23.5623656,"lng":-46.4999035},{"id":"4578582866","name":"Drogaria Nova Mille","tags":"addr:city:São Paulo,addr:street:Avenida Inconfidência Mineira,addr:suburb:Vila Antonieta,amenity:pharmacy","lat":-23.5753123,"lng":-46.5148021},{"id":"5132111628","name":"Casa da Criança Betinho Lar Espírita para Excepcionais","tags":"addr:city:São Paulo,addr:housenumber:300,addr:postcode:03433-020,addr:street:Rua Vacanga,addr:subdistrict:Vila Carrão,addr:suburb:Vila Fernandes,amenity:hospital,contact:email:casabetinhocontacto@gmail.com,email:casabetinho@uol.com.br,phone:+55 11 2782-7366,ref:vatin:BR62827860000150,website:http://www.casadacriancabetinho.com.br","lat":-23.5602414,"lng":-46.5323389},{"id":"5223516623","tags":"addr:housenumber:815,addr:postcode:03435-000,addr:street:Rua João Cordeiro,opening_hours:Tu-Sa 09:00-18:00; Su-Mo 00:00-24:00,phone:+55 11 2269-5215,shop:pet","lat":-23.5555622,"lng":-46.5300819},{"id":"5540052300","name":"Camilo Haddad","tags":"monorail:yes,network:Metrô,operator:Companhia do Metropoltiano de São Paulo,public_transport:station,railway:station,start_date:2018-04-06,wikidata:Q18475274,wikipedia:pt:Estação Camilo Haddad","lat":-23.5955395,"lng":-46.5375762},{"id":"5887844364","name":"Supermercado Baronesa","tags":"addr:city:São Paulo,addr:housenumber:326,addr:postcode:03933-070,addr:street:Rua Pedrinópolis,addr:suburb:Jardim São Gabriel,shop:supermarket","lat":-23.5931177,"lng":-46.5018761},{"id":"5888870362","name":"Mercado Municipal","tags":"addr:city:São Paulo,addr:housenumber:7911,addr:postcode:03988-000,addr:street:Avenida Sapopemba,addr:suburb:Vila Fátima,shop:supermarket","lat":-23.5968262,"lng":-46.5226378},{"id":"5888870370","name":"Bem Barato Grimaldi","tags":"addr:city:São Paulo,addr:housenumber:77,addr:postcode:03922-000,addr:street:Rua Benedito Jacinto Mendes,addr:suburb:Jardim Grimaldi,opening_hours:Mo-Sa 08:00-20:00; Su 08:00-18:00,shop:supermarket","lat":-23.5976514,"lng":-46.5175174},{"id":"5888870377","name":"Drogaria São Paulo","tags":"addr:city:São Paulo,addr:housenumber:8491,addr:postcode:03271-010,addr:street:Avenida Sapopemba,addr:suburb:Jardim Grimaldi,amenity:pharmacy,dispensing:yes,healthcare:pharmacy","lat":-23.5985455,"lng":-46.5187553},{"id":"5981286587","name":"Droga Leste","tags":"amenity:pharmacy,dispensing:yes,healthcare:pharmacy","lat":-23.589295,"lng":-46.5099151},{"id":"6173282105","tags":"shop:convenience","lat":-23.5903066,"lng":-46.5054722},{"id":"6173282106","tags":"amenity:atm","lat":-23.5902857,"lng":-46.5055125},{"id":"6173282107","tags":"amenity:car_wash","lat":-23.5902402,"lng":-46.505782},{"id":"6362224144","tags":"amenity:parking","lat":-23.5801806,"lng":-46.5054189},{"id":"6718732744","name":"Supermercado Novo Sucesso","tags":"addr:city:São Paulo,addr:housenumber:1679,addr:postcode:03911-000,addr:street:Avenida da Barreira Grande,addr:suburb:Vila Rica,opening_hours:Mo-Sa 08:00-20:00;Su 08:00-13:00,shop:supermarket","lat":-23.5851234,"lng":-46.5194285},{"id":"9885967336","tags":"access:customers,amenity:parking,surface:unpaved","lat":-23.5635349,"lng":-46.5189068},{"id":"9885967344","name":"Mercearia Matheus","tags":"addr:city:São Paulo,addr:housenumber:460,addr:postcode:03460-000,addr:street:Rua Rêgo Barros,addr:suburb:Vila Formosa,organic:yes,phone:+55 11 983032907,shop:convenience,wheelchair:no","lat":-23.5639465,"lng":-46.5185332}]