[{"id":"1668125832","tags":"amenity:restaurant,cuisine:pizza","lat":-23.6838668,"lng":-46.5366431},{"id":"1668146168","tags":"amenity:restaurant,cuisine:pizza","lat":-23.6752191,"lng":-46.5253776},{"id":"1668181786","name":"Biblioteca Nair Lacerda","tags":"addr:city:Santo André,addr:postcode:09015-080,addr:street:Praça IV Centenário,addr:suburb:Centro,alt_name:Biblioteca Municipal de Santo André,amenity:library,level:0,nohousenumber:yes,opening_hours:Mo-Fr 09:00-18:00; Sa 08:00-12:00; PH off,operator:Prefeitura Municipal de Santo André,operator:type:public,phone:+55 11 4433 0768,website:http://culturaz.santoandre.sp.gov.br/espaco/21/,wheelchair:yes","lat":-23.6568941,"lng":-46.5323865},{"id":"1669233420","tags":"amenity:restaurant","lat":-23.6665871,"lng":-46.5236126},{"id":"1669289291","tags":"leisure:sports_centre,sport:skateboard","lat":-23.6624796,"lng":-46.5295832},{"id":"1741773158","name":"Drogaria Paraíso","tags":"addr:street:Rua Ibiapava,amenity:pharmacy,dispensing:yes,drive_through:no,healthcare:pharmacy","lat":-23.6781409,"lng":-46.5342228},{"id":"2026460200","name":"Merquatro Mini Mercado","tags":"shop:convenience","lat":-23.6776984,"lng":-46.5104423},{"id":"2085135097","name":"Coop - Cooperativa de Consumo","tags":"shop:supermarket","lat":-23.675495,"lng":-46.522652},{"id":"2213478619","name":"Assiciação Águia Dragões de Fogo Moto Clube","tags":"amenity:bar","lat":-23.6637088,"lng":-46.5243395},{"id":"2213478657","name":"Bar do Pato","tags":"amenity:bar","lat":-23.6627221,"lng":-46.5248065},{"id":"2213479513","name":"Bar do Kari","tags":"amenity:bar","lat":-23.6605829,"lng":-46.5270336},{"id":"2213485459","name":"Academia Gerson Doria","tags":"leisure:fitness_centre","lat":-23.6610435,"lng":-46.5210227},{"id":"2213486081","name":"CT300 Crossfit Santo André","tags":"addr:housenumber:555,addr:street:Avenida Artur de Queirós,leisure:fitness_centre","lat":-23.6611654,"lng":-46.520099},{"id":"2213487134","name":"A Gruta","tags":"amenity:bar","lat":-23.6634228,"lng":-46.5254538},{"id":"2905784907","name":"Pilao Mineiro","tags":"addr:city:Sao Paulo,addr:housenumber:1172,addr:street:Avenida Dom Pedro II,amenity:restaurant,cuisine:regional,_buffet","lat":-23.6457618,"lng":-46.5376306},{"id":"2905791346","name":"Tendall Grill","tags":"addr:housenumber:518,addr:street:Avenida Dom Pedro II,air_conditioning:yes,amenity:restaurant,brewery:yes;various,cuisine:regional,_churrascaria,internet_access:yes,outdoor_seating:no,reservation:yes,start_date:1995,website:https://negocios.abctudo.com.br/","lat":-23.6508551,"lng":-46.5345902},{"id":"2905791957","name":"Churrascaria D'Brescia","tags":"addr:housenumber:444,addr:street:Avenida Dom Pedro II,amenity:restaurant,cuisine:regional,_churrascaria","lat":-23.651489,"lng":-46.534204},{"id":"2906089347","name":"Mandacaru","tags":"addr:housenumber:1260,addr:street:Avenida Dom Pedro II,amenity:restaurant,cuisine:regional,_buffet","lat":-23.6450505,"lng":-46.5380407},{"id":"3188277039","name":"Bradesco","tags":"addr:city:Santo André,addr:housenumber:1186,addr:street:Avenida Portugal,amenity:bank,brand:Bradesco,brand:wikidata:Q806181,brand:wikipedia:en:Banco Bradesco","lat":-23.6661296,"lng":-46.5344126},{"id":"3188277040","name":"Banco do Brasil","tags":"addr:city:Santo André,addr:housenumber:1259,addr:street:Avenida Portugal,amenity:bank,brand:Banco do Brasil,brand:wikidata:Q610817,brand:wikipedia:en:Banco do Brasil","lat":-23.6665865,"lng":-46.5344582},{"id":"3188992634","name":"Colégio Arbos","tags":"addr:city:Santo André,addr:country:BR,addr:housenumber:466,addr:street:Avenida Padre Anchieta,amenity:school","lat":-23.6512189,"lng":-46.5331101},{"id":"3189450561","name":"Escola Prontidão","tags":"addr:city:Santo André,addr:housenumber:52,addr:street:Rua das Pitangueiras,amenity:school","lat":-23.6480956,"lng":-46.5374884},{"id":"3190275601","name":"Colégio Estímulo","tags":"addr:city:Santo André,addr:country:BR,addr:housenumber:257,addr:street:Rua do Centenário,amenity:school","lat":-23.6618706,"lng":-46.5379335},{"id":"3190899576","name":"Bradesco","tags":"addr:city:Santo André,addr:country:BR,addr:housenumber:969,addr:street:Avenida Itamarati,amenity:bank,atm:yes,brand:Bradesco,brand:wikidata:Q806181,brand:wikipedia:en:Banco Bradesco","lat":-23.6469473,"lng":-46.5146273},{"id":"3190899577","name":"Caixa","tags":"addr:city:Santo André,addr:country:BR,addr:housenumber:949,addr:street:Avenida Itamarati,amenity:bank,atm:yes","lat":-23.6470172,"lng":-46.514691},{"id":"3190899579","name":"A Igreja de Jesus Cristo dos Santos dos Últimos Dias","tags":"amenity:place_of_worship,building:church,denomination:mormon,religion:christian","lat":-23.6457214,"lng":-46.5130861},{"id":"3190899581","name":"Ragazzo","tags":"amenity:restaurant","lat":-23.6466835,"lng":-46.5140732},{"id":"3190924425","name":"Drogaria São Paulo","tags":"amenity:pharmacy,brand:Drogaria São Paulo,brand:wikidata:Q5308184,brand:wikipedia:en:Grupo DPSP,dispensing:no,healthcare:pharmacy","lat":-23.6612532,"lng":-46.532673},{"id":"3190960184","name":"Dia","tags":"brand:Dia,brand:wikidata:Q925132,brand:wikipedia:es:Supermercados DIA,shop:supermarket","lat":-23.6534085,"lng":-46.5362283},{"id":"3191535407","name":"Correios","tags":"addr:city:Santo André,addr:country:BR,addr:housenumber:2980,addr:street:Avenida Itamarati,amenity:post_office","lat":-23.6458783,"lng":-46.5013484},{"id":"3191535409","name":"Correios","tags":"addr:city:Santo André,addr:country:BR,addr:housenumber:109,addr:street:Rua Corrêa Dias,amenity:post_office,brand:Correios,brand:wikidata:Q3375004,brand:wikipedia:en:Correios","lat":-23.6589027,"lng":-46.5250096},{"id":"3191535410","name":"Correios","tags":"addr:city:Santo André,addr:country:BR,addr:housenumber:927,addr:street:Avenida Dom Pedro I,amenity:post_office,brand:Correios,brand:wikidata:Q3375004,brand:wikipedia:en:Correios","lat":-23.6728457,"lng":-46.5131768},{"id":"3191535411","name":"Correios","tags":"addr:city:Santo André,addr:country:BR,addr:housenumber:1589,addr:street:Rua Carijós,amenity:post_office","lat":-23.6842404,"lng":-46.5219584},{"id":"3192314053","name":"Banco do Brasil","tags":"addr:city:Santo André,addr:country:BR,addr:housenumber:877,addr:street:Avenida Dom Pedro I,amenity:bank,atm:yes,brand:Banco do Brasil,brand:wikidata:Q610817,brand:wikipedia:en:Banco do Brasil","lat":-23.6723486,"lng":-46.5132618},{"id":"3192341556","name":"Bradesco","tags":"addr:city:Santo André,addr:country:BR,addr:housenumber:241,addr:street:Rua Bernardino de Campos,amenity:bank,atm:yes,brand:Bradesco,brand:wikidata:Q806181,brand:wikipedia:en:Banco Bradesco","lat":-23.6554703,"lng":-46.5289458},{"id":"3192341557","name":"Bradesco","tags":"addr:city:Santo André,addr:country:BR,addr:housenumber:59,addr:street:Rua Senador Fláquer,amenity:bank,atm:yes,brand:Bradesco,brand:wikidata:Q806181,brand:wikipedia:en:Banco Bradesco","lat":-23.6597669,"lng":-46.5266074},{"id":"3192341558","name":"Bradesco","tags":"addr:city:Santo André,addr:country:BR,addr:housenumber:711,addr:street:Avenida Queirós Filho,amenity:bank,atm:yes,brand:Bradesco,brand:wikidata:Q806181,brand:wikipedia:en:Banco Bradesco","lat":-23.6699216,"lng":-46.5056964},{"id":"3192341559","name":"Bradesco","tags":"addr:city:Santo André,addr:country:BR,addr:housenumber:1263,addr:street:Rua Carijós,amenity:bank,atm:yes","lat":-23.6814547,"lng":-46.5215743},{"id":"3192346361","name":"Caixa Econômica Federal","tags":"amenity:bank,atm:yes,brand:Caixa Econômica Federal,brand:wikidata:Q835283,brand:wikipedia:pt:Caixa Econômica Federal","lat":-23.6480235,"lng":-46.5366793},{"id":"3192346362","name":"Dia","tags":"shop:supermarket","lat":-23.6813656,"lng":-46.5212708},{"id":"3192346364","name":"Santander Select","tags":"amenity:bank,atm:yes","lat":-23.6616884,"lng":-46.5243582},{"id":"3215970419","name":"Espaço Natural","tags":"amenity:restaurant","lat":-23.6630418,"lng":-46.523054},{"id":"3215970423","name":"Novilho na Brasa","tags":"amenity:restaurant,operator:barbecue","lat":-23.662876,"lng":-46.5232502},{"id":"3215970435","tags":"amenity:parking","lat":-23.6638112,"lng":-46.5223107},{"id":"3216227529","name":"Hospital Coração de Jesus","tags":"addr:street:Avenida Coronel Alfredo Fláquer,amenity:hospital,healthcare:hospital","lat":-23.6618279,"lng":-46.5272086},{"id":"3216227532","name":"Los Mariachis","tags":"amenity:restaurant,cuisine:italian;burger","lat":-23.6630417,"lng":-46.5244119},{"id":"3628040185","name":"Ginásio de Esportes Professor Eufly Gomes","tags":"addr:city:Santo André,addr:street:Avenida Ramiro Colleoni,addr:suburb:Centro,leisure:sports_centre,sport:multi","lat":-23.6612801,"lng":-46.5296807},{"id":"3931469797","name":"Extrafarma","tags":"amenity:pharmacy,brand:Extrafarma,brand:wikidata:Q20055480,brand:wikipedia:pt:Extrafarma,healthcare:pharmacy","lat":-23.6686781,"lng":-46.5377284},{"id":"4199975614","name":"Roldão Atacadista","tags":"shop:supermarket","lat":-23.6625253,"lng":-46.5124769},{"id":"4513901397","name":"Drogasil","tags":"amenity:pharmacy,brand:Drogasil,brand:wikidata:Q5308185,brand:wikipedia:pt:Drogasil,dispensing:yes,healthcare:pharmacy,opening_hours:24/7,wheelchair:yes","lat":-23.6627419,"lng":-46.5333036},{"id":"4789789929","name":"Hospital São José do ABC","tags":"amenity:hospital,healthcare:hospital,name:pt:Hospital São José do ABC","lat":-23.6732723,"lng":-46.5143438},{"id":"4789800330","name":"Banco Itaú","tags":"amenity:bank,name:en:Banco Itaú,name:pt:Banco Itaú","lat":-23.6712481,"lng":-46.513437},{"id":"4789800331","name":"3º Distrito Policial de Santo André","tags":"addr:city:Santo André,addr:housenumber:46,addr:street:Rua 21 de Abril,addr:suburb:Vila Pires,amenity:police,loc_name:Delegacia de Polícia da Vila Pires,short_name:3º DP Santo André","lat":-23.6717013,"lng":-46.5130944},{"id":"5321158221","name":"Pizzaria Manaus","tags":"amenity:restaurant","lat":-23.674477,"lng":-46.5172365},{"id":"5601008541","name":"Atelier da Unha","tags":"beauty:nails,shop:beauty","lat":-23.6624715,"lng":-46.5234223},{"id":"5601008542","name":"Ervilha de Cheiro","tags":"amenity:restaurant,diet:vegetarian:yes,outdoor_seating:yes","lat":-23.6623285,"lng":-46.5233653},{"id":"5609727975","name":"CatCão","tags":"shop:pet","lat":-23.6577019,"lng":-46.5359415},{"id":"5609727982","name":"Pizzaria Jóia","tags":"amenity:restaurant,cuisine:pizza","lat":-23.6603245,"lng":-46.5367918},{"id":"5609727986","name":"Dídio Pizza","tags":"amenity:restaurant,cuisine:pizza,delivery:only","lat":-23.6607384,"lng":-46.5370882},{"id":"5609727987","tags":"access:private,amenity:parking,parking:surface","lat":-23.6612556,"lng":-46.5378861},{"id":"5613584076","tags":"amenity:car_wash","lat":-23.6441753,"lng":-46.5259878},{"id":"5613584084","name":"CHQ","tags":"books:comic,level:1,shop:books","lat":-23.6446839,"lng":-46.5260361},{"id":"5613584098","name":"Churrascaria Vavá","tags":"amenity:restaurant,cuisine:steak_house","lat":-23.6471814,"lng":-46.5251784},{"id":"5613755075","name":"Própharmacos","tags":"amenity:pharmacy,healthcare:pharmacy","lat":-23.6685556,"lng":-46.5380511},{"id":"5613755090","tags":"amenity:parking,parking:surface","lat":-23.6646335,"lng":-46.5337515},{"id":"5613755096","name":"Betel Brasileiro","tags":"amenity:school,denomination:evangelical,religion:christian","lat":-23.6545768,"lng":-46.5303478},{"id":"5613755099","tags":"amenity:car_wash","lat":-23.6549232,"lng":-46.5301533},{"id":"5613756224","tags":"amenity:parking","lat":-23.6544447,"lng":-46.5292789},{"id":"5613756229","tags":"amenity:parking","lat":-23.6553716,"lng":-46.5331225},{"id":"5613756237","name":"Avicultura Araguaia","tags":"shop:pet","lat":-23.647382,"lng":-46.5234521},{"id":"5613763581","name":"Itaú","tags":"amenity:bank,atm:yes,brand:Itaú Unibanco,brand:wikidata:Q1424293,brand:wikipedia:pt:Itaú Unibanco","lat":-23.6619926,"lng":-46.5330407},{"id":"5614222272","name":"Sicredi","tags":"amenity:bank,atm:no,brand:Sicredi,brand:wikidata:Q3483060,brand:wikipedia:pt:Sistema de Crédito Cooperativo","lat":-23.6763267,"lng":-46.5373188},{"id":"5614222276","tags":"amenity:parking,parking:surface","lat":-23.6757985,"lng":-46.538035},{"id":"5614323613","name":"G & G","tags":"amenity:restaurant,cuisine:pizza","lat":-23.6474665,"lng":-46.5101118},{"id":"5614323725","name":"Feijão com Arroz","tags":"amenity:restaurant","lat":-23.6503718,"lng":-46.5105329},{"id":"5616268193","name":"Pro Vitae","tags":"amenity:pharmacy,healthcare:pharmacy","lat":-23.6482748,"lng":-46.5378405},{"id":"5616268194","name":"Dom Giardino","tags":"amenity:restaurant,cuisine:pizza","lat":-23.6484677,"lng":-46.537701},{"id":"5616268196","name":"Khor","tags":"leisure:fitness_centre,sport:pilates","lat":-23.6487059,"lng":-46.5375473},{"id":"5616268203","name":"Carrefour Express","tags":"brand:Carrefour Express,brand:wikidata:Q2940190,brand:wikipedia:fr:Carrefour Express,shop:convenience","lat":-23.6513043,"lng":-46.5359793},{"id":"5616268204","name":"Sweet Amora","tags":"amenity:cafe","lat":-23.6514417,"lng":-46.5358968},{"id":"5616268206","name":"Local Park","tags":"amenity:parking","lat":-23.6516665,"lng":-46.535762},{"id":"5616268219","name":"Mazza Ristoranti","tags":"amenity:restaurant,cuisine:italian","lat":-23.6540381,"lng":-46.5350055},{"id":"5616268425","tags":"amenity:parking","lat":-23.6544129,"lng":-46.5357533},{"id":"5616268427","tags":"amenity:parking","lat":-23.6546634,"lng":-46.5357049},{"id":"5616268428","name":"Yukui Sushi","tags":"amenity:restaurant,cuisine:japanese","lat":-23.6546955,"lng":-46.5357692},{"id":"5616268429","name":"Pharmácia Essencial","tags":"amenity:pharmacy,healthcare:pharmacy","lat":-23.6547395,"lng":-46.5358575},{"id":"5616268430","name":"Santo Rock","tags":"amenity:bar","lat":-23.6547863,"lng":-46.5359513},{"id":"5616268431","name":"Questo Pasta","tags":"amenity:restaurant,cuisine:italian","lat":-23.6548424,"lng":-46.5360639},{"id":"5616356748","tags":"leisure:fitness_centre,sport:pilates","lat":-23.6475721,"lng":-46.5156318},{"id":"5616356765","name":"Mulher.com","tags":"shop:beauty","lat":-23.646394,"lng":-46.5140748},{"id":"5616356771","name":"Drogaria Farmais","tags":"amenity:pharmacy,healthcare:pharmacy","lat":-23.6461127,"lng":-46.5139394},{"id":"5616356772","name":"Pacparela","tags":"amenity:restaurant,cuisine:pizza,delivery:yes","lat":-23.6460875,"lng":-46.5139132},{"id":"5616356782","name":"Asterix","tags":"amenity:restaurant,cuisine:potato","lat":-23.6451028,"lng":-46.5129912},{"id":"5616356786","name":"Sobre Patas","tags":"shop:pet","lat":-23.643276,"lng":-46.512841},{"id":"5618402210","name":"Milletec","tags":"amenity:pharmacy,healthcare:pharmacy","lat":-23.6553827,"lng":-46.534929},{"id":"5618402211","name":"Cabelo's Parking","tags":"amenity:parking","lat":-23.6554066,"lng":-46.5349813},{"id":"5618404433","name":"IFJ","tags":"leisure:fitness_centre,sport:jiu_jitsu;muay_thai","lat":-23.6472417,"lng":-46.52199},{"id":"5618404440","name":"Moinho Pizzaria","tags":"amenity:restaurant,cuisine:pizza","lat":-23.6477711,"lng":-46.5193802},{"id":"5618484927","name":"Studio Rodrigo Duarte","tags":"leisure:fitness_centre,personal_trainer:yes","lat":-23.6686403,"lng":-46.5372505},{"id":"5618484930","name":"Up Fit Academia","tags":"leisure:fitness_centre","lat":-23.6623611,"lng":-46.5294439},{"id":"5618484954","name":"Itaú","tags":"amenity:bank,atm:yes","lat":-23.6640267,"lng":-46.5332365},{"id":"5618484964","name":"Fórmula Magistral","tags":"amenity:pharmacy,healthcare:pharmacy","lat":-23.6656187,"lng":-46.5337247},{"id":"5626797257","name":"A Praça","tags":"amenity:restaurant","lat":-23.6565814,"lng":-46.5264184},{"id":"5626797302","name":"Villa Rosa Bistrô","tags":"amenity:restaurant","lat":-23.6574683,"lng":-46.5303821},{"id":"5626797303","tags":"amenity:parking,layer:-1,parking:underground","lat":-23.657393,"lng":-46.5303619},{"id":"5627713918","name":"Shabab's","tags":"amenity:restaurant,cuisine:lebanese","lat":-23.6576869,"lng":-46.5305125},{"id":"6059119842","name":"Don Cappone","tags":"amenity:restaurant,cuisine:pizza","lat":-23.6578063,"lng":-46.536545},{"id":"6450683493","tags":"amenity:parking","lat":-23.6674899,"lng":-46.5353288},{"id":"6450727688","name":"Coco Bambu Restaurante","tags":"addr:housenumber:1362,addr:postcode:09041-320,addr:street:Avenida Portugal,amenity:restaurant,contact:mobile:+55 11 98016 0800,cuisine:brazilian;regional,delivery:yes,email:sac.cbsantoandre@cocobambu.com,phone:+55 11 4316 0800,website:https://cocobambu.com/unidades/santo-andre/","lat":-23.6670006,"lng":-46.5356875},{"id":"6450727693","name":"Tecfit","tags":"leisure:fitness_centre","lat":-23.6680171,"lng":-46.5367079},{"id":"6450729686","name":"Villa Portugal","tags":"amenity:bar","lat":-23.6664392,"lng":-46.5339711},{"id":"6456378186","name":"Animal House","tags":"shop:pet","lat":-23.6667753,"lng":-46.5291005},{"id":"6456378187","name":"Anhanguera","tags":"amenity:university","lat":-23.6681871,"lng":-46.5273598},{"id":"6456388685","name":"Droga Raia","tags":"amenity:pharmacy,brand:Droga Raia,brand:wikidata:Q10357101,brand:wikipedia:pt:RaiaDrogasil,healthcare:pharmacy","lat":-23.6666062,"lng":-46.5326067},{"id":"6456388686","name":"Dia","tags":"brand:Dia,brand:wikidata:Q925132,brand:wikipedia:es:Supermercados DIA,shop:supermarket","lat":-23.6655619,"lng":-46.5305818},{"id":"6456399085","name":"Colégio Moriah","tags":"amenity:school","lat":-23.6662642,"lng":-46.5298314},{"id":"6456417585","name":"Churrascaria São João","tags":"amenity:restaurant","lat":-23.6679119,"lng":-46.5259213},{"id":"6458922988","name":"Poupa Centro","tags":"amenity:pharmacy,healthcare:pharmacy","lat":-23.652179,"lng":-46.5298858},{"id":"6459606086","name":"La Carbonara","tags":"amenity:restaurant,cuisine:pizza","lat":-23.6609764,"lng":-46.5378645},{"id":"6459606289","name":"El Londrino","tags":"amenity:restaurant,cuisine:barbecue","lat":-23.6610221,"lng":-46.5379021},{"id":"6459606486","name":"Zensei Sushi","tags":"amenity:restaurant,cuisine:sushi","lat":-23.6610709,"lng":-46.5379211},{"id":"6459606488","tags":"amenity:parking","lat":-23.6583278,"lng":-46.5359003},{"id":"6459606489","name":"O Parceiro","tags":"amenity:restaurant","lat":-23.6581681,"lng":-46.5357177},{"id":"6459613485","name":"Drogasil","tags":"shop:chemist,survey:date:2019-12-25","lat":-23.6601332,"lng":-46.5378426},{"id":"6459797385","name":"Kizuna Sushi Lounge","tags":"amenity:restaurant,cuisine:japanese","lat":-23.6610172,"lng":-46.5324742},{"id":"6459797387","name":"Badak Crossfit","tags":"addr:street:Rua Doutor Cesário Bastos,leisure:fitness_centre,sport:fitness","lat":-23.6600321,"lng":-46.5362605},{"id":"6459824485","name":"Simbad","tags":"amenity:restaurant,cuisine:arab","lat":-23.6607569,"lng":-46.5349913},{"id":"6465645389","name":"Sushi ABC","tags":"amenity:restaurant,cuisine:sushi","lat":-23.6569174,"lng":-46.5377334},{"id":"6465650285","tags":"amenity:parking","lat":-23.655239,"lng":-46.5370761},{"id":"6465658389","name":"Sou Casa da Beleza","tags":"shop:beauty","lat":-23.6538019,"lng":-46.5370578},{"id":"6465658390","tags":"amenity:parking","lat":-23.653464,"lng":-46.53724},{"id":"6465658587","name":"El Botin","tags":"amenity:bar","lat":-23.6530655,"lng":-46.5374395},{"id":"6465660485","tags":"amenity:parking","lat":-23.6533882,"lng":-46.537071},{"id":"6466598387","name":"Alquimia Manipulação","tags":"amenity:pharmacy,dispensing:no,healthcare:pharmacy","lat":-23.6617033,"lng":-46.524967},{"id":"6466806186","name":"O Senador","tags":"amenity:restaurant","lat":-23.6615593,"lng":-46.5248378},{"id":"6466808686","name":"CPB","tags":"shop:books","lat":-23.6618969,"lng":-46.5280111},{"id":"6466808688","name":"Requinte do Sabor","tags":"amenity:restaurant","lat":-23.6616296,"lng":-46.5244192},{"id":"6466825588","name":"Enio's","tags":"amenity:restaurant","lat":-23.6527574,"lng":-46.5348497},{"id":"6466832385","name":"Tratoria Bellusconi","tags":"amenity:restaurant,cuisine:italian","lat":-23.654269,"lng":-46.5341433},{"id":"6467079386","name":"Bradesco","tags":"amenity:bank,brand:Bradesco,brand:wikidata:Q806181,brand:wikipedia:en:Banco Bradesco","lat":-23.6472414,"lng":-46.537227},{"id":"6467079387","name":"Hillarius Comedy Bar","tags":"amenity:bar","lat":-23.6467863,"lng":-46.5375173},{"id":"6671954743","name":"Prefeito Celso Daniel - Santo André","tags":"alt_name:Santo André,public_transport:station,railway:station,train:yes,wikidata:Q10276068,wikipedia:pt:Estação Prefeito Celso Daniel - Santo André","lat":-23.6521042,"lng":-46.5281802},{"id":"6860012750","name":"Casa da Palavra Mário Quintana","tags":"addr:city:Santo André,addr:housenumber:171,addr:postcode:09010-020,addr:street:Praça do Carmo,addr:suburb:Centro,amenity:library,description:Biblioteca especializada e espaço cultural aberto às manifestações da palavra como linguagem. Antiga residência de Dona Paulina Isabel de Queiroz.,opening_hours:Tu-Fr 09:30-17:00; PH off,operator:Prefeitura Municipal de Santo André,operator:type:public,phone:+55 11 4427 7701,short_name:Casa da Palavra,toilets:wheelchair:yes,website:http://culturaz.santoandre.sp.gov.br/espaco/135/","lat":-23.6576051,"lng":-46.5260422},{"id":"6897244307","name":"Mini Mercado Extra","tags":"shop:supermarket","lat":-23.669138,"lng":-46.5061342},{"id":"6897244309","name":"Sacolão São Jorge","tags":"shop:supermarket","lat":-23.672271,"lng":-46.5042646},{"id":"6897244311","name":"Novo Rosiclen Mercado e Padaria","tags":"addr:street:Avenida Guaianazes,shop:supermarket,short_name:Novo Rosiclen","lat":-23.6706849,"lng":-46.5042611},{"id":"6897244315","name":"Zacaria's Lava Rápido","tags":"addr:housenumber:763,addr:street:Avenida Queirós Filho,amenity:car_wash","lat":-23.6704196,"lng":-46.5054218},{"id":"6897244338","name":"Joanin","tags":"shop:supermarket","lat":-23.6783292,"lng":-46.4983685},{"id":"6897244344","name":"Santander","tags":"amenity:bank,brand:Santander,brand:wikidata:Q5835668,brand:wikipedia:en:Santander Bank","lat":-23.6582754,"lng":-46.5256639},{"id":"6897244345","name":"Caixa Econômica Federal","tags":"amenity:bank,brand:Caixa Econômica Federal,brand:wikidata:Q835283,brand:wikipedia:pt:Caixa Econômica Federal","lat":-23.6583473,"lng":-46.5261506},{"id":"6897244346","name":"Caixa Econômica Federal","tags":"amenity:bank,brand:Caixa Econômica Federal,brand:wikidata:Q835283,brand:wikipedia:pt:Caixa Econômica Federal","lat":-23.6704222,"lng":-46.5136621},{"id":"6897244347","name":"Santander","tags":"amenity:bank,brand:Santander,brand:wikidata:Q5835668,brand:wikipedia:en:Santander Bank","lat":-23.6695628,"lng":-46.5140948},{"id":"6899251153","name":"Biblioteca Vila Humaitá","tags":"addr:street:Rua Guerra Junqueira,amenity:library,indoor:room,opening_hours:Mo-Fr 08:00-11:00, 12:00-17:00; Sa,Su,PH off,website:http://culturaz.santoandre.sp.gov.br/espaco/27,wheelchair:yes","lat":-23.6752262,"lng":-46.5052892},{"id":"6901703557","name":"Drogaria Coop","tags":"amenity:pharmacy,healthcare:pharmacy","lat":-23.6700387,"lng":-46.5058968},{"id":"6901800149","name":"Academia Sport Fitness","tags":"addr:housenumber:841,addr:street:Avenida Guaianazes,leisure:fitness_centre","lat":-23.6701307,"lng":-46.5035825},{"id":"6901800152","name":"Shop Dog Pesk","tags":"addr:housenumber:882,addr:street:Avenida Guaianazes,shop:pet","lat":-23.6703201,"lng":-46.5039619},{"id":"6901809555","name":"Polícia Militar","tags":"addr:housenumber:619,addr:street:Avenida Guaianazes,amenity:police,description:3ª Companhia do 41º BPM/M.","lat":-23.6682127,"lng":-46.5022046},{"id":"6948747405","name":"Mix","tags":"addr:city:Santo André,addr:housenumber:1151,addr:street:Avenida Queirós Filho,addr:suburb:Vila Humaitá,shop:supermarket","lat":-23.6732959,"lng":-46.5036681},{"id":"6997213814","name":"Tia Paula","tags":"addr:city:Santo André,addr:housenumber:1026,addr:street:Avenida Guaianazes,amenity:restaurant,delivery:no,opening_hours:Mo-Sa 11:00-14:30,phone:+55 11 4474-6655","lat":-23.6711868,"lng":-46.5046087},{"id":"6997213815","name":"Washi Sushi","tags":"addr:city:Santo André,addr:housenumber:23,addr:street:Praça Queirós,addr:suburb:Vila Humaitá,amenity:restaurant,cuisine:japanese,opening_hours:Tu-Th 11:00-22:00; Fr,Sa 12:00-23:00; Su 17:00-23:00; PH off,phone:+55 11 4902-3163;+55 11 95554-7267","lat":-23.6736961,"lng":-46.5037769},{"id":"6997213816","name":"Mineiro Delivery","tags":"addr:city:Santo André,addr:housenumber:800,addr:street:Avenida Guaianazes,amenity:restaurant,cuisine:brazilian;mineira,website:https://www.mineirodelivery.com.br/unidade/santo-andre-vila-homero","lat":-23.6696776,"lng":-46.5035298},{"id":"7004626268","name":"Ville Mercado","tags":"shop:supermarket","lat":-23.6749499,"lng":-46.4998211},{"id":"7005097603","name":"Restaurante Brasileirinho","tags":"addr:city:Santo André,addr:housenumber:1048,addr:street:Avenida Pedro Américo,addr:unit:2,amenity:restaurant","lat":-23.6688392,"lng":-46.5043029},{"id":"7005097605","name":"Charles","tags":"addr:city:Santo André,addr:housenumber:13,addr:street:Rua Caiçara,amenity:restaurant,cuisine:pizza,delivery:yes","lat":-23.6707531,"lng":-46.503798},{"id":"7005097606","name":"Rocha","tags":"addr:city:Santo André,addr:housenumber:1094,addr:street:Avenida Pedro Américo,amenity:restaurant,cuisine:pizza,delivery:yes","lat":-23.6689457,"lng":-46.5039074},{"id":"7005097607","name":"Tuchê","tags":"addr:city:Santo André,addr:housenumber:48,addr:street:Avenida Valentim Magalhães,addr:unit:2,amenity:restaurant,cuisine:pizza,delivery:yes","lat":-23.6705316,"lng":-46.5015611},{"id":"7010142424","name":"Mercadinho Homero Thon","tags":"addr:city:Santo André,addr:housenumber:227,addr:street:Rua César de Menezes,addr:suburb:Vila Homero Thon,shop:convenience","lat":-23.6655753,"lng":-46.5040592},{"id":"7065137140","name":"Figueiredos","tags":"addr:city:Santo André,addr:housenumber:123,addr:street:Rua Fernando de Mascarenhas,addr:suburb:Vila Humaitá,amenity:restaurant,delivery:yes,description:Comida caseira.,phone:+55 11 3458-5249","lat":-23.6714812,"lng":-46.5039919},{"id":"7065137141","name":"Restaurante Santo André","tags":"addr:city:Santo André,addr:housenumber:1713,addr:street:Avenida Queirós Filho,addr:suburb:Vila Progresso,amenity:restaurant,delivery:yes,phone:+55 11 3458-5444","lat":-23.6783789,"lng":-46.5007223},{"id":"7078549530","name":"Casa Bar","tags":"amenity:bar","lat":-23.6681347,"lng":-46.504995},{"id":"7084555185","name":"Mr. Hoppy","tags":"amenity:restaurant,cuisine:burger,survey:date:2019-12-25","lat":-23.6604197,"lng":-46.5379016},{"id":"7084592485","name":"Smash","tags":"amenity:restaurant,survey:date:2019-12-25","lat":-23.6596364,"lng":-46.5369097},{"id":"7084592487","tags":"amenity:parking,parking:surface,survey:date:2019-12-25","lat":-23.6578719,"lng":-46.5353098},{"id":"7084595185","name":"Chef da Vila","tags":"amenity:restaurant,survey:date:2019-12-25","lat":-23.6578703,"lng":-46.5346909},{"id":"7084670885","name":"BB Estilo","tags":"amenity:bank,survey:date:2019-12-25","lat":-23.6605212,"lng":-46.5319748},{"id":"7084708885","name":"Temperati","tags":"amenity:restaurant,survey:date:2019-12-25","lat":-23.6608976,"lng":-46.5324087},{"id":"7084709087","name":"Café Amabile","tags":"amenity:cafe,survey:date:2019-12-25","lat":-23.6624513,"lng":-46.5332223},{"id":"7084709088","name":"Kindai","tags":"shop:beauty,survey:date:2019-12-25","lat":-23.664738,"lng":-46.5337617},{"id":"7084723988","name":"Fran's","tags":"amenity:cafe,survey:date:2019-12-25","lat":-23.6657035,"lng":-46.5340266},{"id":"7084724485","name":"ExtraFarma","tags":"shop:chemist,survey:date:2019-12-25","lat":-23.6652361,"lng":-46.5339175},{"id":"7084772786","name":"Cheflera","tags":"shop:beauty,survey:date:2019-12-25","lat":-23.6683467,"lng":-46.5379964},{"id":"7084775685","name":"Kandai","tags":"amenity:restaurant,cuisine:sushi,survey:date:2019-12-25","lat":-23.6682764,"lng":-46.538054},{"id":"7086604887","name":"Blue Fit","tags":"leisure:fitness_centre,survey:date:2019-12-26","lat":-23.6632194,"lng":-46.5300433},{"id":"7086763287","name":"Banco do Brasil","tags":"amenity:bank,brand:Banco do Brasil,brand:wikidata:Q610817,brand:wikipedia:en:Banco do Brasil,survey:date:2019-12-26","lat":-23.660497,"lng":-46.5257925},{"id":"7086763386","name":"Studio Pro Up","tags":"leisure:fitness_centre,survey:date:2019-12-26","lat":-23.664443,"lng":-46.5265743},{"id":"7086763585","name":"Itaú","tags":"amenity:bank,survey:date:2019-12-26","lat":-23.6609661,"lng":-46.5255081},{"id":"7097875046","name":"Polícia Militar","tags":"addr:street:Rua Décio Carmo Bianco,amenity:police","lat":-23.6465107,"lng":-46.4975906},{"id":"7107671587","name":"Feliz Farma","tags":"amenity:pharmacy,healthcare:pharmacy,survey:date:2020-01-04","lat":-23.6548238,"lng":-46.528779},{"id":"7107671688","name":"Feliz Farma","tags":"amenity:pharmacy,healthcare:pharmacy,survey:date:2020-01-04","lat":-23.6544533,"lng":-46.5279656},{"id":"7107779288","name":"Yule Cosméticos","tags":"shop:beauty,survey:date:2020-01-04","lat":-23.6550429,"lng":-46.5283877},{"id":"7107779385","name":"Drogasil","tags":"amenity:pharmacy,brand:Drogasil,brand:wikidata:Q5308185,brand:wikipedia:pt:Drogasil,healthcare:pharmacy,survey:date:2020-01-04,wheelchair:yes","lat":-23.6548048,"lng":-46.5282085},{"id":"7115801798","name":"Guarda Municipal de Santo André","tags":"amenity:police,operator:Prefeitura Municipal de Santo André","lat":-23.6706964,"lng":-46.5104779},{"id":"7117348860","name":"Giolly Gastronomia","tags":"addr:city:Santo André,addr:housenumber:549,addr:street:Rua 24 de Maio,addr:suburb:Vila América,amenity:restaurant,cuisine:regional;pizza,phone:+55 11 2379 8950","lat":-23.6681654,"lng":-46.5088502},{"id":"7117348861","name":"Pizzaria Mamma Mia","tags":"addr:city:Santo André,addr:housenumber:455,addr:street:Avenida Queirós Filho,addr:suburb:Vila América,amenity:restaurant,cuisine:pizza,phone:+55 11 3969 2836","lat":-23.6679685,"lng":-46.5068865},{"id":"7121758502","name":"Avicultura São Joaquim","tags":"pet:bird,shop:pet","lat":-23.6677606,"lng":-46.5072759},{"id":"7533922738","name":"Marie Refeições","tags":"addr:housenumber:118,addr:street:Rua Laura,amenity:restaurant,cuisine:regional,opening_hours:Mo-Fr 07:00-16:00","lat":-23.6591459,"lng":-46.5338234},{"id":"8353685173","name":"Caixa Econômica Federal","tags":"amenity:bank,atm:yes,brand:Caixa Econômica Federal,brand:wikidata:Q835283,brand:wikipedia:pt:Caixa Econômica Federal","lat":-23.6488751,"lng":-46.532806},{"id":"8824613072","name":"Mais 1 Café - Santo André","tags":"addr:city:Santo André,addr:housenumber:218,addr:postcode:09020-160,addr:street:Rua Dona Elisa Flaquer,addr:suburb:Centro,amenity:cafe,cuisine:coffee,website:https://www.mais1cafe.com.br","lat":-23.6581542,"lng":-46.5284147},{"id":"9210241419","name":"Romarella","tags":"amenity:restaurant,cuisine:pizza,survey:date:2021-10-29","lat":-23.671509,"lng":-46.518826},{"id":"9210241717","name":"Villa's","tags":"amenity:restaurant,cuisine:pizza,survey:date:2021-10-29","lat":-23.6763777,"lng":-46.5162329},{"id":"9210484717","name":"Babbo Giovanni","tags":"amenity:restaurant,cuisine:pizza,survey:date:2021-10-29","lat":-23.6558218,"lng":-46.535699},{"id":"9254787578","name":"PanoBianco Academia","tags":"addr:housenumber:1228,addr:street:Avenida Pereira Barreto,addr:suburb:Paraíso,leisure:fitness_centre,sport:fitness,website:https://www.panobiancoacademia.com.br/","lat":-23.6770261,"lng":-46.5372242},{"id":"9254839750","name":"Coop Pereira Barreto","tags":"addr:street:Avenida Pereira Barreto,addr:suburb:Pinheirinho,opening_hours:Mo-Su,PH 08:00-21:45,phone:+55 11 4429 5717,shop:supermarket","lat":-23.6776512,"lng":-46.5380817},{"id":"9632492777","name":"Shell","tags":"addr:street:Avenida Dom Pedro II,brand:Shell,brand:wikidata:Q110716465,shop:convenience","lat":-23.6521455,"lng":-46.534305},{"id":"9718792952","name":"Assaí Atacadista","tags":"brand:Assaí Atacadista,shop:supermarket","lat":-23.6643787,"lng":-46.4968744},{"id":"9754462018","name":"Casa da Esperança Cento Neurologico","tags":"amenity:hospital,healthcare:hospital,kids_area:no,kids_area:fee:no,kids_area:indoor:no,kids_area:outdoor:no,kids_area:supervised:no","lat":-23.6660263,"lng":-46.5282329},{"id":"9952885795","name":"Supermercado Assunção","tags":"addr:city:Santo André,addr:country:BR,addr:housenumber:337,addr:postcode:09020-270,addr:street:Rua Guilherme Marconi,addr:suburb:Vila Assunção,opening_hours:Mo-Sa 07:00-20:00; Su 08:00-14:00,phone:+55 11 98981-0062,shop:supermarket","lat":-23.6675511,"lng":-46.5251715},{"id":"10308995983","name":"Parada Pirelli","tags":"disused:railway:halt,end_date:2006,public_transport:station,train:no,wikidata:Q10344493,wikipedia:pt:Parada Pirelli","lat":-23.6605009,"lng":-46.5036683}]