[{"id":"445449949","name":"Tenis Club","tags":"amenity:restaurant","lat":-23.4905471,"lng":-46.8437063},{"id":"761884079","name":"Grillarica","tags":"amenity:restaurant","lat":-23.5031267,"lng":-46.8240322},{"id":"764539088","tags":"amenity:restaurant","lat":-23.5012754,"lng":-46.8357859},{"id":"4321293793","name":"Posto Policial Tamboré","tags":"amenity:police","lat":-23.5030347,"lng":-46.8307185},{"id":"5771828516","name":"Escola Municipal de Educação Fundamental Professor João Campestrini","tags":"addr:city:Osasco,addr:housenumber:77,addr:postcode:06246 150,addr:street:Rua Reinaldo Ceschini,addr:suburb:Munhoz Júnior,amenity:school,contact:phone:+55 11 3686 5060,email:emefjoaocampestrini@gmail.com,operator:Secretaria Municipal da Educação,operator:type:government,phone:+55 11 3602 5611","lat":-23.4991721,"lng":-46.8083393},{"id":"6140753951","name":"Mercadinho NewLar","tags":"addr:street:Rua Antônio Alves Ribeiro,amenity:atm,shop:convenience","lat":-23.5031163,"lng":-46.8021698},{"id":"6335885102","name":"Colégio Presbeteriano Mackensie","tags":"addr:street:Avenida Mackenzie,amenity:school,denomination:presbyterian,religion:christian,website:https://www.mackenzie.br/colegios/alphaville-tambore/","lat":-23.4883142,"lng":-46.8315508},{"id":"6338772114","name":"Petz","tags":"addr:postcode:06455-000,addr:street:Alameda Araguaia,opening_hours:Mo-Su 08:00-22:00; PH off,phone:+55 11 2181 7385,shop:pet,website:https://www.petz.com.br/","lat":-23.5000741,"lng":-46.8409231},{"id":"6338822950","name":"Box 57 Pizza Delevery","tags":"addr:street:Alameda Amazonas,amenity:restaurant,cuisine:pizza,delivery:yes,outdoor_seating:no","lat":-23.4935888,"lng":-46.8428104},{"id":"6379943889","name":"Academia Opportunity Fitness","tags":"leisure:fitness_centre,sport:exercise","lat":-23.4830944,"lng":-46.8068068},{"id":"6450216705","tags":"shop:supermarket","lat":-23.4879237,"lng":-46.806866},{"id":"7426198370","tags":"amenity:restaurant,cuisine:pizza","lat":-23.4879891,"lng":-46.81018}]