[{"id":"4593623418","name":"Itapevi","tags":"network:CPTM,public_transport:station,railway:station,train:yes,wikidata:Q10275882","lat":-23.545531,"lng":-46.9352563},{"id":"4593637408","name":"Santa Rita","tags":"public_transport:station,railway:halt,train:yes,wikidata:Q10344494","lat":-23.5449666,"lng":-46.9474792},{"id":"4953446226","name":"Supermercado Paraná","tags":"addr:street:Rodovia Engenheiro Renê Benedito da Silva,addr:suburb:Jardim Marina,payment:cash:yes,payment:coins:yes,payment:credit_cards:yes,payment:debit_cards:yes,payment:notes:yes,shop:supermarket","lat":-23.544427,"lng":-46.9554683},{"id":"4953446232","name":"Escola Batista de Itapevi","tags":"addr:city:Itapevi,addr:housenumber:159,addr:street:Rua Joaquim Nunes,addr:suburb:Centro,amenity:school,contact:phone:+55 11 4142 9028;+55 11 4142 4227,name:pt:Escola Batista de Itapevi,phone:+55 11 4141 4163,website:http://www.escolabatista.com.br","lat":-23.547862,"lng":-46.9345577},{"id":"4953446424","name":"Colégio Alcance","tags":"addr:street:Rua Orlando Higino de Moraes,amenity:school,name:pt:Colego Alcance","lat":-23.5427419,"lng":-46.9339049},{"id":"4953446524","name":"Cantinho da Alegria","tags":"addr:street:Rua Olímpia M de Castro,amenity:childcare,name:pt:Cantinho da Alegria,opening_hours:Mo-Su 07:00-20:30","lat":-23.5461793,"lng":-46.9516962},{"id":"4953446725","name":"San Supermercados","tags":"addr:city:Itapevi,addr:country:BR,addr:housenumber:02,addr:postcode:06663-300,addr:street:Rua Ana Maria Vaz,addr:suburb:Cohab,name:pt:San Supermercados,opening_hours:Mo-Sa 07:00-22:00; Su 07:00-16:00,operator:San,shop:supermarket,website:http://sansupermercados.com.br/","lat":-23.551332,"lng":-46.9378336},{"id":"4953448821","name":"Banco 24 Horas - Itapevi Center","tags":"addr:housenumber:200,addr:street:Rodovia Engenheiro Renê Benedito Silva,amenity:bank,name:pt:Banco 24 Horas - Itapevi Center","lat":-23.5497243,"lng":-46.9398503},{"id":"4953448822","name":"Supermercado Lopes - Itapevi","tags":"addr:city:Itapevi,addr:country:BR,addr:housenumber:200,addr:postcode:06683-000,addr:street:Rodovia Engenheiro Renê Benedito Silva,addr:suburb:Centro,name:pt:Supermercado Lopes - Itapevi,opening_hours:Mo-Sa 08:00-22:00; Su,PH 08:00-20:00,phone:+55 4142 5368,shop:supermarket,website:www.superlopes.com.br","lat":-23.549587,"lng":-46.9397611},{"id":"5546451646","tags":"shop:convenience","lat":-23.539061,"lng":-46.9341297},{"id":"6202472996","name":"Bradesco","tags":"addr:street:Rodovia Engenheiro Renê Benedito Silva,amenity:bank,atm:yes,brand:Bradesco,brand:wikidata:Q806181,brand:wikipedia:en:Banco Bradesco","lat":-23.5495328,"lng":-46.9399999},{"id":"6638425688","name":"Escola C.E.I Doutor José Neyde Cessar Lessa","tags":"addr:housenumber:900,addr:postcode:06693-110,addr:street:Avenida Presidente Getúlio Vargas,amenity:school,name:pt:Escola Estadual Dr. José Neyde Cessar Lessa,opening_hours:Mo-Fr 07:00-22:00,phone:+55 11 4141 3126","lat":-23.5377596,"lng":-46.9390565},{"id":"6647303685","name":"Cacaw show store","tags":"addr:housenumber:140,addr:postcode:06695-570,addr:street:Estrada Antiga de Itu,name:pt:Mega store Cacau Show,opening_hours:Mo-Su 10:00-19:00,shop:convenience,website:http://www.cacaushow.com.br/megastore/","lat":-23.5164102,"lng":-46.9665496},{"id":"8790918098","name":"Parque Municipal de Itapevi (Parque da Cidade)","tags":"addr:city:Itapevi,addr:street:Rua Samuel da Rocha Galvão,addr:suburb:Vila Nova Itapevi,leisure:park,opening_hours:Mo-Su 08:00-21:00,opening_hours:covid19:restricted,operator:Prefeitura","lat":-23.5344749,"lng":-46.9375333},{"id":"9828723393","name":"Antiga Parada Cimenrita","tags":"public_transport:station,railway:station,train:yes,wikidata:Q10344488,wikipedia:pt:Parada Cimenrita","lat":-23.5418532,"lng":-46.9578933},{"id":"9828739748","name":"Antiga Parada Ambuitá","tags":"addr:city:Itapevi,addr:street:Estrada Itapevi-Ambuitá - Rua Doutor José Alexandre Crosgnac,addr:suburb:Ambuitá,operator:ViaMobilidade,public_transport:station,railway:station,train:yes,wikidata:Q10344486,wikipedia:pt:Parada Ambuitá","lat":-23.5304145,"lng":-46.9726399},{"id":"10137846184","name":"Delegacia de Polícia de Itapevi - Doutor João Roberto Costa","tags":"addr:city:Itapevi,addr:postcode:06653-005,addr:street:Avenida Feres Nascif Chaluppe,addr:suburb:Centro,amenity:police,opening_hours:24/7,operator:Policia Civil,phone:(11) 4142-3756","lat":-23.5487809,"lng":-46.9377494}]