[{"id":"1812386842","name":"Beto's Supermercado","tags":"shop:supermarket","lat":-23.4336759,"lng":-46.7145275},{"id":"2426980005","name":"Parque Pinheirinho D'Água","tags":"leisure:sports_centre","lat":-23.43959,"lng":-46.7264268},{"id":"2426981697","tags":"amenity:atm,currency:BRL:yes,fee:brades,itau e 24h,operator:Banco 24H","lat":-23.4363224,"lng":-46.720037},{"id":"2426981713","tags":"amenity:atm,fee:brades,itau e 24h,operator:brades,itau e 24h","lat":-23.4417851,"lng":-46.7217383},{"id":"2426982170","name":"Bradesco","tags":"amenity:bank,brand:Bradesco,brand:wikidata:Q806181,brand:wikipedia:en:Banco Bradesco","lat":-23.4394227,"lng":-46.7215452},{"id":"2426982520","name":"Itaú","tags":"addr:street:Avenida Raimundo Pereira de Magalhães,amenity:bank,atm:yes,brand:Itaú Unibanco,brand:wikidata:Q1424293,brand:wikipedia:pt:Itaú Unibanco,drive_through:no","lat":-23.4344907,"lng":-46.7202339},{"id":"2427919104","tags":"shop:convenience","lat":-23.4413054,"lng":-46.7207661},{"id":"2427933900","name":"Caixa Econômica Federal","tags":"addr:street:Estrada das Taipas,amenity:bank,atm:yes,brand:Caixa Econômica Federal,brand:wikidata:Q835283,brand:wikipedia:pt:Caixa Econômica Federal,drive_through:no","lat":-23.4336593,"lng":-46.7203101},{"id":"2427938885","tags":"shop:supermarket","lat":-23.4323082,"lng":-46.7199721},{"id":"2427939408","tags":"amenity:pharmacy","lat":-23.4368487,"lng":-46.7189448},{"id":"2427951210","name":"Rua Ângelo Gayoto, 63","tags":"amenity:bus_station,bus:yes,description:Rua Ângelo Gayoto, 63 Ref.: Av Elisio Teixeira Leite/ R Cordeiro Da Silva,gtfs_id:410003584,network:SPTRANS,public_transport:platform,route_ref:957T-10","lat":-23.4362086,"lng":-46.7169882},{"id":"2427968563","tags":"leisure:sports_centre","lat":-23.4402043,"lng":-46.7315505},{"id":"2427983122","tags":"amenity:school","lat":-23.4455098,"lng":-46.7310731},{"id":"2427983350","tags":"amenity:police","lat":-23.4480591,"lng":-46.7350159},{"id":"2427983352","tags":"amenity:police","lat":-23.447754,"lng":-46.7346833},{"id":"2427984007","name":"Supermercado Extra","tags":"addr:housenumber:997,addr:postcode:02991-000,addr:street:Estrada de Taipas,opening_hours:Mo-Sa 08:00-22:00; Su 08:00-21:00,phone:01139413097,shop:supermarket,website:https://www.extra.com.br/","lat":-23.4492206,"lng":-46.7349086},{"id":"2427984029","name":"Bradesco","tags":"amenity:bank","lat":-23.4496956,"lng":-46.735287},{"id":"2427984083","name":"Itau","tags":"amenity:bank","lat":-23.4500234,"lng":-46.735282},{"id":"2427984113","tags":"amenity:bar","lat":-23.4499051,"lng":-46.7352042},{"id":"2427990379","tags":"amenity:pharmacy","lat":-23.4495946,"lng":-46.7351232},{"id":"2428087797","tags":"amenity:parking","lat":-23.439551,"lng":-46.7218396},{"id":"2428087911","tags":"amenity:parking","lat":-23.4366077,"lng":-46.7185699},{"id":"2428097479","tags":"amenity:parking","lat":-23.4627747,"lng":-46.7538651},{"id":"2428261663","tags":"shop:supermarket","lat":-23.45314,"lng":-46.7496577},{"id":"3876061775","name":"Marialva","tags":"addr:street:Estrada de Taipas,opening_hours:Mo-Su 08:00-21:00,shop:supermarket","lat":-23.4380159,"lng":-46.7289191},{"id":"4298667793","name":"Supermercado Violeta","tags":"addr:housenumber:278,addr:postcode:02991-000,addr:street:Estrada de Taipas,opening_hours:Mo-Fr 07:00-21:30; Su 08:00-19:30; Sa 07:00-21:30,phone:01139428190,shop:supermarket,website:http://supermercadovioleta.com.br","lat":-23.4527997,"lng":-46.7366788},{"id":"4298667997","name":"Caixa Econômica","tags":"addr:housenumber:355,addr:postcode:02995-145,addr:street:Estrada de Taipas,amenity:bank,phone:01122236500,website:http://www.caixa.com.br","lat":-23.4523414,"lng":-46.7360428},{"id":"4449870322","name":"Vila Aurora","tags":"internet_access:no,network:CPTM,public_transport:station,railway:station,train:yes","lat":-23.4374326,"lng":-46.7473438},{"id":"5874721312","tags":"shop:convenience","lat":-23.4471848,"lng":-46.7218741},{"id":"6296119158","name":"8017-10","tags":"amenity:bus_station,bus:yes,gtfs_id:4114477,network:SPTRANS,public_transport:station,route_ref:8017-10","lat":-23.43824,"lng":-46.746845},{"id":"6389750121","tags":"amenity:parking","lat":-23.4430834,"lng":-46.7154018},{"id":"6551663556","name":"Dona Diva","tags":"shop:convenience","lat":-23.4432016,"lng":-46.7152636},{"id":"6578673550","tags":"amenity:atm,currency:BRL:yes,operator:Itaú","lat":-23.4362143,"lng":-46.7200162},{"id":"6578673551","tags":"amenity:atm,currency:BRL:yes,drive_through:no,operator:Bradesco","lat":-23.4361036,"lng":-46.7199813},{"id":"6669966612","name":"Jaraguá","tags":"network:CPTM,public_transport:station,railway:halt,train:yes","lat":-23.4551129,"lng":-46.738797},{"id":"7285255157","tags":"amenity:car_wash","lat":-23.4470267,"lng":-46.7219323},{"id":"7811220506","name":"Emei Thais Motta De Oliveira e Silva Rodrigues","tags":"addr:city:SP,addr:housenumber:s/n,addr:postcode:02815-060,addr:street:Rua Diógenes Dourado,amenity:school,email:emeitrodrigues@sme.prefeitura.sp.gov.br,website:http://eolgerenciamento.prefeitura.sp.gov.br/frmgerencial/menuescola.aspx?Cod=019467,wheelchair:yes","lat":-23.4449599,"lng":-46.7156122},{"id":"8530459617","name":"Leda Farma","tags":"amenity:pharmacy,dispensing:yes,healthcare:pharmacy","lat":-23.4377806,"lng":-46.7287656},{"id":"8530459618","tags":"shop:pet","lat":-23.4376871,"lng":-46.7287974},{"id":"8530459621","name":"Ama City Jaraguá","tags":"amenity:hospital,healthcare:hospital","lat":-23.4417913,"lng":-46.7341838}]