[{"id":"1838773799","name":"Bom Apetite","tags":"amenity:restaurant,cuisine:regional","lat":-23.5439211,"lng":-46.4440081},{"id":"2768212760","name":"Biblioteca Jamil Almansur Haddad","tags":"addr:city:São Paulo,addr:housenumber:218,addr:postcode:08450-050,addr:street:Rua Belmiro Valverde,amenity:library,operator:Prefeitura de São Paulo","lat":-23.5374648,"lng":-46.4097264},{"id":"2833502754","name":"Droga Leste","tags":"addr:city:São Paulo,addr:housenumber:38,addr:postcode:08451-000,addr:street:Estrada do Lageado Velho,amenity:pharmacy,opening_hours:24/7,operator:Rede Droga Leste","lat":-23.538142,"lng":-46.4064776},{"id":"3675469325","name":"Bifarma","tags":"addr:city:São Paulo,addr:housenumber:2548,addr:postcode:08420-000,addr:street:Estrada Itaquera Guaianazes,amenity:pharmacy","lat":-23.5424749,"lng":-46.425177},{"id":"3675469329","name":"Caixa","tags":"addr:city:São Paulo,addr:housenumber:2128,addr:postcode:08420-000,addr:street:Estrada Itaquera Guaianazes,amenity:bank","lat":-23.5389276,"lng":-46.4267792},{"id":"3677576096","name":"HSBC","tags":"addr:city:São Paulo,addr:housenumber:958,addr:postcode:08410-000,addr:street:Rua Salvador Gianetti,amenity:bank","lat":-23.5432977,"lng":-46.413036},{"id":"3677576097","tags":"addr:city:São Paulo,addr:housenumber:920,addr:postcode:08410-000,addr:street:Rua Salvador Gianetti,amenity:parking","lat":-23.5432001,"lng":-46.4133648},{"id":"3830123439","name":"Policia Militar","tags":"amenity:police","lat":-23.5228266,"lng":-46.4282184},{"id":"4024028690","tags":"addr:city:São Paulo,addr:housenumber:496,addr:postcode:08420-280,addr:street:Avenida Professor Osvaldo de Oliveira,amenity:pharmacy","lat":-23.5427098,"lng":-46.4303189},{"id":"4580167464","name":"Dom Bosco","tags":"public_transport:station,railway:station,train:yes,wikidata:Q10275693","lat":-23.5417667,"lng":-46.4481313},{"id":"4580257954","name":"José Bonifácio","tags":"public_transport:station,railway:station,train:yes,wikidata:Q10275901","lat":-23.5391227,"lng":-46.4316726},{"id":"5263875957","name":"Biblioteca Vinícius de Morais","tags":"addr:housenumber:1119,addr:postcode:08255-010,addr:street:Rua Jardim Tamoio,addr:suburb:Conjunto Residencial José Bonifácio,amenity:library,email:bcsp.vmorais@prefeitura.sp.gov.br,internet_access:wlan,internet_access:fee:no,opening_hours:Mo-Fr 08:00-17:00; Sa 10:00-17:00,phone:+55 11 2521-6914,website:https://www.prefeitura.sp.gov.br/cidade/secretarias/cultura/bibliotecas/bibliotecas_bairro/bibliotecas_m_z/viniciusdemorais","lat":-23.553241,"lng":-46.4363764},{"id":"5878700233","name":"Correios","tags":"amenity:post_office,operator:Empresa Brasileira de Correios e Telegrafos","lat":-23.541554,"lng":-46.4106334},{"id":"5879881259","name":"Itaú","tags":"addr:city:São Paulo,addr:housenumber:113,addr:street:Rua Otelo Augusto Ribeiro,amenity:bank,atm:yes","lat":-23.5449682,"lng":-46.4096631},{"id":"5879881268","name":"Bradesco","tags":"addr:city:São Paulo,addr:housenumber:132,addr:street:Rua Otelo Augusto Ribeiro,amenity:bank,atm:yes","lat":-23.5451189,"lng":-46.4100467},{"id":"5879881269","name":"Biblioteca Municipal Cora Coralina","tags":"addr:city:São Paulo,addr:street:Rua Otelo Augusto Ribeiro,amenity:library","lat":-23.5445754,"lng":-46.4097905},{"id":"5885771475","name":"Centro Comercial","tags":"addr:city:São Paulo,addr:street:Rua Augusto Cavalcante,addr:suburb:Conjunto Residencial José Bonifacio,shop:mall","lat":-23.545441,"lng":-46.4363732},{"id":"5885771476","name":"Centro Comercial","tags":"addr:city:São Paulo,addr:street:Rua Augusto Cavalcante,addr:suburb:Conjunto Residencial José Bonifacio,opening_hours:08:00-18:00,shop:mall","lat":-23.5454287,"lng":-46.4365268},{"id":"5885771477","name":"Centro Comercial","tags":"addr:city:São Paulo,addr:street:Rua Augusto Cavalcante,addr:suburb:Conjunto Residencial José Bonifacio,opening_hours:08:00-18:00,shop:mall","lat":-23.5458774,"lng":-46.436449},{"id":"5885771478","name":"Centro Comercial","tags":"addr:city:São Paulo,addr:street:Rua Augusto Cavalcante,addr:suburb:Conjunto Residencial José Bonifacio,opening_hours:08:00-18:00,shop:mall","lat":-23.545859,"lng":-46.4365885},{"id":"6384514368","name":"Avenida João Batista Santiago (pça. Nova União), 1397","tags":"addr:city:São Paulo,addr:housenumber:1410,addr:postcode:08150-030,addr:street:Avenida João Batista Santiago,amenity:bus_station,bench:yes,bus:yes,departures_board:yes,gtfs_id:8615243,gtfs_stop_desc:Avenida João Batista Santiago (pça. Nova União), 1397 Ref.: R Jose Maria Alves de Deus / R Pedro Geraldo,lit:yes,network:SPTRANS,public_transport:station,route_ref:2772-10,shelter:yes,surface:concrete,website:www.sptrans.com.br","lat":-23.5237589,"lng":-46.4105865},{"id":"6388923783","name":"Academia Oxi Fitness","tags":"addr:city:São Paulo,addr:street:Rua Samuel Pedro dos Santos,addr:suburb:Jardim Robru,leisure:fitness_centre","lat":-23.5224097,"lng":-46.4119074},{"id":"6388924086","name":"Perfumaria Novo Estilo","tags":"amenity:pharmacy,dispensing:yes,healthcare:pharmacy","lat":-23.5215672,"lng":-46.412628},{"id":"6388924089","name":"Pede Bis II","tags":"amenity:restaurant,cuisine:pizza","lat":-23.5216721,"lng":-46.4122173},{"id":"6388938234","name":"Supermercado Higas","tags":"addr:city:São Paulo,addr:street:Rua José Maria Alves de Deus,addr:suburb:Jardim Robru,shop:supermarket","lat":-23.5208931,"lng":-46.4132186},{"id":"6388954786","name":"Drogaria Robru","tags":"shop:chemist","lat":-23.5210872,"lng":-46.4127213},{"id":"6388954789","name":"Pet Shop Robru","tags":"shop:pet","lat":-23.5211327,"lng":-46.4126454},{"id":"6666741370","name":"Guaianases","tags":"alt_name:Guaianazes,operator:Companhia Paulista de Trens Metropolitanos,platforms:4,public_transport:station,railway:station,train:yes","lat":-23.542331,"lng":-46.4157007},{"id":"6719073234","name":"Drogalis","tags":"addr:city:São Paulo,addr:housenumber:570,addr:postcode:08410-000,addr:street:Rua Salvador Gianetti,amenity:pharmacy,healthcare:pharmacy","lat":-23.5426105,"lng":-46.4168754},{"id":"7862461158","name":"Dr João Augusto Breves","tags":"amenity:school","lat":-23.5222659,"lng":-46.4360369},{"id":"7862461159","name":"Salão da Lilia","tags":"beauty:nails;hair;eyebrow;foot,opening_hours:Mo-Su 10:00-22:00,shop:beauty","lat":-23.5226093,"lng":-46.4375173},{"id":"7862461161","name":"EMEF Padre José de Anchieta","tags":"amenity:school","lat":-23.519004,"lng":-46.4395536},{"id":"7862461162","tags":"shop:supermarket","lat":-23.5188344,"lng":-46.4403075},{"id":"8235089303","name":"Terminal Guaianazes Sul","tags":"amenity:bus_station,bus:yes,operator:EMTU,public_transport:station","lat":-23.5428972,"lng":-46.4161038},{"id":"8235089304","name":"Terminal Guaianases Norte","tags":"amenity:bus_station,bus:yes,public_transport:station","lat":-23.5418313,"lng":-46.4162177},{"id":"8238100582","name":"Estação Velha Guaianazes (Desativado)","tags":"public_transport:station,railway:halt,train:yes","lat":-23.5436212,"lng":-46.4108945},{"id":"8812964449","name":"EE Luiz Vaz de Camões","tags":"addr:city:São Paulo,addr:housenumber:132,addr:postcode:08253-495,addr:street:Rua João Pedro Luna,addr:suburb:Conj. Res. José Bonifácio,amenity:school","lat":-23.55029,"lng":-46.4376605},{"id":"8870115691","name":"Futuro Verde Vegan","tags":"addr:city:São Paulo,addr:housenumber:412,addr:postcode:08253-080,addr:street:Rua Giacomo Perti,addr:suburb:Conjunto Residencial José Bonifacio,amenity:restaurant,brand:Futuro Verde,capacity:10,cuisine:regional,delivery:yes,diet:vegan:yes,opening_hours:Mo-Su 11:00-22:00,phone:+55 11 976058359,website:www.futuroverde.net.br","lat":-23.5435916,"lng":-46.4378588},{"id":"9112193866","name":"terapia da fome","tags":"amenity:restaurant","lat":-23.5325166,"lng":-46.4337738},{"id":"9193845487","tags":"amenity:parking,capacity:50,operator:Estacionamento Supermercado D'avo,operator:type:private,parking:surface,surface:asphalt","lat":-23.5386954,"lng":-46.427342}]