[{"id":"2460841919","name":"Bartheu","tags":"amenity:restaurant","lat":-23.320984,"lng":-46.5952414},{"id":"2472886599","name":"Farmácia Popular","tags":"amenity:pharmacy,dispensing:no","lat":-23.3196389,"lng":-46.5864776},{"id":"2499959454","tags":"amenity:parking,parking:surface","lat":-23.3217902,"lng":-46.5859735},{"id":"4509180519","name":"Sushi Garden","tags":"addr:city:Mairiporã,addr:street:Avenida Tabelião Passarela,addr:suburb:Centro,amenity:restaurant,cuisine:japanese","lat":-23.3178783,"lng":-46.5843073},{"id":"5629667057","name":"Farma","tags":"addr:city:Mairiporã,addr:street:Avenida Tabelião Passarela,addr:suburb:Centro,amenity:pharmacy,dispensing:yes,healthcare:pharmacy","lat":-23.3186153,"lng":-46.5876123},{"id":"6407576376","name":"Droga Sol","tags":"amenity:pharmacy,dispensing:yes,healthcare:pharmacy","lat":-23.3189761,"lng":-46.5855778},{"id":"6407576380","name":"ampm","tags":"brand:ampm,brand:wikidata:Q306960,brand:wikipedia:en:Ampm,shop:convenience","lat":-23.3180445,"lng":-46.5833183},{"id":"8286734798","name":"Ipanema Supermercado","tags":"addr:street:Avenida São Paulo,shop:supermarket","lat":-23.3215873,"lng":-46.5827183},{"id":"8286734799","tags":"addr:street:Avenida São Paulo,addr:suburb:Centro,amenity:car_wash","lat":-23.3209847,"lng":-46.5828012},{"id":"8758112715","name":"Studio Sarah Rubyy","tags":"addr:city:Mairiporã,addr:housenumber:136,addr:postcode:07600222,addr:street:Rua Guilherme de Almeida,addr:suburb:Jd Leonor,leisure:park","lat":-23.323456,"lng":-46.5927357}]