[{"id":"1706050945","tags":"amenity:atm","lat":-23.0092289,"lng":-47.1417834},{"id":"5191804037","name":"Starbucks","tags":"amenity:cafe,brand:Starbucks,brand:wikidata:Q37158,brand:wikipedia:en:Starbucks,cuisine:coffee_shop,official_name:Starbucks Coffee,takeaway:yes","lat":-23.0075283,"lng":-47.1490332},{"id":"5191804040","name":"Piazza","tags":"amenity:restaurant,cuisine:pizza","lat":-23.007343,"lng":-47.1491877},{"id":"5191804042","name":"Octavio Café","tags":"amenity:cafe","lat":-23.0044443,"lng":-47.1489202},{"id":"5191804046","name":"Napolitano","tags":"amenity:restaurant,cuisine:italian","lat":-23.0075054,"lng":-47.149582},{"id":"5191804048","name":"Seeds Up","tags":"shop:convenience","lat":-23.007277,"lng":-47.1490498},{"id":"7581318656","name":"lunga","tags":"addr:city:campinas,addr:housenumber:294,addr:street:Avenida Fernando Paolieri,addr:suburb:planalto de viracopos,shop:supermarket,wheelchair:yes","lat":-22.9906021,"lng":-47.1393009},{"id":"7581331366","tags":"leisure:fitness_centre","lat":-22.9879851,"lng":-47.1415941},{"id":"7581492979","tags":"access:private,amenity:parking,fee:yes,parking:surface,surface:concrete","lat":-23.0103269,"lng":-47.1144044},{"id":"7581499538","name":"escola municipal curujinha","tags":"addr:city:campinas,addr:street:Rua Roodnei Ricci,addr:suburb:adhmar de barros,amenity:school","lat":-22.9884275,"lng":-47.1498409},{"id":"7581523089","tags":"amenity:school","lat":-22.9917745,"lng":-47.1449672},{"id":"7590066497","tags":"amenity:library,wheelchair:yes","lat":-22.9881342,"lng":-47.1447718},{"id":"7592490416","tags":"access:yes,amenity:parking,capacity:disabled:20,operator:patio de caminhoes,parking:surface,surface:gravel","lat":-23.0038013,"lng":-47.113022},{"id":"7795639109","name":"Policia militar","tags":"amenity:police","lat":-23.0096991,"lng":-47.1479379},{"id":"7795658839","tags":"amenity:parking","lat":-23.0089024,"lng":-47.1471736},{"id":"9579560717","name":"Polícia Federal do Brasil","tags":"amenity:police,email:aeroviracopos.cas.sp@dpf.gov.br,operator:Polícia Federal do Brasil,operator:en:Federal Police of Brazil,operator:wikidata:Q2289697,operator:wikipedia:pt:Polícia Federal do Brasil,phone:+55 19 3725 6413","lat":-23.0091367,"lng":-47.1412702}]