[{"id":"4848476762","name":"Bravíssimo","tags":"amenity:restaurant","lat":-22.7806573,"lng":-47.3128823},{"id":"5290379032","name":"Agencia Nova Odessa","tags":"addr:city:Nova Odessa,addr:street:Rua Rio Branco,addr:suburb:Centro,amenity:post_office,phone:+55 19 3466 1467","lat":-22.780198,"lng":-47.292722},{"id":"9531297334","name":"Biblioteca Municipal Professor Antonio Fernandes Gonçalves","tags":"addr:housenumber:253,addr:street:Avenida João Pessoa,addr:suburb:Centro,amenity:library","lat":-22.778505,"lng":-47.2937032},{"id":"9823811098","name":"Shell","tags":"brand:Shell,brand:wikidata:Q110716465,shop:convenience","lat":-22.7891209,"lng":-47.3043417},{"id":"10023113165","tags":"amenity:pharmacy,dispensing:yes,healthcare:pharmacy","lat":-22.7771397,"lng":-47.2931702}]