[{"id":"367943048","name":"Colégio Tableau","tags":"amenity:school","lat":-23.1799658,"lng":-46.8882119},{"id":"367943060","name":"Escola Alceu de Toledo Pontes","tags":"amenity:school","lat":-23.1795059,"lng":-46.8889324},{"id":"676656359","name":"Museu Ferroviário da Cia. Paulista","tags":"addr:city:Jundiaí,addr:street:Avenida União dos Ferroviários,fee:no,tourism:museum","lat":-23.1818829,"lng":-46.8822154},{"id":"676657195","name":"FATEC Jundiaí","tags":"addr:city:Jundiaí,addr:street:Avenida União dos Ferroviários,amenity:university","lat":-23.1816535,"lng":-46.8830522},{"id":"2561141757","name":"Santander","tags":"addr:city:Jundiaí,amenity:bank,atm:yes,brand:Santander,brand:wikidata:Q5835668,brand:wikipedia:en:Santander Bank,operator:Santander","lat":-23.1873201,"lng":-46.8849038},{"id":"2561141758","name":"Santander","tags":"addr:city:Jundiaí,amenity:bank,atm:yes,brand:Santander,brand:wikidata:Q5835668,brand:wikipedia:en:Santander Bank,operator:Santander,source:operator:survey","lat":-23.1870382,"lng":-46.8837767},{"id":"3016782146","name":"Itaú","tags":"addr:city:Jundiaí,addr:street:Rua Rangel Pestana,amenity:bank,atm:yes,brand:Itaú Unibanco,brand:wikidata:Q1424293,brand:wikipedia:pt:Itaú Unibanco,operator:Itaú - Unibanco","lat":-23.1853325,"lng":-46.8850811},{"id":"3016782147","name":"Bradesco","tags":"addr:city:Jundiaí,addr:street:Rua Rangel Pestana,amenity:bank,atm:yes,brand:Bradesco,brand:wikidata:Q806181,brand:wikipedia:en:Banco Bradesco","lat":-23.1859145,"lng":-46.8849645},{"id":"3469721659","name":"Caixa Econômica Federal","tags":"amenity:bank,brand:Caixa Econômica Federal,brand:wikidata:Q835283,brand:wikipedia:pt:Caixa Econômica Federal","lat":-23.201662,"lng":-46.8824609},{"id":"3469721660","tags":"amenity:parking","lat":-23.2016956,"lng":-46.8830899},{"id":"3469721662","name":"Pizzaria 1000","tags":"addr:city:Jundiaí,addr:country:BR,addr:housenumber:01,addr:place:Vianelo,addr:street:Rua Silva Jardim,amenity:restaurant,cuisine:pizza,delivery:yes,takeaway:yes","lat":-23.1983222,"lng":-46.8800871},{"id":"3501344993","name":"Restaurante o Bom da Picanha","tags":"amenity:restaurant","lat":-23.1990108,"lng":-46.8792586},{"id":"3501344994","tags":"amenity:restaurant","lat":-23.1997404,"lng":-46.8796009},{"id":"3501344995","tags":"amenity:restaurant","lat":-23.1998945,"lng":-46.8786496},{"id":"3501352091","name":"Itaú","tags":"amenity:bank,atm:yes,brand:Itaú Unibanco,brand:wikidata:Q1424293,brand:wikipedia:pt:Itaú Unibanco","lat":-23.1965514,"lng":-46.8766868},{"id":"3501352092","name":"Cef","tags":"amenity:bank,atm:yes","lat":-23.1964386,"lng":-46.87689},{"id":"3501353093","name":"Colégio Divino Salvador","tags":"amenity:school","lat":-23.1983987,"lng":-46.8750042},{"id":"3622126440","name":"3º Distrito Policial","tags":"addr:city:Jundiaí,addr:housenumber:622,addr:postcode:13216-000,addr:street:Avenida São João,amenity:police,operator:Secretaria Estadual de Segurança Publica","lat":-23.1855335,"lng":-46.872961},{"id":"4057148720","name":"Banco do Brasil","tags":"addr:city:Jundiaí,addr:street:Rua da Padroeira,addr:suburb:Centro,amenity:bank,brand:Banco do Brasil,brand:wikidata:Q610817,brand:wikipedia:en:Banco do Brasil","lat":-23.1872028,"lng":-46.8841559},{"id":"4057148724","name":"Caixa Econômica Federal","tags":"addr:city:Jundiaí,addr:street:Rua Rangel Pestana,amenity:bank,brand:Caixa Econômica Federal,brand:wikidata:Q835283,brand:wikipedia:pt:Caixa Econômica Federal","lat":-23.1862594,"lng":-46.8843664},{"id":"4218112605","tags":"amenity:pharmacy,healthcare:pharmacy","lat":-23.1958008,"lng":-46.881627},{"id":"4241984589","name":"Bradesco","tags":"addr:city:Jundiaí,amenity:bank,atm:yes,brand:Bradesco,brand:wikidata:Q806181,brand:wikipedia:en:Banco Bradesco,operator:Santander","lat":-23.18944,"lng":-46.884504},{"id":"4241984590","name":"Citibank","tags":"addr:city:Jundiaí,amenity:bank,brand:Citibank,brand:wikidata:Q857063,brand:wikipedia:en:Citibank,short_name:Citi","lat":-23.1863975,"lng":-46.8846019},{"id":"4241984591","name":"Itaú","tags":"addr:city:Jundiaí,amenity:bank,brand:Itaú Unibanco,brand:wikidata:Q1424293,brand:wikipedia:pt:Itaú Unibanco","lat":-23.1861325,"lng":-46.884453},{"id":"4241984592","name":"Itaú","tags":"addr:city:Jundiaí,amenity:bank,atm:yes,brand:Itaú Unibanco,brand:wikidata:Q1424293,brand:wikipedia:pt:Itaú Unibanco,operator:Santander","lat":-23.1891897,"lng":-46.8846716},{"id":"4241984593","name":"Santander","tags":"addr:city:Jundiaí,amenity:bank,atm:yes,brand:Santander,brand:wikidata:Q5835668,brand:wikipedia:en:Santander Bank,operator:Santander,source:operator:survey","lat":-23.1864025,"lng":-46.8842653},{"id":"4658508595","name":"Droga Raia","tags":"addr:city:Jundiaí,addr:housenumber:364,addr:street:Rua Suiça,addr:suburb:Jardim Cica,shop:chemist","lat":-23.2015091,"lng":-46.8817961},{"id":"4658548344","name":"Drogasil","tags":"addr:city:Jundiaí,addr:housenumber:30,addr:street:Rua Messina,shop:chemist","lat":-23.2031064,"lng":-46.8858065},{"id":"6489284122","name":"Jundiaí","tags":"public_transport:station,railway:station,train:yes","lat":-23.1947417,"lng":-46.8724229},{"id":"9580023965","name":"Comida Caseira Fit","tags":"addr:city:Jundiaí,addr:housenumber:154,addr:postcode:13218320,addr:street:Avenida Romeu Pellicciari,addr:suburb:Jd Pacaembú,amenity:restaurant,cuisine:regional,phone:+55 11 97179 3999","lat":-23.1843133,"lng":-46.8624049},{"id":"9907589772","name":"Estetica Clinica Almar","tags":"beauty:nails,description:condomínio_comercial_uffizi_medical_center,opening_hours:Mo-Fr 08:00-17:00,phone:+55 1197674-9874,shop:beauty","lat":-23.185918,"lng":-46.8885165}]