[{"id":"2403236205","name":"5º DP","tags":"amenity:police","lat":-22.9415263,"lng":-47.0352947},{"id":"4134545690","tags":"addr:street:Rua Jerônimo Tognolo,amenity:hospital,healthcare:hospital,opening_hours:Mo-Fr 07:00-21:00,phone:160","lat":-22.9460184,"lng":-47.0598395},{"id":"4523968390","name":"AM PM","tags":"name:en:AM PM,name:pt:AM PM,opening_hours:Mo-Su 06:00-22:00,shop:convenience","lat":-22.9535769,"lng":-47.0592341},{"id":"5300718122","name":"Pague Menos Loja 26","tags":"addr:city:Campinas,addr:housenumber:2026,addr:street:Avenida Baden Powell,description:Supermercado Pague Menos loja 26 no Parque Prado,name:pt:Supermercados Paguemenos Loja 26,operator:Pague Menos,shop:supermarket,website:https://www.supermercadospaguemenos.com.br/","lat":-22.9460714,"lng":-47.0526717},{"id":"5728439721","name":"CD Affinity PetCare","tags":"addr:housenumber:1624,addr:postcode:13042-846,addr:street:Rua Thereza Merino Vicentini, 1624,name:en:CD Affinity Petcare,opening_hours:Mo-Sa 07:00-22:00,phone:0551937294400,shop:pet,website:http://www.affinity-PetCare.com.br","lat":-22.9766545,"lng":-47.0422701},{"id":"6441793522","tags":"access:customers,amenity:parking,fee:no,parking:surface","lat":-22.946199,"lng":-47.0529778}]