[{"id":"3066011026","name":"Praça Por-do-Sol","tags":"leisure:park","lat":-23.1133491,"lng":-46.5390466},{"id":"3078501617","name":"Late mia e compania","tags":"shop:pet","lat":-23.1141601,"lng":-46.5549599},{"id":"4586239661","tags":"shop:supermarket","lat":-23.1139883,"lng":-46.5596853},{"id":"4616820623","name":"Atacadão","tags":"shop:supermarket","lat":-23.1146528,"lng":-46.574289},{"id":"4730497291","name":"Droga Raia","tags":"addr:city:Atibaia,addr:country:BR,addr:housenumber:122,addr:postcode:12040-500,addr:state:SP,addr:street:Rua João Pires,amenity:pharmacy,brand:Droga Raia,brand:wikidata:Q10357101,brand:wikipedia:pt:RaiaDrogasil,contact:phone:+55 11 4412-7242,contact:website:http://www.drogaraia.com.br,healthcare:pharmacy,opening_hours:24/7","lat":-23.1144318,"lng":-46.5564501},{"id":"5436124379","name":"Horta da Nana Orgânicos","tags":"amenity:restaurant","lat":-23.110179,"lng":-46.5446508}]