[{"id":"2656055488","name":"Delegacia de Policia de Ferraz de Vasconcelos","tags":"amenity:police","lat":-23.5514398,"lng":-46.3789629},{"id":"2656524469","name":"Cei Castelinho Encantado IV","tags":"addr:city:São Paulo,addr:housenumber:204,addr:street:Rua Gonçalo Ribeiro Corco,amenity:school","lat":-23.5463148,"lng":-46.3890157},{"id":"2724283357","name":"Bradesco","tags":"addr:city:São Paulo,addr:housenumber:701,addr:postcode:08110-000,addr:street:Estrada do Lajeado Velho,amenity:bank,atm:yes","lat":-23.5356513,"lng":-46.4025714},{"id":"2724496350","name":"Habib's","tags":"addr:city:São Paulo,addr:housenumber:987,addr:postcode:08451-000,addr:street:Estrada do Lageado Velho,amenity:restaurant,cuisine:fast_food","lat":-23.5343496,"lng":-46.4001414},{"id":"2732159507","name":"Banco 24Horas","tags":"amenity:atm,operator:TecBan","lat":-23.5339534,"lng":-46.400281},{"id":"2833498289","name":"Banco 24Horas","tags":"amenity:atm,operator:TecBan","lat":-23.5264067,"lng":-46.3969324},{"id":"3203401115","name":"Caixa Econômica Federal","tags":"addr:city:São Paulo,addr:housenumber:1010,addr:postcode:08451-056,addr:street:Estrada do Lageado Velho,addr:suburb:Guaianases,amenity:bank,atm:yes","lat":-23.5342963,"lng":-46.3989228},{"id":"4423670420","tags":"amenity:police","lat":-23.5415005,"lng":-46.3682133},{"id":"4580265049","name":"Antonio Gianetti Neto","tags":"public_transport:station,railway:station,train:yes,wikidata:Q10275567","lat":-23.554412,"lng":-46.3836309},{"id":"4580278637","name":"Ferraz de Vasconcelos","tags":"public_transport:station,railway:station,train:yes,wikidata:Q10275758","lat":-23.5408113,"lng":-46.3683762},{"id":"5864116163","name":"Escola Municipal de Educação Infantil Maurice Bou Assi","tags":"addr:city:Ferraz de Vasconcelos,addr:housenumber:746,addr:postcode:08536-440,addr:street:Estrada do Bandeirante,addr:suburb:Jardim Santa Rosa,amenity:school,contact:phone:+55 11 4679 1809,email:emef.mauricebouassi@ferrazdevasconcelos.sp.gov.br,operator:Secretaria Municipal da Educação,phone:+55 11 4675 3433","lat":-23.5375179,"lng":-46.3841078},{"id":"5878700798","name":"Supermercado Nagumo","tags":"addr:city:São Paulo,addr:housenumber:3222,addr:postcode:08140-000,addr:street:Rua Tibúrcio de Souza,shop:supermarket","lat":-23.5218199,"lng":-46.3877749},{"id":"6388474256","tags":"amenity:bus_station,bus:yes,public_transport:station","lat":-23.524278,"lng":-46.364067},{"id":"6388474268","name":"Pizzaria Labina","tags":"amenity:restaurant,cuisine:pizza","lat":-23.523603,"lng":-46.3624093},{"id":"6408157995","name":"Bom Prato","tags":"addr:city:Ferraz de Vasconcelos,addr:street:Rua Hungria,addr:suburb:vila Maria Rosa,amenity:restaurant,cuisine:regional,opening_hours:Mo-Su 09:00-15:00,outdoor_seating:yes","lat":-23.5384,"lng":-46.3657319},{"id":"6408202179","name":"Mercado Estação","tags":"addr:city:Ferraz de Vasconcelos,addr:street:Avenida Santos Dumont,addr:suburb:Andeyara,payment:credit_cards:yes,payment:debit_cards:yes,shop:supermarket","lat":-23.5402738,"lng":-46.3681164},{"id":"6408202180","name":"Ragazzo","tags":"addr:city:Ferraz de Vasconcelos,addr:suburb:Centro,amenity:restaurant,cuisine:fast_food,opening_hours:Mo-Su 10:00-22:00","lat":-23.5412888,"lng":-46.3675317},{"id":"7293543975","name":"Correios","tags":"amenity:post_office,brand:Correios,brand:wikidata:Q3375004,brand:wikipedia:en:Correios","lat":-23.5406794,"lng":-46.3658173},{"id":"7293543976","name":"Correios","tags":"amenity:post_office,brand:Correios,brand:wikidata:Q3375004,brand:wikipedia:en:Correios","lat":-23.540498,"lng":-46.3690974},{"id":"7324367047","name":"Cozinha Piloto","tags":"addr:street:Rua Euclídes da Cunha,amenity:restaurant,opening_hours:Mo-Sa 08:00-18:00","lat":-23.5471133,"lng":-46.3658206},{"id":"8340396211","name":"Rua Tibúrcio De Souza, 2611","tags":"addr:street:Rua Tibúrcio de Souza,bus:yes,description:Ref.: Rua Manuel Rodrigues Santiago/ Rua Maria Cecilia Correa -- Res. Nova Conquista,gtfs_id:350002393,network:SPTRANS,operator:higa´s,route_ref:N336-11;2008-10;2666-10;2666-21;2766-10;307C-10,shop:supermarket","lat":-23.517722,"lng":-46.38837}]