[{"id":"2289386096","name":"Colégio Sentido Obrigatório","tags":"addr:city:Itaquaquecetuba,amenity:school","lat":-23.4901055,"lng":-46.3480769},{"id":"2289391830","name":"Macro Byte","tags":"addr:city:Itaquaquecetuba,addr:street:Avenida Emancipação,addr:suburb:Centro,amenity:school","lat":-23.4792372,"lng":-46.3532562},{"id":"4576230891","name":"Parque Ecológico de Itaquaquecetuba","tags":"addr:postcode:08571-020,addr:street:Rua Cabrália Paulista,name:en:Itaquaquecetuba's Ecologic Park,name:pt:Parque Ecológico de Itaquaquecetuba,tourism:attraction","lat":-23.4801761,"lng":-46.3498178},{"id":"4581539510","name":"Aracaré","tags":"public_transport:station,railway:station,train:yes,wikidata:Q10275571","lat":-23.5000766,"lng":-46.339107},{"id":"4581547752","name":"Itaquaquecetuba","tags":"public_transport:station,railway:station,train:yes,wikidata:Q10275883","lat":-23.4860391,"lng":-46.3480165},{"id":"4829183510","name":"Itaquá Garden Shopping","tags":"shop:mall","lat":-23.4751818,"lng":-46.3262504},{"id":"5473550802","tags":"amenity:police","lat":-23.4755608,"lng":-46.3518285},{"id":"5473551827","name":"Nossa Senhora D'Ajuda","tags":"addr:city:Itaquaquecetuba,addr:street:Praça Padre João Alvares,addr:suburb:Centro,shop:books","lat":-23.4759579,"lng":-46.3516442},{"id":"5485390012","name":"Nagumo Supermercados","tags":"addr:city:Itaquaquecetuba,addr:housenumber:1205,addr:postcode:08598-000,addr:street:Estrada do Mandi,addr:suburb:Campo Limpo,opening_hours:Mo-Sa 08:00-22:00; Su,PH 08:00-20:00,payment:cash:yes,payment:coins:yes,payment:credit_cards:yes,payment:debit_cards:yes,payment:notes:yes,shop:supermarket","lat":-23.4750721,"lng":-46.3257124},{"id":"5532326350","name":"Escola Estadual Centro Atendimento Socioeducativo ao Adolescentente Terra Nova C1","tags":"addr:city:Itaquaquecetuba,addr:country:BR,addr:housenumber:208,addr:postcode:08598-740,addr:street:Rua Zaire,addr:suburb:Jardim Adriane,amenity:school,contact:phone:+55 11 4645 9910,email:pedaguIIitaqua@fundacaocasa.sp.gov.br,operator:Secretaria da Educação do Estado de São Paulo,phone:+55 11 4645 2412","lat":-23.4729363,"lng":-46.323769}]