[{"id":"8185660151","name":"CIEF Profª Maria Thereza de Souza Castro","tags":"addr:street:Rua Seishi Yoshimoto,addr:suburb:Jetuba,alt_name:EMEI Itoe Yoshimoto,amenity:school","lat":-23.6019075,"lng":-45.3497707},{"id":"9693529817","name":"Gama","tags":"addr:housenumber:235,addr:street:Rua Três,shop:supermarket","lat":-23.6040582,"lng":-45.3494353},{"id":"9693529823","name":"Gama Conveniência","tags":"amenity:restaurant,cuisine:coffee_shop;burger","lat":-23.6038981,"lng":-45.3489096},{"id":"9693529841","name":"Billa Petiscaria","tags":"amenity:restaurant","lat":-23.6042114,"lng":-45.3479769},{"id":"9693529842","name":"Bistrô Fulô da Praia","tags":"amenity:restaurant","lat":-23.6050395,"lng":-45.3479554},{"id":"9710411096","tags":"shop:convenience","lat":-23.6010808,"lng":-45.3454112},{"id":"9710411097","tags":"amenity:pharmacy,dispensing:yes,healthcare:pharmacy","lat":-23.600977,"lng":-45.3453891}]