[{"id":"1370450278","tags":"amenity:parking","lat":-22.6713483,"lng":-45.8576858},{"id":"4750699022","tags":"amenity:post_office","lat":-22.6580961,"lng":-45.8553517},{"id":"4750708422","name":"Supermercado São Mateus","tags":"addr:street:Rua Conselheiro Alfredo Pinto,name:pt:Supermercado São Mateus,opening_hours:Mo-Su 08:00-20:00,shop:supermarket","lat":-22.6580173,"lng":-45.8560537},{"id":"4750739124","name":"Banco do Brasil","tags":"amenity:bank,name:pt:Banco do Brasil","lat":-22.6581318,"lng":-45.8553186},{"id":"7847028085","name":"Chalezinho Gastrobar","tags":"addr:housenumber:229,addr:street:Rua Antonio Caetano da Rosa,amenity:restaurant,name:en:Chalizinho Gastrobar,phone:+55 35 9 9115 1504","lat":-22.6601345,"lng":-45.854673},{"id":"8873483538","name":"Quinta do Tacho Restaurante","tags":"amenity:restaurant,cuisine:regional,website:https://www.instagram.com/quintadotacho/","lat":-22.6685754,"lng":-45.8537092},{"id":"10007613081","name":"árarosa","tags":"amenity:cafe","lat":-22.6581318,"lng":-45.8551477},{"id":"10007613082","name":"San Benedetto","tags":"amenity:restaurant","lat":-22.6598432,"lng":-45.8548763}]