[{"id":"2431637571","name":"O Paturi","tags":"amenity:restaurant,opening_hours:covid19:off","lat":-22.7812568,"lng":-45.146148},{"id":"2431637574","tags":"amenity:restaurant","lat":-22.7871012,"lng":-45.1540946},{"id":"2621655629","tags":"amenity:restaurant","lat":-22.7839146,"lng":-45.1582212},{"id":"2621655631","name":"Restaurante Di Cavalcanti","tags":"amenity:restaurant","lat":-22.7838992,"lng":-45.1576386},{"id":"4364794549","name":"Recanto do Bosque","tags":"addr:city:Guaratinguetá,addr:housenumber:2770,addr:postcode:12524-010,addr:street:Avenida Brasília,amenity:restaurant,cuisine:regional,phone:+55 12 3132-2974,website:http://www.restauranterecantodobosque.com/#!contact/c24vq","lat":-22.806671,"lng":-45.1499966},{"id":"9046117463","name":"EMEIEFI Professora Maria Carmelita de Moraes","tags":"addr:postcode:12520-350,addr:street:Avenida Benedito de Toledo,addr:suburb:Jardim Primavera,amenity:school,contact:email:cadastrodealunos2@guaratingueta.sp.gov.br,email:mariacarmelitademoraes@hotmail.com,phone:+55 12 3132 5791","lat":-22.7955156,"lng":-45.1754883},{"id":"9046380935","tags":"shop:supermarket","lat":-22.7888741,"lng":-45.156964},{"id":"9046380936","name":"Recanto do Caminhoneiro","tags":"addr:street:Rodovia Presidente Dutra,amenity:restaurant","lat":-22.7891544,"lng":-45.157072},{"id":"9046380937","name":"Route Café","tags":"addr:street:Rodovia Presidente Dutra,amenity:cafe","lat":-22.7890084,"lng":-45.1571692},{"id":"9046380938","tags":"amenity:atm,drive_through:no,network:Banco 24H","lat":-22.7887828,"lng":-45.1567409},{"id":"9046380939","name":"Via Grill","tags":"addr:street:Rodovia Presidente Dutra,amenity:restaurant,cuisine:steak_house","lat":-22.7889388,"lng":-45.157036}]