[{"id":"1042055610","name":"Colonia Carmelo Peralta Airport","tags":"aeroway:aerodrome,wikidata:Q15958340","lat":-21.6772657,"lng":-57.9132204},{"id":"1978058565","tags":"amenity:bank,atm:yes,brand:Banco do Brasil","lat":-21.6996052,"lng":-57.8899002},{"id":"1978060372","name":"Empresa Brasileira de Correios e Telégrafos","tags":"amenity:post_office","lat":-21.7005522,"lng":-57.8891975},{"id":"1978061195","name":"Hospital Público","tags":"amenity:hospital,healthcare:hospital","lat":-21.7016936,"lng":-57.8847718},{"id":"1978072598","name":"Terminal Rodoviário","tags":"amenity:bus_station,bus:yes,public_transport:station","lat":-21.6993142,"lng":-57.8818277},{"id":"3633025540","name":"Porto Murtinho","tags":"amenity:ferry_terminal,ferry:yes,public_transport:station","lat":-21.695407,"lng":-57.8866477},{"id":"4919738651","tags":"amenity:ferry_terminal,ferry:yes,public_transport:station","lat":-21.698541,"lng":-57.8902478},{"id":"4919738652","tags":"amenity:ferry_terminal,ferry:yes,public_transport:station","lat":-21.6976275,"lng":-57.8934766},{"id":"6410081276","name":"EMEI Primeiros Passos","tags":"addr:city:Porto Murtinho,addr:housenumber:621,addr:postcode:79280-000,addr:street:Rua Coronel Ponce,addr:suburb:Centro,amenity:school,operator:Prefeitura Municipal","lat":-21.6993012,"lng":-57.8860457},{"id":"6410081279","name":"Restaurante Tembiu'He","tags":"addr:city:Porto Murtinho,addr:housenumber:399,addr:postcode:79280-000,addr:street:Avenida Rio Branco,addr:suburb:Centro,amenity:restaurant","lat":-21.6999716,"lng":-57.8882773},{"id":"6462949144","name":"Comisaría 3 ColoniaCarmelo Peralta","tags":"addr:district:Alto Paraguay,addr:province:Carmelo Peralta,amenity:police,official_name:Comisaría 3 Col Carmelo Peralta,operator:Ministerio del Interior","lat":-21.6711676,"lng":-57.9189241},{"id":"6632040944","name":"Ilha Margarida","tags":"amenity:ferry_terminal,ferry:yes,public_transport:station","lat":-21.6950721,"lng":-57.8894182},{"id":"7975058685","tags":"amenity:atm,opening_hours:24/7,operator:BNF COMISARÍA CARAMELO PERALTA","lat":-21.6710831,"lng":-57.9188425}]