[{"id":"559500244","name":"Policia Federal","tags":"amenity:police","lat":-16.0862503,"lng":-57.675653},{"id":"8640601520","name":"Escola Municipal Buscando Saber - Gotinhas do Saber (PROSSOL)","tags":"amenity:school","lat":-16.0840382,"lng":-57.6847642},{"id":"8780182893","name":"Hotel e Churrascaria Pantanal","tags":"amenity:restaurant","lat":-16.1119781,"lng":-57.6713619},{"id":"8902589515","name":"Escola Municipal Isabel Campos","tags":"amenity:school","lat":-16.0882911,"lng":-57.6811688},{"id":"9848786537","name":"Escola Municipal Prof Erenice Simão Alvarenga - Nova Era","tags":"amenity:school","lat":-16.1004559,"lng":-57.6658239},{"id":"9848790601","name":"Escola Municipal Jardim Guanabara","tags":"amenity:school","lat":-16.0908834,"lng":-57.6688596},{"id":"9848935239","name":"Escola Municipal Vitória Régia","tags":"amenity:school","lat":-16.1051618,"lng":-57.6719614}]