[{"id":"4314867489","name":"IG irmãos Gonçalves","tags":"addr:street:av Castelo Branco,shop:supermarket","lat":-11.4403136,"lng":-61.4533895},{"id":"4455203291","name":"IICC Cacoal","tags":"amenity:police,name:pt:IICC Cacoal","lat":-11.4336611,"lng":-61.4560905},{"id":"4455285689","name":"Posto Identificação Cacoal","tags":"amenity:police,name:pt:Posto Identificação Cacoal","lat":-11.4338666,"lng":-61.4558517},{"id":"5457940118","name":"Supermercado A Luzitana","tags":"shop:supermarket","lat":-11.4404043,"lng":-61.4480018},{"id":"6380058307","name":"Banco da Amazônia","tags":"addr:city:Cacoal,addr:housenumber:2171,addr:street:Av. Sao paulo,addr:suburb:centro,amenity:bank","lat":-11.4403354,"lng":-61.44943},{"id":"6380174140","name":"Academia Physicus","tags":"addr:city:Cacoal,addr:housenumber:934,addr:street:Rua Rui Barbosa,addr:suburb:Princesa Isabel,leisure:fitness_centre","lat":-11.4400307,"lng":-61.4445223},{"id":"6796265991","name":"Muscletec","tags":"addr:city:Cacoal,addr:street:Rua Antonio Deodato Durce,addr:suburb:Centro,leisure:fitness_centre,sport:fitness","lat":-11.4394284,"lng":-61.4446251},{"id":"8866412438","tags":"access:permissive,amenity:parking,description:Estacionamento para clientes em compras no Supermercado Servilar,operator:Servilar,operator:type:public,parking:surface,surface:concrete","lat":-11.4434456,"lng":-61.4440643}]