[{"id":"2437007991","name":"Mercado Taquarussu","tags":"shop:supermarket","lat":-20.4830744,"lng":-54.6346181},{"id":"3642893208","name":"AC Piqueri","tags":"addr:city:Campo Grande,addr:housenumber:2702 - Lojas 1 a 3,addr:postcode:79002-973,addr:street:Rua Brilhante,addr:suburb:Vila Bandeirante,amenity:post_office,collection_times:Mo - Sa 09:00 - 11:30, 13:00 - 17:00,email:piquiri@correios.com.br,operator:Correios,phone:+55 (67) 3382-0724,website:https://www.correios.com.br,wheelchair:yes","lat":-20.4795374,"lng":-54.6407503},{"id":"3642894399","name":"AC Imbirussú","tags":"addr:city:Campo Grande,addr:housenumber:2702 Salas 1 a 3,addr:postcode:79006-971,addr:street:Rua Brilhante,addr:suburb:Vila Bandeirante,amenity:post_office,collection_times:Mo - Sa 09:00 - 11:30, 13:00 - 17:00,email:ms.imbirussu@correios.com.br,operator:Correios,phone:+55 (67) 3314-2891,website:https://www.correios.com.br,wheelchair:yes","lat":-20.4795341,"lng":-54.6406937},{"id":"4306912093","name":"UPA","tags":"amenity:hospital","lat":-20.4930215,"lng":-54.6527157},{"id":"4540393101","name":"Supermercado do Produtor","tags":"addr:street:Rua Panambi Vera,internet_access:wlan,name:pt:Supermercado do Produtor,opening_hours:Mo-Sa 07:00-19:30; Su 07:00-12:00,shop:supermarket","lat":-20.5067717,"lng":-54.6542667},{"id":"4544072590","name":"CEF - Caixa Econômica Federal","tags":"addr:street:Avenida Gunter Hans,amenity:bank,name:pt:CEF - Caixa Econômica Federal","lat":-20.5165337,"lng":-54.6568758},{"id":"4544089489","name":"Comper Tijuca - Aero Rancho","tags":"addr:street:Avenida Gunter Hans,name:pt:Comper Tijuca - Aero Rancho,opening_hours:Mo-Su 07:00-20:00,shop:supermarket","lat":-20.5158423,"lng":-54.657244},{"id":"4544093089","name":"Espetinho do Marlen","tags":"amenity:restaurant,name:pt:Espetinho do Marlen","lat":-20.5121385,"lng":-54.6552889},{"id":"4544093189","name":"BB - Banco do Brasil","tags":"addr:street:Avenida Gunter Hans,amenity:bank,name:pt:BB - Banco do Brasil","lat":-20.5108806,"lng":-54.654941},{"id":"4554632589","name":"Drogaria Farmalima","tags":"addr:housenumber:268,addr:street:Rua Temiminós,amenity:pharmacy,name:pt:Drogaria Farmalima,opening_hours:Mo-Su 06:00-22:00,phone:+556732110941","lat":-20.4923865,"lng":-54.65189},{"id":"4559365291","name":"Comper Supermercado","tags":"addr:street:Avenida Bandeirantes,name:pt:Comper Supermercado,opening_hours:Mo-Su 07:00-21:00,shop:supermarket","lat":-20.4917167,"lng":-54.645875},{"id":"4572582589","name":"Wizard Idiomas","tags":"amenity:school,name:pt:Wizard Idiomas","lat":-20.491186,"lng":-54.6463342},{"id":"5120075627","name":"Lotérica","tags":"addr:housenumber:2026,addr:street:Avenida Bandeirantes,amenity:bank","lat":-20.480863,"lng":-54.6381238},{"id":"5287431476","name":"Escola Carrossel Novo Estilo","tags":"amenity:school","lat":-20.4859059,"lng":-54.6507517},{"id":"5546501478","name":"Buffet 15R$","tags":"amenity:restaurant","lat":-20.4982369,"lng":-54.6364034},{"id":"6389801834","name":"Clube Uniao dos Sargentos","tags":"addr:city:Campo Grande,addr:housenumber:395,addr:postcode:79090-242,addr:street:Rua Mogi Mirin,addr:suburb:Parque Res. dos Girassois,leisure:sports_centre,sport:swimming;soccer","lat":-20.4880093,"lng":-54.65715},{"id":"8677731528","name":"Estimacão PetShop","tags":"addr:city:campo grande,addr:housenumber:1273,addr:postcode:79094-560,addr:street:Avenida Souto Maior,addr:suburb:tijuca,phone:+5567991484494,shop:pet,website:https://www.instagram.com/estimacao_petshop/","lat":-20.5156366,"lng":-54.6643278},{"id":"8934321354","name":"CHEFIA CONVENIÊNCIA LOJA 2","tags":"addr:city:Campo Grande,addr:housenumber:1014,addr:postcode:79094050,addr:street:Avenida Conde de Boa Vista,addr:suburb:Tijuca,shop:convenience","lat":-20.5095222,"lng":-54.6649495},{"id":"10215043087","name":"Pague Menos","tags":"amenity:pharmacy,brand:Pague Menos,brand:wikidata:Q7124466,healthcare:pharmacy","lat":-20.4798005,"lng":-54.6264982}]