[{"id":"1697705809","name":"Policia Militar","tags":"amenity:police","lat":-21.490839,"lng":-51.5339951},{"id":"2096436131","tags":"amenity:parking","lat":-21.5023966,"lng":-51.5414627},{"id":"5073893241","name":"Rodoviária de Dracena","tags":"amenity:bus_station,name:en:Dracena bus station","lat":-21.4913511,"lng":-51.5388639},{"id":"9721528366","name":"Caixa Econômica Federal","tags":"addr:city:Dracena,addr:housenumber:200,addr:postcode:17900-000,addr:street:Avenida Presidente Roosevelt,addr:suburb:Centro,amenity:bank","lat":-21.4893488,"lng":-51.5301913},{"id":"9721528368","name":"Colégio Objetivo","tags":"addr:city:Dracena,addr:housenumber:Sn,addr:postcode:17900-000,addr:street:Rua Aristides Zanoni,amenity:school","lat":-21.4900704,"lng":-51.5219271}]