[{"id":"3834188427","tags":"amenity:bank,brand:Itaú","lat":-22.3410507,"lng":-49.0613244},{"id":"3834188430","tags":"amenity:atm,fee:Itau Caixa Eletronico","lat":-22.3409837,"lng":-49.0614063},{"id":"3834188447","name":"Just Fit Academia","tags":"leisure:sports_centre","lat":-22.340681,"lng":-49.0617791},{"id":"3834530477","tags":"amenity:bar","lat":-22.3421681,"lng":-49.0554107},{"id":"3834530488","tags":"amenity:restaurant","lat":-22.3421214,"lng":-49.0554947},{"id":"3834530514","name":"Clinica Medica","tags":"amenity:hospital,healthcare:hospital","lat":-22.3414402,"lng":-49.0565354},{"id":"3834548067","tags":"leisure:sports_centre","lat":-22.3414675,"lng":-49.057674},{"id":"3927505673","name":"Fried Fish","tags":"amenity:restaurant","lat":-22.3561025,"lng":-49.0437308},{"id":"6300055808","name":"Bradesco","tags":"addr:street:Rua Rio Branco,amenity:bank,brand:Bradesco,brand:wikidata:Q806181,brand:wikipedia:en:Banco Bradesco","lat":-22.3334128,"lng":-49.0696588},{"id":"6300055810","name":"Farma-Sul","tags":"amenity:pharmacy,dispensing:yes,healthcare:pharmacy","lat":-22.3335101,"lng":-49.0696181},{"id":"6300055814","name":"Rstaurante e Pizzaria La Dirna","tags":"addr:street:Rua Rio Branco,amenity:restaurant,cuisine:pizza","lat":-22.3333155,"lng":-49.0696971},{"id":"6389678054","name":"Starbucks","tags":"amenity:cafe,brand:Starbucks,brand:wikidata:Q37158,brand:wikipedia:en:Starbucks,cuisine:coffee_shop","lat":-22.3421076,"lng":-49.0495042},{"id":"6389678055","name":"Restaurante Tokyo","tags":"amenity:restaurant","lat":-22.3422739,"lng":-49.0494459},{"id":"6389678060","name":"Empório Cultural","tags":"shop:books","lat":-22.3422156,"lng":-49.0497844},{"id":"6469410824","tags":"leisure:sports_centre","lat":-22.341878,"lng":-49.05642},{"id":"6470562991","tags":"amenity:bar","lat":-22.340356,"lng":-49.0610334},{"id":"6987859385","name":"Caixa econômica Federal","tags":"amenity:bank","lat":-22.3381611,"lng":-49.0674464},{"id":"7869559029","name":"Academia Speed Fitness Duque de Caxias","tags":"addr:city:Bauru-SP,addr:housenumber:1-28,addr:postcode:17014-274,addr:street:R. Dr. Lisboa Júnior,addr:suburb:Altos da Cidade,leisure:fitness_centre,opening_hours:Mo-Fr 06:00-23:00,phone:+55 (14) 3241-2552,sport:Musculação;Dança;Ginástica;Artes_Marciais;pilates,website:https://academiaspeedfitness.com.br/","lat":-22.3312562,"lng":-49.0776755},{"id":"8113281617","name":"Colégio Preve Objetivo","tags":"amenity:school","lat":-22.3257639,"lng":-49.0781461},{"id":"9705832486","name":"Praça Cristo Redentor de Braços Abertos","tags":"addr:city:Bauru,addr:suburb:Vila Santista,leisure:park","lat":-22.3510171,"lng":-49.08456},{"id":"10271455809","name":"Comanella","tags":"addr:housenumber:7-58,addr:street:Alameda Doutor Octávio Pinheiro Brisola,amenity:restaurant,cuisine:pizza","lat":-22.334165,"lng":-49.0614772},{"id":"10271658209","name":"Zaitt","tags":"addr:housenumber:4-10,addr:street:Rua Joaquim Fidelis,internet_access:wlan,opening_hours:24/7,shop:convenience,website:https://www.zaitt.com.br","lat":-22.3292519,"lng":-49.0618468},{"id":"10272137209","name":"Esquina de Pão de Queijo","tags":"addr:housenumber:21-81,addr:postcode:17014-037,addr:street:Rua Rio Branco,amenity:restaurant,contact:facebook:Esquina.PaoDeQueijo,contact:instagram:esquina.dopaodequeijo,cuisine:burger;diner;hotdog;sandwich,internet_access:wlan,opening_hours:Mo 11:00-17:00; Su 17:00-00:00; Tu-Sa 11:00-00:00,phone:(14) 3234-6336,website:https://www.esquinadopaodequeijo.com.br/","lat":-22.3344546,"lng":-49.0684907},{"id":"10276561509","name":"Espetaria do Vovô","tags":"addr:street:Rua Joaquim Fidelis,amenity:restaurant,cuisine:barbecue;chicken;friture;grill;kebab;steak_house,internet_access:wlan","lat":-22.3283549,"lng":-49.0618897},{"id":"10276653509","name":"Helo Silveira Universitária","tags":"addr:housenumber:6-49,addr:street:Rua Antônio Garcia,internet_access:wlan,phone:(14) 3214-3213;(14) 99814-3213,shop:beauty","lat":-22.3323429,"lng":-49.0634014},{"id":"10276653609","name":"Estacionamento da Helo","tags":"amenity:parking","lat":-22.3323546,"lng":-49.0634733},{"id":"10276669709","name":"Drogasil","tags":"addr:street:Alameda Doutor Octávio Pinheiro Brisola,internet_access:wlan,shop:chemist","lat":-22.3315691,"lng":-49.0635519},{"id":"10276669710","name":"Molhin de Filé","tags":"addr:street:Rua Maria José,amenity:restaurant,cuisine:barbecue;brazilian;grill;sausage,internet_access:wlan","lat":-22.331294,"lng":-49.0631764},{"id":"10276669809","name":"Estacionamento da Drogasil","tags":"amenity:parking","lat":-22.3316035,"lng":-49.0636645}]