[{"id":"4112305990","name":"Salão de Beleza Specialissima","tags":"addr:housenumber:1626,addr:street:Rua Secundiano Piccolo,email:ariluc13@gmail.com,internet_access:wlan,opening_hours:Tu-Fr 08:00-18:00,phone:1432831412,shop:beauty","lat":-22.3411266,"lng":-48.7933829},{"id":"4112343289","name":"Farmácia São Judas","tags":"addr:housenumber:1626,addr:street:Rua Secundiano Piccolo,amenity:pharmacy,healthcare:pharmacy,opening_hours:Mo-Su 08:00-22:00","lat":-22.3408585,"lng":-48.7934308},{"id":"4115256490","name":"Confiança Supermercado","tags":"shop:supermarket","lat":-22.3443532,"lng":-48.7944662},{"id":"6816086926","name":"Supermercado América","tags":"addr:city:Pederneiras,addr:housenumber:783,addr:postcode:17280-000,addr:street:Avenida Alberto Clementino Moreira,addr:suburb:Jardim América,opening_hours:Mo-Sa 08:00-22:00,payment:cash:yes,payment:coins:yes,payment:credit_cards:yes,payment:debit_cards:yes,shop:supermarket","lat":-22.3464331,"lng":-48.7801307},{"id":"6816104229","name":"Dia","tags":"addr:city:Pederneiras,addr:housenumber:477,addr:postcode:17280-000,addr:street:Avenida Brasil,addr:suburb:Jardim Bandeirantes,brand:Dia,brand:wikidata:Q925132,brand:wikipedia:es:Supermercados DIA,shop:supermarket","lat":-22.3475731,"lng":-48.7824612},{"id":"6835740064","name":"Academia Movimento","tags":"addr:city:Pederneiras,addr:housenumber:838,addr:postcode:17280-000,addr:street:Avenida Brasil,addr:suburb:Jardim Acaraí,leisure:fitness_centre","lat":-22.3461169,"lng":-48.7862954},{"id":"6835740066","name":"Sicredi","tags":"addr:city:Pederneiras,addr:housenumber:729,addr:postcode:17280-000,addr:street:Avenida Brasil,addr:suburb:Jardim Alvorada,amenity:bank,brand:Sicredi,brand:wikidata:Q3483060,brand:wikipedia:pt:Sistema de Crédito Cooperativo","lat":-22.3468469,"lng":-48.784885},{"id":"6835740068","name":"Gulas Fast Food","tags":"addr:city:Pederneiras,addr:housenumber:863,addr:postcode:17280-000,addr:street:Avenida Brasil,addr:suburb:Jardim Bandeirantes,amenity:restaurant","lat":-22.3471677,"lng":-48.7827618}]