[{"id":"497397527","name":"Banco do Brasil","tags":"amenity:bank,atm:yes,branch:Agência São Carlos,brand:Banco do Brasil,brand:wikidata:Q610817,brand:wikipedia:en:Banco do Brasil,operator:Banco do Brasil","lat":-22.017723,"lng":-47.8915617},{"id":"984432386","name":"Dia","tags":"brand:Dia,brand:wikidata:Q925132,brand:wikipedia:es:Supermercados DIA,shop:supermarket","lat":-22.017181,"lng":-47.8908049},{"id":"986181657","name":"Cantos e Contos","tags":"addr:housenumber:2211,addr:street:Rua Major José Inácio,amenity:restaurant","lat":-22.0167764,"lng":-47.8888248},{"id":"1016750472","tags":"amenity:post_office","lat":-22.0177042,"lng":-47.8918482},{"id":"1098537914","name":"Banco do Brasil","tags":"amenity:bank,atm:yes,branch:Agência Centro Comercial,brand:Banco do Brasil,brand:wikidata:Q610817,brand:wikipedia:en:Banco do Brasil,operator:Banco do Brasil,wheelchair:yes","lat":-22.0241377,"lng":-47.8903754},{"id":"1098537948","name":"Banco do Brasil","tags":"amenity:bank,atm:yes,branch:Agência Alexandrina,brand:Banco do Brasil,brand:wikidata:Q610817,brand:wikipedia:en:Banco do Brasil,operator:Banco do Brasil","lat":-22.0179415,"lng":-47.8895705},{"id":"1101880734","tags":"amenity:parking","lat":-22.0186797,"lng":-47.8919285},{"id":"1673778137","name":"Vila Verde","tags":"amenity:restaurant","lat":-22.0177162,"lng":-47.887595},{"id":"1688171562","name":"Banco do Brasil","tags":"amenity:bank,atm:yes,branch:Agência Fórum de São Carlos,brand:Banco do Brasil,brand:wikidata:Q610817,brand:wikipedia:en:Banco do Brasil","lat":-22.0215695,"lng":-47.8853522},{"id":"1688171563","name":"Bradesco","tags":"amenity:bank,atm:yes,branch:Agência Conde do Pinhal URB,brand:Bradesco,brand:wikidata:Q806181,brand:wikipedia:en:Banco Bradesco","lat":-22.0177176,"lng":-47.8912335},{"id":"1688171564","name":"Itaú","tags":"amenity:bank,atm:yes,branch:Agência São Carlos,brand:Itaú Unibanco,brand:wikidata:Q1424293,brand:wikipedia:pt:Itaú Unibanco","lat":-22.0220957,"lng":-47.890446},{"id":"1688171566","name":"Itaú","tags":"amenity:bank,atm:yes,branch:Agência Major,brand:Itaú Unibanco,brand:wikidata:Q1424293,brand:wikipedia:pt:Itaú Unibanco,wheelchair:limited","lat":-22.0170461,"lng":-47.890277},{"id":"1688171567","name":"Itaú","tags":"amenity:bank,atm:yes,branch:Agência Episcopal,brand:Itaú Unibanco,brand:wikidata:Q1424293,brand:wikipedia:pt:Itaú Unibanco","lat":-22.0170863,"lng":-47.8918724},{"id":"1688171568","name":"Bradesco","tags":"amenity:bank,atm:yes,branch:Agência São Carlos Centro,brand:Bradesco,brand:wikidata:Q806181,brand:wikipedia:en:Banco Bradesco","lat":-22.0195326,"lng":-47.8904825},{"id":"1688171569","name":"Santander","tags":"amenity:bank,branch:Agência São Carlos,brand:Santander,brand:wikidata:Q5835668,brand:wikipedia:en:Santander Bank","lat":-22.0173098,"lng":-47.8918563},{"id":"2373898234","name":"Supermercado Marini","tags":"shop:supermarket,wheelchair:limited","lat":-22.0282945,"lng":-47.8808983},{"id":"2381334142","name":"Chaminé","tags":"historic:monument,tourism:attraction","lat":-22.0220528,"lng":-47.8830643},{"id":"2465827162","name":"Cacau Café Cafeteria","tags":"amenity:cafe","lat":-22.0219868,"lng":-47.8575337},{"id":"2702470349","name":"38º BPM/I do CPI-3","tags":"amenity:police,operator:Polícia Militar do Estado de São Paulo,operator:short:PMESP,operator:wikidata:Q10351025,operator:wikipedia:pt:Polícia Militar do Estado de São Paulo","lat":-22.0225045,"lng":-47.8864251},{"id":"2703223929","name":"Supermercado Lumara","tags":"shop:supermarket","lat":-22.0208539,"lng":-47.8810693},{"id":"2703226747","name":"Supermercado Jaú Serve","tags":"shop:supermarket","lat":-22.0285518,"lng":-47.8819887},{"id":"2703544466","name":"Dia %","tags":"shop:supermarket","lat":-22.0355993,"lng":-47.8937908},{"id":"2712442078","name":"Centro de Distribuião de Encomendas - Correios São Carlos","tags":"amenity:post_office","lat":-22.0219266,"lng":-47.8979224},{"id":"2712543554","name":"Sesi CE 106","tags":"addr:city:São Carlos,addr:country:BR,addr:housenumber:659,addr:postcode:13574-280,addr:street:Rua Ananias Evangelista de Toledo,addr:suburb:Vila Prado,amenity:school,operator:Serviço Social da Indústria,phone:+55 16 3374-2986","lat":-22.0284911,"lng":-47.9002855},{"id":"2712544933","name":"Banco do Brasil","tags":"amenity:bank,branch:Agência Vila Prado,brand:Banco do Brasil,brand:wikidata:Q610817,brand:wikipedia:en:Banco do Brasil","lat":-22.0242789,"lng":-47.8986711},{"id":"2712545091","name":"Banco do Brasil","tags":"amenity:bank,branch:Agência Ana Prado,brand:Banco do Brasil,brand:wikidata:Q610817,brand:wikipedia:en:Banco do Brasil","lat":-22.0276482,"lng":-47.8996337},{"id":"2712669247","name":"Itaú","tags":"amenity:bank,atm:yes,branch:Agência São Carlos Centro,brand:Itaú Unibanco,brand:wikidata:Q1424293,brand:wikipedia:pt:Itaú Unibanco","lat":-22.0217456,"lng":-47.8904308},{"id":"2712671299","name":"Caixa Econômica Federal","tags":"addr:city:São Carlos,addr:street:Rua Dona Alexandrina,amenity:bank,atm:yes,brand:Caixa Econômica Federal,brand:wikidata:Q835283,brand:wikipedia:pt:Caixa Econômica Federal","lat":-22.0235508,"lng":-47.8897281},{"id":"2712675600","name":"Santander","tags":"amenity:bank,atm:yes,brand:Santander,brand:wikidata:Q5835668,brand:wikipedia:en:Santander Bank","lat":-22.0170511,"lng":-47.8905935},{"id":"2712676419","name":"Santander","tags":"amenity:bank,atm:yes,brand:Santander,brand:wikidata:Q5835668,brand:wikipedia:en:Santander Bank","lat":-22.0167947,"lng":-47.8889876},{"id":"2712679133","name":"Santander","tags":"amenity:bank,atm:yes,brand:Santander,brand:wikidata:Q5835668,brand:wikipedia:en:Santander Bank","lat":-22.01895,"lng":-47.8912462},{"id":"2712681559","name":"Mercantil","tags":"amenity:bank,atm:yes,branch:do Brasil   Agência São Carlos,brand:Mercantil,brand:wikidata:Q6818004,brand:wikipedia:en:Mercantil Servicios Financieros","lat":-22.018896,"lng":-47.8903603},{"id":"2712715986","name":"Caixa Econômica Federal","tags":"amenity:bank,branch:Agência Vila Prado,brand:Caixa Econômica Federal,brand:wikidata:Q835283,brand:wikipedia:pt:Caixa Econômica Federal","lat":-22.0254509,"lng":-47.8985532},{"id":"2712717294","name":"Itaú - Agência Vila Prado","tags":"amenity:bank","lat":-22.0300122,"lng":-47.8986026},{"id":"2712717970","name":"Bradesco - Agência Vila Prado/URB","tags":"amenity:bank","lat":-22.0305195,"lng":-47.8978301},{"id":"2712774553","name":"Caixa Econômica Federal","tags":"amenity:bank,atm:yes,branch:Agência São Carlos,brand:Caixa Econômica Federal,brand:wikidata:Q835283,brand:wikipedia:pt:Caixa Econômica Federal","lat":-22.0179317,"lng":-47.8891818},{"id":"2749794671","name":"Biblioteca Municipal Euclides da Cunha","tags":"amenity:library","lat":-22.0271973,"lng":-47.9000852},{"id":"4225428171","name":"Clube das Mães Creche Anita Costa","tags":"addr:city:São Carlos,addr:housenumber:1549,addr:postcode:13569-030,addr:street:Rua Conde do Pinhal,amenity:school,contact:phone:+55 16 3371-3827","lat":-22.0178003,"lng":-47.8951024},{"id":"4602919886","name":"Savegnago","tags":"addr:housenumber:3600,addr:postcode:13561-270,addr:street:Avenida Comendador Alfredo Maffei,addr:suburb:Jardim São Carlos,email:atendimento@savegnago.com.br,opening_hours:Mo-Sa 08:00-22:00; Su 08:00-20:00,phone:+55 16 3376-1335;+55 16 3376-1332,shop:supermarket,website:https://www.savegnago.com.br/","lat":-22.023828,"lng":-47.880486},{"id":"4604475324","tags":"shop:convenience","lat":-22.0258317,"lng":-47.8742329},{"id":"4604475367","tags":"shop:convenience","lat":-22.0245456,"lng":-47.8803193},{"id":"4604476302","tags":"shop:convenience","lat":-22.0265092,"lng":-47.8742103},{"id":"6125580891","name":"Hamburgueria & Steakhouse PQ","tags":"addr:housenumber:285,addr:street:Rua São Paulo,amenity:restaurant,cuisine:sandwich","lat":-22.0243027,"lng":-47.8857707},{"id":"6125721725","name":"Farmácia Municipal de Alto Custo","tags":"amenity:pharmacy,dispensing:no,healthcare:pharmacy","lat":-22.0236159,"lng":-47.8928122},{"id":"6142599360","name":"Museu da Ciência Professor Mário Tolentino","tags":"addr:city:São Carlos,addr:street:Praça Coronel Salles,opening_hours:Tu,Fr 08:00-21:30; We,Th 08:00-17:30; Sa 12:00-16:30,tourism:museum","lat":-22.0167195,"lng":-47.8901826},{"id":"6423044414","name":"academia do sesi","tags":"leisure:fitness_centre","lat":-22.0388803,"lng":-47.8811356},{"id":"6779440599","name":"Chef Alex","tags":"amenity:restaurant","lat":-22.0177772,"lng":-47.8816563},{"id":"6804141251","tags":"amenity:car_wash","lat":-22.0341852,"lng":-47.8774885},{"id":"6804141275","name":"Norden Hospital","tags":"addr:housenumber:740,addr:street:Avenida Getúlio Vargas,addr:suburb:Vila Lutfalla,amenity:hospital,healthcare:hospital,phone:+55 16 3363-2200,website:https://nordenhospital.com/sao-carlos/","lat":-22.0332268,"lng":-47.8840064},{"id":"7973805991","name":"terreno do parque da chaminé","tags":"leisure:park","lat":-22.0230076,"lng":-47.8829699},{"id":"7973805999","tags":"leisure:park","lat":-22.026269,"lng":-47.875911},{"id":"8410185009","name":"Colégio Interativo","tags":"addr:city:São Carlos,addr:housenumber:1661,addr:postcode:13560-160,addr:street:Rua Major José Ignácio,addr:suburb:Parque Santa Monica,amenity:school,phone:(16) 3307-0700,website:https://interativo.com.br/sc/home/","lat":-22.0166912,"lng":-47.8942264},{"id":"8421819367","name":"Livraria Machado de Assis","tags":"addr:city:São Carlos,addr:street:Rua Conde do Pinhal,shop:books","lat":-22.0177077,"lng":-47.8893363},{"id":"8421819410","name":"Drogão Super","tags":"amenity:pharmacy,dispensing:yes,healthcare:pharmacy","lat":-22.0170004,"lng":-47.8907954},{"id":"10043803416","tags":"shop:supermarket","lat":-22.0350492,"lng":-47.8760123},{"id":"10559862409","name":"Zaí","tags":"addr:housenumber:1672,addr:street:Rua Major José Ignácio,amenity:restaurant,contact:instagram:zhaihonn_restaurante,cuisine:chinese;vegetarian,internet_access:wlan,name:pt:Zhaí Honn,opening_hours:Mo-Sa 11:00-14:15,phone:1630321989;1633072159","lat":-22.0170101,"lng":-47.8942075}]