[{"id":"3060087684","name":"Castelo Restaurante & Grill","tags":"addr:city:São Carlos,addr:housenumber:222,addr:postcode:13560-010,addr:street:Rodovia Washington Luís,addr:suburb:Zona Rural,amenity:restaurant,capacity:400,cuisine:steak_house,delivery:no,opening_hours:10:30-22:30,outdoor_seating:no,smoking:outside,start_date:1957,takeaway:yes,website:http://www.postocastelo.com.br/restaurantes.php","lat":-22.0930438,"lng":-47.8319169},{"id":"3561174960","name":"Cafeteria","tags":"addr:city:São Carlos,addr:housenumber:222,addr:postcode:13560-010,addr:street:Rodovia Washington Luís,addr:suburb:Zona Rural,amenity:cafe,cuisine:coffee_shop,internet_access:yes,internet_access:fee:no,opening_hours:24/7,outdoor_seating:no,smoking:isolated","lat":-22.0937309,"lng":-47.8316471},{"id":"4730561670","name":"Castelo Self-Service Cantina","tags":"addr:city:São Carlos,addr:housenumber:222,addr:postcode:13560-010,addr:street:Rodovia Washington Luís,addr:suburb:Zona Rural,amenity:restaurant,capacity:150,cuisine:regional,delivery:no,outdoor_seating:no,phone:+55 16 2106-0800,short_name:Cantina,smoking:outside,takeaway:yes,website:http://www.postocastelo.com.br/restaurantes.php","lat":-22.0928511,"lng":-47.8321815},{"id":"6152768717","tags":"amenity:car_wash","lat":-22.0939558,"lng":-47.8311937},{"id":"6152768746","tags":"amenity:atm,brand:Banco 24 horas","lat":-22.0936861,"lng":-47.8317153}]