[{"id":"3426226049","name":"Tulha Bar e Restaurante","tags":"addr:housenumber:Km 234,addr:postcode:13566-770,addr:street:Rodovia Engenheiro Thales de Lorena Peixoto Junior,addr:suburb:Parque Eco-Esportivo Damha,amenity:restaurant,contact:facebook:https://www.facebook.com/damha.tulha,email:tulharestaurante@gmail.com,opening_hours:Tu-Su 07:00+,phone:+55 16 2106-6057,website:http://www.dgc.com.br/clube/tulha.asp","lat":-21.9496526,"lng":-47.8991295},{"id":"5025457583","tags":"amenity:restaurant","lat":-21.9364773,"lng":-47.8958108},{"id":"10174566297","tags":"leisure:park","lat":-21.9307718,"lng":-47.8853754},{"id":"10174566298","tags":"leisure:park","lat":-21.9311395,"lng":-47.8843531},{"id":"10174566301","tags":"leisure:park","lat":-21.9379649,"lng":-47.880089},{"id":"10174579134","tags":"shop:convenience","lat":-21.9356739,"lng":-47.8956026},{"id":"10174579135","tags":"shop:convenience","lat":-21.9348675,"lng":-47.8960587}]