[{"id":"3892436359","name":"Estacionamento da Escola","tags":"amenity:parking","lat":-20.8495098,"lng":-49.3831416},{"id":"4008075571","name":"Escola Estadual Professora Zulmira da Silva Salles","tags":"addr:city:São José do Rio Preto,addr:country:BR,addr:state:São Paulo,addr:street:Rua Olavo Guimarães Correa,addr:suburb:Jardim Urano,amenity:school,operator:Governo do Estado de São Paulo","lat":-20.8326089,"lng":-49.372949},{"id":"4013716401","name":"E M Professora Maria Faria de Vasconcelos","tags":"addr:housenumber:460,addr:street:Rua Felipe Abrão Maluf,addr:suburb:Jardim Ouro Verde,amenity:school","lat":-20.835358,"lng":-49.375136},{"id":"4368676894","name":"Osni Lanches","tags":"amenity:restaurant","lat":-20.8344558,"lng":-49.3510153},{"id":"5256943167","name":"Monumento Hotary","tags":"leisure:park","lat":-20.8371728,"lng":-49.3940283},{"id":"5607592404","tags":"access:yes,amenity:parking,parking:surface","lat":-20.8577754,"lng":-49.3758108},{"id":"5607592405","tags":"access:yes,amenity:parking,parking:surface","lat":-20.8576839,"lng":-49.3762694},{"id":"6831482448","name":"Grindélia Farmácia de Manipulação","tags":"addr:city:São José do Rio Preto,addr:housenumber:1320,addr:street:Avenida Francisco das Chagas Oliveira,amenity:pharmacy,dispensing:yes,healthcare:pharmacy","lat":-20.8344403,"lng":-49.3937045}]