[{"id":"5639830828","name":"Banco do Brasil","tags":"amenity:bank","lat":-19.9983473,"lng":-50.3745763},{"id":"5639830829","name":"Caixa Econômica Federal","tags":"amenity:bank","lat":-19.9981141,"lng":-50.3747077},{"id":"5639833022","name":"GP-Polícia Militar","tags":"amenity:police","lat":-20.003299,"lng":-50.3712433},{"id":"5639833121","name":"Correios","tags":"amenity:post_office","lat":-20.0036136,"lng":-50.3726506},{"id":"5639833122","name":"Bradesco","tags":"amenity:bank","lat":-19.9993666,"lng":-50.373966}]