[{"id":"2768675021","name":"Guarda Civil Municipal","tags":"amenity:police","lat":-21.0106413,"lng":-48.2183057},{"id":"2768701454","name":"Associação Atlética de Pitangueiras","tags":"amenity:nightclub","lat":-21.0103398,"lng":-48.222222},{"id":"2768701456","name":"Associação Atlética de Pitangueiras","tags":"leisure:sports_centre","lat":-21.009789,"lng":-48.2229247},{"id":"2768701457","name":"Amarelinha","tags":"shop:supermarket","lat":-21.0109483,"lng":-48.2207709},{"id":"2768701459","name":"Banco do Brasil","tags":"amenity:bank,atm:yes","lat":-21.0110084,"lng":-48.2210525},{"id":"2768701462","name":"Polícia Militar","tags":"amenity:police","lat":-21.0109808,"lng":-48.2202747},{"id":"2768701471","name":"Itaú","tags":"amenity:bank,atm:yes","lat":-21.0106603,"lng":-48.2195398},{"id":"2768701479","name":"Bradesco","tags":"amenity:bank,atm:yes","lat":-21.0099417,"lng":-48.2184079},{"id":"2768701484","name":"Banco do Brasil","tags":"amenity:bank,atm:yes","lat":-21.0097289,"lng":-48.2169783},{"id":"2768701488","tags":"shop:convenience","lat":-21.010117,"lng":-48.2169944},{"id":"2768725522","tags":"amenity:post_office","lat":-21.0121049,"lng":-48.2208549}]