[{"id":"2313560680","name":"Museu Chico Xavier","tags":"tourism:museum","lat":-19.7732998,"lng":-47.9501157},{"id":"3269710820","name":"Bretas Supermercado","tags":"opening_hours:Mo-Sa 08:00-22:00, Su 09:00-20:00,shop:supermarket","lat":-19.7656377,"lng":-47.9495098},{"id":"3273194226","name":"Itaú","tags":"amenity:bank,atm:yes","lat":-19.7694533,"lng":-47.9444321},{"id":"3361717872","name":"Walmart Supercenter","tags":"addr:city:Uberaba,shop:supermarket","lat":-19.7619847,"lng":-47.95027},{"id":"4251319600","name":"Açaí be it","tags":"amenity:cafe","lat":-19.7526695,"lng":-47.9640627},{"id":"4306888831","tags":"amenity:restaurant","lat":-19.763982,"lng":-47.9750838},{"id":"5212249822","name":"Santander","tags":"amenity:bank","lat":-19.7701943,"lng":-47.9445483},{"id":"5212307529","name":"Sabor di Casa","tags":"alt_name:A Fábrica,amenity:cafe","lat":-19.7596978,"lng":-47.9566496},{"id":"5212316524","name":"Toca da Massa","tags":"amenity:restaurant","lat":-19.7643582,"lng":-47.9605742},{"id":"5212316526","name":"Prime Fit","tags":"leisure:fitness_centre","lat":-19.7624532,"lng":-47.9591925},{"id":"5212316527","name":"Empório Caribe","tags":"shop:supermarket","lat":-19.7594131,"lng":-47.956699},{"id":"5212327221","name":"Cupim Grill","tags":"amenity:restaurant","lat":-19.7698035,"lng":-47.94662},{"id":"5212327222","name":"Leandrini","tags":"amenity:cafe","lat":-19.7691859,"lng":-47.9467402},{"id":"5212436023","name":"Compre Certo","tags":"amenity:pharmacy","lat":-19.7575751,"lng":-47.9551862},{"id":"5213275322","name":"Banco do Brasil","tags":"amenity:bank","lat":-19.770533,"lng":-47.9563918},{"id":"5213275422","name":"Pague Menos","tags":"amenity:pharmacy","lat":-19.7736703,"lng":-47.9575224},{"id":"5228323109","name":"Casa Blanca","tags":"amenity:restaurant","lat":-19.7484236,"lng":-47.9482965},{"id":"5228323421","name":"Restaurante Chef Tuca Antonio","tags":"amenity:restaurant","lat":-19.747903,"lng":-47.9465466},{"id":"5704067497","tags":"amenity:parking","lat":-19.7484626,"lng":-47.9516625},{"id":"6380049595","tags":"leisure:park","lat":-19.7698407,"lng":-47.9450417},{"id":"8262791284","name":"Supermercado e panificadora Ki-Delicia","tags":"addr:city:Uberaba,addr:housenumber:407,addr:street:Rua José Gonçalves Borges,addr:suburb:Alfredo Freire,shop:supermarket","lat":-19.7339344,"lng":-47.9853156},{"id":"9479576692","name":"Cobasi","tags":"addr:city:Uberaba,addr:housenumber:1281,addr:street:Avenida Santos Dumont,addr:suburb:Santa Maria,branch:Uberaba,brand:Cobasi,brand:wikidata:Q86739236,brand:wikipedia:pt:Cobasi,opening_hours:Mo-Su 08:00-22:00,phone:+55 34 33172172,shop:pet,website:https://www.cobasi.com.br/","lat":-19.7535195,"lng":-47.9482644},{"id":"10264928661","name":"Villefort","tags":"shop:supermarket","lat":-19.7615218,"lng":-47.9502038}]