[{"id":"2747176816","name":"Supermercado Bom Jesus","tags":"addr:city:Jacutinga,addr:housenumber:415,addr:postcode:37590000,addr:street:Rua Antonio Machado Florence,phone:+55 35 3443 1569,shop:supermarket","lat":-22.2803355,"lng":-46.6047285},{"id":"2748784983","name":"Creche Municipal Dr. João Alves","tags":"addr:city:Jacutinga,addr:postcode:37590-000,addr:street:Rua Tarcísio Ramalho,amenity:childcare","lat":-22.2827479,"lng":-46.5989932},{"id":"2748784984","name":"Supermercado Boa Amizade","tags":"addr:city:Jacutinga,addr:housenumber:314,addr:postcode:37590000,addr:street:Rua Vereador Noé Luiz Ferreira,phone:+55 35 3443 2322,shop:supermarket","lat":-22.2829972,"lng":-46.6029101},{"id":"6392141311","name":"Caixa Econômica Federal","tags":"amenity:bank,brand:Caixa Econômica Federal,brand:wikidata:Q835283,brand:wikipedia:pt:Caixa Econômica Federal","lat":-22.2895494,"lng":-46.6133298},{"id":"6453269146","name":"Banco Bradesco","tags":"amenity:bank,atm:yes","lat":-22.2875689,"lng":-46.6127653},{"id":"6453269147","name":"Banco Itaú","tags":"amenity:bank,atm:yes","lat":-22.2883519,"lng":-46.6127948},{"id":"6453269148","name":"Sicoob - Cooperativa de Crédito","tags":"amenity:bank,atm:yes","lat":-22.2839317,"lng":-46.6100684},{"id":"6453269216","name":"Correios","tags":"amenity:post_office","lat":-22.2873864,"lng":-46.6134024},{"id":"6453269219","name":"APAE Jacutinga","tags":"amenity:school","lat":-22.2829613,"lng":-46.6066432},{"id":"6453269221","name":"Banco do Brasil","tags":"amenity:bank,atm:yes","lat":-22.2894066,"lng":-46.6118065},{"id":"7787467650","name":"Estação Rodoviária","tags":"addr:city:Jacutinga,addr:state:MG,amenity:bus_station,public_transport:station","lat":-22.2859756,"lng":-46.61003}]