[{"id":"4459063091","name":"Polícia Militar Borda da Mata","tags":"amenity:police,name:en:Português,name:pt:Polícia Militar Borda da Mata","lat":-22.2734684,"lng":-46.1663316},{"id":"4459104189","name":"Caixa Econômica Federal","tags":"amenity:bank,name:en:Português,name:pt:Caixa Econômica Federal","lat":-22.2731905,"lng":-46.166429},{"id":"4459109090","name":"Banco do Brasil","tags":"amenity:bank,name:en:Português,name:pt:Banco do Brasil","lat":-22.2763483,"lng":-46.164723},{"id":"4459109091","name":"Polícia Civil Borda da Mata","tags":"amenity:police,name:en:Português,name:pt:Polícia Civil Borda da Mata","lat":-22.2796415,"lng":-46.1636747},{"id":"4459189990","name":"E. E. Lauro Afonso Megale","tags":"amenity:school","lat":-22.2680147,"lng":-46.1599092}]