[{"id":"4802737012","name":"Escola Estadual Padre João Vieira da Fonseca","tags":"addr:postcode:37170-000,addr:street:Rua Wilson da Silveira Lemos,amenity:school,phone:+55 35 3851 1493","lat":-21.0922946,"lng":-45.5584676},{"id":"4838969570","name":"Pronto Atendimento Municipal","tags":"addr:housenumber:707,addr:postcode:37170-000,addr:street:Avenida São Vicente de Paula,amenity:hospital,emergency:yes,healthcare:hospital,healthcare:speciality:general,phone:+55 35 3851 8102","lat":-21.0845678,"lng":-45.5710144},{"id":"4838975863","name":"Hospital Santa Casa de Misericórdia","tags":"addr:housenumber:707,addr:postcode:37170-000,addr:street:Avenida São Vicente de Paula,amenity:hospital,emergency:yes,healthcare:hospital,phone:+55 35 3851 1159","lat":-21.0843402,"lng":-45.5710043},{"id":"4840048042","name":"Caixa Econômica Federal","tags":"addr:housenumber:925,addr:postcode:37170-000,addr:street:Rua Presidente Getúlio Vargas,amenity:bank,atm:yes,brand:Caixa Econômica Federal,brand:wikidata:Q835283,brand:wikipedia:pt:Caixa Econômica Federal,opening_hours:Mo-Fr 10:00-15:00,phone:+55 35 3851 1700","lat":-21.0920295,"lng":-45.5629701},{"id":"4840664715","name":"16ª Delegacia de Polícia Civil de Boa Esperança","tags":"addr:postcode:37170-000,addr:street:Rua Capitão Neves,amenity:police","lat":-21.089098,"lng":-45.5683982},{"id":"4840666705","name":"Polícia Ambiental de Boa Esperança","tags":"addr:postcode:37170-000,addr:street:Avenida Delduque Barbosa,amenity:police,phone:+55 35 3851 8117,website:www.guianaboa.com.br/policia-ambiental","lat":-21.0903174,"lng":-45.569189},{"id":"4840676616","name":"Polícia Rodoviária de Boa Esperança","tags":"addr:postcode:37170-000,addr:street:Avenida Delduque Barbosa,amenity:police,phone:+55 35 3851 6403,police:traffic_police","lat":-21.0904247,"lng":-45.5693236},{"id":"4841678315","name":"Banco do Brasil","tags":"addr:housenumber:173,addr:postcode:37170-000,addr:street:Avenida XV de Outubro,amenity:bank,atm:yes,brand:Banco do Brasil,brand:wikidata:Q610817,brand:wikipedia:en:Banco do Brasil,opening_hours:Mo-Fr 10:00-15:00,phone:+55 35 3851 1360","lat":-21.0930635,"lng":-45.5617792},{"id":"4841704331","name":"Escola Estadual Belmiro Braga","tags":"addr:housenumber:245,addr:postcode:37170-000,addr:street:Avenida XV de Outubro,amenity:school,phone:+55 35 3851 1499","lat":-21.093382,"lng":-45.5611657},{"id":"4841711805","name":"Bradesco","tags":"addr:housenumber:284,addr:postcode:37170-000,addr:street:Rua Doutor Sá Brito,amenity:bank,atm:yes,brand:Bradesco,brand:wikidata:Q806181,brand:wikipedia:en:Banco Bradesco,email:1951.gerencia@bradesco.com.br,opening_hours:Mo-Fr 10:00-15:00,phone:+55 35 3851 1800","lat":-21.0914638,"lng":-45.5654171},{"id":"4841725464","name":"Itaú","tags":"addr:city:Boa Esperança,addr:housenumber:786,addr:postcode:37170-000,addr:street:Rua Presidente Getúlio Vargas,addr:suburb:Centro,amenity:bank,atm:yes,brand:Itaú Unibanco,brand:wikidata:Q1424293,brand:wikipedia:pt:Itaú Unibanco,fax:+55 35 3851 1559,opening_hours:Mo-Fr 10:00-15:00,phone:+55 35 3851 1999","lat":-21.0915368,"lng":-45.5642983},{"id":"4842744578","name":"172ª Companhia da Polícia Militar de Boa Esperança","tags":"addr:housenumber:78,addr:postcode:37170-000,addr:street:Praça Nicésio Ferreia Maia,amenity:police,phone:+55 35 3851 8053;190","lat":-21.0897197,"lng":-45.5693374},{"id":"4936830151","name":"FAFIBE","tags":"addr:housenumber:192,addr:postcode:37170-000,addr:street:Avenida Governador Aureliano Chaves,alt_name:Faculdade de Filosofia, Ciências e Letras de Boa Esperança,amenity:university,phone:+55 35 3851 2211,website:www.fafibe.ieducare.com.br","lat":-21.0783742,"lng":-45.5687304},{"id":"4942169117","name":"Escola Estadual Doutor Sá Brito","tags":"addr:housenumber:26,addr:postcode:37170-000,addr:street:Rua Nestor Barbosa,alt_name:Escola Estadual Dr Sá Brito,amenity:school,phone:+55 35 3851 1450","lat":-21.090176,"lng":-45.5646998},{"id":"4979674711","name":"Centro de Distribuição dos Correios","tags":"addr:housenumber:44,addr:postcode:37170-000,addr:street:Rua Doutor Sá Brito,amenity:post_office,opening_hours:Mo-Fr 09:00-11:00,phone:+55 35 3851 3110;+55 35 3851 1505,website:https://www.correios.com.br","lat":-21.0895602,"lng":-45.5642919},{"id":"5019975854","name":"Supermercados BH","tags":"addr:housenumber:277,addr:postcode:37170-000,addr:street:Avenida XV de Outubro,payment:credit_cards:yes,payment:mastercard:yes,payment:visa:yes,phone:+55 35 3851 1319,shop:supermarket","lat":-21.0935263,"lng":-45.5607792},{"id":"5020049075","name":"Drogaria do Leandro","tags":"addr:housenumber:201,addr:postcode:37170-000,addr:street:Avenida XV de Outubro,amenity:pharmacy,dispensing:no,healthcare:pharmacy,phone:+55 35 3851 3300","lat":-21.0932146,"lng":-45.561514},{"id":"5020049076","name":"Drogaria Monsenhor José Ribeiro","tags":"addr:housenumber:382,addr:postcode:37170-000,addr:street:Rua Governador Benedito Valadares,amenity:pharmacy,dispensing:yes,healthcare:pharmacy,phone:+55 35 3851 3761","lat":-21.0928187,"lng":-45.5630468},{"id":"5020057788","name":"Drogaria Maringá","tags":"addr:housenumber:770,addr:postcode:37170-000,addr:street:Avenida São Vicente de Paula,amenity:pharmacy,healthcare:pharmacy,phone:+55 35 3851 1170","lat":-21.0848478,"lng":-45.5712845},{"id":"5020239974","name":"Drogaria São Geraldo","tags":"addr:housenumber:246,addr:postcode:37170-000,addr:street:Avenida João Júlio de Faria,amenity:pharmacy,dispensing:yes,healthcare:pharmacy,phone:+55 35 3851 1256","lat":-21.093742,"lng":-45.5604444},{"id":"5051332478","name":"Academia WD","tags":"addr:housenumber:80,addr:postcode:37170-000,addr:street:Rua Governador Benedito Valadares,leisure:fitness_centre,phone:+55 35 98861 1465","lat":-21.0915265,"lng":-45.5658058},{"id":"5172746945","name":"Escola Doce Tempo CEI","tags":"addr:housenumber:506,addr:postcode:37170-000,addr:street:Rua Oswaldo Cruz,amenity:school,phone:+55 35 3851 3101","lat":-21.0893504,"lng":-45.563572},{"id":"5703179114","name":"Ateliê Gastronômico Chef Renato Freire","tags":"addr:city:Boa Esperança,addr:housenumber:51,addr:postcode:37170-000,addr:street:Rua Governador Benedito Valadares,addr:suburb:Centro,amenity:restaurant,cuisine:regional;panc,phone:+55 35 38512479","lat":-21.0913794,"lng":-45.5657773}]