[{"id":"3510304166","name":"Supermercado ABC","tags":"addr:city:Formiga,addr:housenumber:350,addr:postcode:35570000,addr:street:Avenida Paulo de Brito,addr:suburb:Alvorada,opening_hours:Mo-Su 08:00-22:00,shop:supermarket","lat":-20.4689667,"lng":-45.4306211},{"id":"3510455891","name":"Colégio Santa Terezinha","tags":"amenity:school","lat":-20.4646926,"lng":-45.4246568},{"id":"3510457630","name":"Santa Casa de Formiga","tags":"amenity:hospital","lat":-20.4617809,"lng":-45.4248548},{"id":"3625845902","name":"Supermercado Ki Sacolão","tags":"shop:supermarket","lat":-20.4662629,"lng":-45.4283682},{"id":"3625845906","name":"Banco Itaú","tags":"amenity:bank","lat":-20.4635237,"lng":-45.4297151},{"id":"3625845907","name":"Caixa Econômica Federal","tags":"amenity:bank","lat":-20.4630092,"lng":-45.4301673},{"id":"3625845908","name":"Drogasil","tags":"amenity:pharmacy","lat":-20.4628683,"lng":-45.4303389},{"id":"3625845909","name":"Banco do Brasil","tags":"amenity:bank","lat":-20.4621952,"lng":-45.4304982},{"id":"3625845910","name":"Bradesco","tags":"amenity:bank","lat":-20.4618254,"lng":-45.430684},{"id":"3625845916","name":"Rodoviária Velha (fora de uso)","tags":"amenity:bus_station","lat":-20.4626172,"lng":-45.4325622},{"id":"3625845918","name":"Formiga Mania","tags":"shop:convenience","lat":-20.4639505,"lng":-45.4317147},{"id":"3625845920","name":"Santander","tags":"amenity:bank","lat":-20.4635312,"lng":-45.4301156},{"id":"3629597596","name":"Hora do Almoço","tags":"amenity:restaurant","lat":-20.4634325,"lng":-45.4301419},{"id":"3629597597","name":"Glória","tags":"amenity:restaurant,cuisine:Restaurante_e_Hamburgueria","lat":-20.4640061,"lng":-45.4303015},{"id":"3629597613","name":"Biblioteca Municipal de Formiga","tags":"amenity:library","lat":-20.4647079,"lng":-45.4269759},{"id":"4252842276","tags":"amenity:place_of_worship,building:church,denomination:catholic,religion:christian","lat":-20.4578324,"lng":-45.4155421},{"id":"4968680767","name":"Supermercado Chapadão","tags":"addr:city:Formiga,addr:housenumber:198,addr:postcode:35570000,addr:street:Av. Abílio Machado,opening_hours:Mo-Sa 08:00-22:00,shop:supermarket","lat":-20.4606629,"lng":-45.4378952},{"id":"4968680768","name":"HSBC","tags":"amenity:bank","lat":-20.4638571,"lng":-45.4293194},{"id":"4968680769","name":"Hora do Almoço","tags":"addr:city:Formiga,addr:housenumber:111,addr:postcode:35570000,addr:street:Rua Barão de Piumhi,addr:suburb:Centro,amenity:restaurant,opening_hours:Mo-Su 11:00-14:00","lat":-20.4648573,"lng":-45.4295796},{"id":"4968680770","name":"Sicoob Credifor","tags":"addr:city:Formiga,addr:housenumber:438,addr:postcode:35570000,addr:street:Rua Lassance Cunha,addr:suburb:Quinzinho,amenity:bank","lat":-20.4704246,"lng":-45.4283261},{"id":"4968680771","name":"Sicoob Credifor","tags":"addr:city:Formiga,addr:housenumber:222,addr:postcode:35570000,addr:street:Av. Abílio Machado,addr:suburb:Chapada,amenity:bank","lat":-20.4604325,"lng":-45.4381358},{"id":"4968680772","name":"Sicoob Credifor","tags":"addr:city:Formiga,addr:housenumber:220,addr:postcode:35570000,addr:street:Avenida Rio Branco,addr:suburb:Centro,amenity:bank","lat":-20.4618938,"lng":-45.4286118},{"id":"5363494008","name":"Açougue do Nenen","tags":"addr:city:Formiga,addr:postcode:35570000,addr:street:Rua Marechal Deodoro da Fonseca,addr:suburb:Chapada,operator:Nenen,payment:credit_cards:yes,shop:supermarket","lat":-20.4603342,"lng":-45.4360895},{"id":"5363585623","name":"Sacolão marechal","tags":"addr:city:Formiga,addr:postcode:35570000,addr:street:Rua Marechal Deodoro da Fonseca,addr:suburb:Chapada,shop:supermarket","lat":-20.4604019,"lng":-45.4358821},{"id":"5363585626","name":"Mercearia do Rafael","tags":"addr:city:Formiga,addr:postcode:35570000,addr:street:Rua Marechal Deodoro da Fonseca,addr:suburb:Chapada,operator:rafael,shop:supermarket","lat":-20.4596496,"lng":-45.4367059},{"id":"6000053656","name":"Escola Estadual Tonico Leite","tags":"amenity:school","lat":-20.454179,"lng":-45.423256},{"id":"6001097974","name":"Escola Pio XII","tags":"amenity:school","lat":-20.4597246,"lng":-45.4201418},{"id":"6002444523","name":"Igreja São Geraldo","tags":"amenity:place_of_worship,building:church,religion:christian","lat":-20.453537,"lng":-45.4250186},{"id":"9798821723","tags":"amenity:parking","lat":-20.4643118,"lng":-45.4268092},{"id":"9798821724","name":"Banco Sicoob","tags":"amenity:bank","lat":-20.4617574,"lng":-45.4309315}]