[{"id":"2434677947","name":"Supermercado Indiara","tags":"shop:supermarket","lat":-17.1380423,"lng":-49.9921653},{"id":"2434678066","name":"Supermercado Marques","tags":"shop:supermarket","lat":-17.1381807,"lng":-49.9919725},{"id":"2970628337","name":"Escola Estadual Valeriano de Barros","tags":"addr:city:Indiara,addr:postcode:75955-000,addr:street:Avenida Pedro Ludovico Teixeira,amenity:school,operator:Estado","lat":-17.1384457,"lng":-49.9909475},{"id":"5290092561","name":"Escola Municipal Antônio do Couto","tags":"addr:city:Indiara,addr:postcode:75955-000,addr:street:Avenida Água Limpa,amenity:school,operator:Município","lat":-17.1340347,"lng":-49.9891039},{"id":"5290092584","name":"Escola Municipal Olavo Bilac","tags":"addr:city:Indiara,addr:postcode:75955-000,amenity:school,operator:Município","lat":-17.1362875,"lng":-49.994738}]