[{"id":"1042072559","name":"Aeroporto de Aragarças","tags":"aeroway:aerodrome,iata:ARS,icao:SWEC","lat":-15.8993998,"lng":-52.2411003},{"id":"2807486050","name":"Terminal Rodoviário de Aragarças","tags":"amenity:bus_station","lat":-15.8974283,"lng":-52.2414278},{"id":"2823661895","name":"Parque Municipal das Águas Quentes","tags":"tourism:attraction","lat":-15.8820838,"lng":-52.211801},{"id":"2823678617","name":"Supermercado Mendonça","tags":"shop:supermarket","lat":-15.8870239,"lng":-52.247335},{"id":"2823714115","name":"Pronto Socorro Municipal","tags":"amenity:hospital","lat":-15.8837538,"lng":-52.2471087},{"id":"2832812868","name":"Hotel e Restaurante Cerrado","tags":"amenity:restaurant","lat":-15.8970872,"lng":-52.2336949},{"id":"2832878046","name":"Restaurante Sabor Goiano","tags":"amenity:restaurant","lat":-15.8958665,"lng":-52.2494076},{"id":"2832878265","name":"Delegacia de Polícia Civil de Aragarças","tags":"amenity:police","lat":-15.8953067,"lng":-52.24764},{"id":"2838245221","name":"Barranco Bar e Restaurante","tags":"amenity:bar","lat":-15.87949,"lng":-52.2418242},{"id":"2838261300","name":"Barranco","tags":"amenity:restaurant","lat":-15.8795352,"lng":-52.241796},{"id":"3296862967","name":"Hospital Municipal Getúlio Vargas","tags":"amenity:hospital,phone:+55 64 36381800","lat":-15.9068909,"lng":-52.2445634},{"id":"3416172735","name":"Estadio Franciscão","tags":"leisure:stadium,sport:soccer","lat":-15.9067616,"lng":-52.2377995},{"id":"3416172736","name":"Escola Estadual Luiz Dias Paes Lemes","tags":"amenity:school","lat":-15.9051391,"lng":-52.2379524},{"id":"3416172737","name":"Supermercado Araguaia","tags":"shop:supermarket","lat":-15.9078217,"lng":-52.241053},{"id":"3416172738","name":"Mega frutt 2","tags":"shop:supermarket","lat":-15.9074684,"lng":-52.2410262},{"id":"3416788858","name":"Extra Forte","tags":"shop:supermarket","lat":-15.8970396,"lng":-52.2339717},{"id":"3470454387","name":"Goianão","tags":"shop:supermarket","lat":-15.9040829,"lng":-52.2361693},{"id":"3470454391","name":"Drogafacil","tags":"amenity:pharmacy","lat":-15.9076426,"lng":-52.2412763},{"id":"3470454794","name":"Escola Municipal Sebastião Granja","tags":"amenity:school","lat":-15.9049683,"lng":-52.2333809},{"id":"3470454796","name":"Skinão","tags":"shop:supermarket","lat":-15.905404,"lng":-52.2424978},{"id":"3470454806","name":"Colegio Estadual Melquiades Victor de Oliveira","tags":"amenity:school","lat":-15.8972019,"lng":-52.236812},{"id":"3470454811","name":"Mercearia Iza","tags":"shop:supermarket","lat":-15.906468,"lng":-52.2354789},{"id":"3470454812","name":"Mercado União","tags":"shop:supermarket","lat":-15.9067569,"lng":-52.2349854},{"id":"3678133635","name":"Spasso Buffet","tags":"amenity:nightclub","lat":-15.8846031,"lng":-52.2301426},{"id":"3678135071","name":"Garden Hall","tags":"amenity:nightclub","lat":-15.8886224,"lng":-52.2499722},{"id":"5902351807","tags":"tourism:attraction","lat":-15.8920411,"lng":-52.2498815},{"id":"7659073505","name":"Suze Cabeleleira","tags":"addr:city:Barra do Garças,addr:street:Rua das Rosas,addr:suburb:Anchieta,beauty:hair,opening_hours:Mo-Su 07:00-19:00,opening_hours:covid19:off,operator:Suzemara Tomazeli,payment:cash:yes,shop:beauty","lat":-15.8760523,"lng":-52.2314723}]