[{"id":"589545758","name":"Terminal Cruzeiro","tags":"amenity:bus_station,bus:yes,public_transport:station","lat":-16.7454142,"lng":-49.2813528},{"id":"2592824698","name":"Bradesco","tags":"amenity:bank","lat":-16.7484719,"lng":-49.2880765},{"id":"4723230743","name":"Banco do Brasil","tags":"addr:city:Aparecida de Goiânia,addr:street:Rua J 2,addr:suburb:Papillon Park - Complemento,amenity:bank,atm:yes,brand:Banco do Brasil,brand:wikidata:Q610817,brand:wikipedia:en:Banco do Brasil,opening_hours:10:00-16:00","lat":-16.776209,"lng":-49.2754244},{"id":"4723235668","name":"Parque da Criança","tags":"leisure:park","lat":-16.7751459,"lng":-49.2854183},{"id":"4723239928","name":"Supermecado Nova Fonte","tags":"addr:city:Aparecida de Goiânia,addr:street:Avenida W 2,addr:suburb:Mansões Paraíso,opening_hours:06:00-20:00,shop:supermarket","lat":-16.779342,"lng":-49.282087},{"id":"4723240616","name":"Drogaria Bom Jesus","tags":"addr:city:Aparecida de Goiânia,addr:street:Avenida W 2,addr:suburb:Mansões Paraíso,amenity:pharmacy,dispensing:yes,healthcare:pharmacy","lat":-16.7793729,"lng":-49.2821996},{"id":"5264852035","name":"Caixa Econômica Federal","tags":"amenity:bank,atm:yes","lat":-16.7856441,"lng":-49.2774851},{"id":"5264864055","name":"praça de esporte","tags":"leisure:park","lat":-16.7804933,"lng":-49.2887183},{"id":"5264886122","name":"policia civil","tags":"amenity:police","lat":-16.7828222,"lng":-49.2772651},{"id":"5329777006","tags":"amenity:police","lat":-16.7591249,"lng":-49.2738659},{"id":"5329777024","name":"Diamante","tags":"shop:supermarket","lat":-16.7780979,"lng":-49.2764443},{"id":"5329777032","tags":"amenity:police","lat":-16.774262,"lng":-49.2854433},{"id":"5329777061","tags":"amenity:pharmacy,healthcare:pharmacy","lat":-16.7584991,"lng":-49.2753322},{"id":"6109359686","name":"Lavajato Só Motos","tags":"amenity:car_wash,self_service:no","lat":-16.7757108,"lng":-49.2753659},{"id":"6138180585","name":"Artesanal Burguer","tags":"amenity:restaurant,cuisine:sanduiche artesanal,opening_hours:Tu-Su 18:00-18:00, Mo-Fr 08:00-23:00","lat":-16.7748961,"lng":-49.2905204},{"id":"6380058306","name":"Praça 21 de Setembro","tags":"leisure:park","lat":-16.7446633,"lng":-49.2927683},{"id":"6388706885","name":"CEU das Artes Orlando Alves Carneiro","tags":"tourism:attraction","lat":-16.7628016,"lng":-49.2892422},{"id":"9330318053","name":"Esquina 62 Bar & Cozinha","tags":"addr:city:Aparecida de Goiânia,addr:housenumber:s/n,addr:postcode:74915-230,addr:street:Rua Sílvio Romero, Qd. 37, Lt. 16,addr:suburb:Jardim Luz,amenity:bar,brewery:petiscos;chopp;pratos;drinks;samba;mpb;pop_rock;cerveja;espetos,opening_hours:Mo-Su 17:00-02:00,wheelchair:yes","lat":-16.7476384,"lng":-49.2740889}]