[{"id":"2515086825","name":"Empório do Churrasco","tags":"amenity:restaurant,cuisine:barbecue","lat":-16.3285249,"lng":-48.9422812},{"id":"2515086826","name":"Brahma Express","tags":"amenity:bar","lat":-16.3289372,"lng":-48.9420804},{"id":"4357958461","name":"Colégio Estadual Senador Onofre Quinan","tags":"addr:city:Anápolis - GO,addr:housenumber:R. 18, S/Nº,addr:postcode:75095-770,addr:street:Avenida Bandeirantes,addr:suburb:Bairro de Lourdes,amenity:school","lat":-16.3475546,"lng":-48.920304},{"id":"4552714289","name":"Feirão coberto","tags":"addr:street:Rua Visconde de Taunay,name:pt:Feirão coberto,opening_hours:Su, Th 07:00-12:00,shop:supermarket","lat":-16.3286044,"lng":-48.9379343},{"id":"4682549944","name":"Praca da Bíblia","tags":"leisure:park","lat":-16.3144407,"lng":-48.9474708},{"id":"4823494808","name":"CDD Juscelino Kubstchek","tags":"addr:city:Anápolis,addr:housenumber:Q25 L3,addr:postcode:75113971,addr:street:Rua H 18,addr:suburb:Cidade Jardim,amenity:post_office,official_name:Centro de Distribuicao Domiciliar Juscelino Kubstchek - GO,postal_code:75113971","lat":-16.3158368,"lng":-48.9443628},{"id":"4830992066","name":"AC Brasil Park Shopping","tags":"addr:city:ANÁPOLIS,addr:housenumber:505,addr:loja:9A 3B 3C,addr:street:Avenida Brasil,addr:suburb:Setor Central,amenity:post_office,official_name:Agência de Correios Brasil Park Shopping,postal_code:75020970","lat":-16.3244871,"lng":-48.9486913},{"id":"5228250724","name":"CEF Ag 2262 - Centro Oeste","tags":"amenity:bank","lat":-16.3188399,"lng":-48.9457048},{"id":"5257927904","name":"Academia Sprint","tags":"leisure:fitness_centre","lat":-16.3067721,"lng":-48.9414959},{"id":"5594867822","name":"Caixa Econômica Federal","tags":"amenity:bank,brand:Caixa Econômica Federal,brand:wikidata:Q835283,brand:wikipedia:pt:Caixa Econômica Federal","lat":-16.331195,"lng":-48.9478161},{"id":"5741748321","name":"Magazine Anapolino","tags":"addr:postcode:75000000,shop:books","lat":-16.326529,"lng":-48.9541159},{"id":"6125792556","name":"Ginásio Internacional Newton de Faria","tags":"addr:city:ANÁPOLIS,addr:postcode:75020-010,addr:street:Avenida Senador José Lourenço Dias,leisure:sports_centre","lat":-16.3252055,"lng":-48.949863},{"id":"6326596674","name":"Praça Barro Preto","tags":"leisure:park","lat":-16.3240604,"lng":-48.9387054},{"id":"6883570402","name":"Lotérica JK","tags":"amenity:bank,atm:yes","lat":-16.3456364,"lng":-48.9356855},{"id":"6883570403","name":"Academia Rinno Force","tags":"leisure:fitness_centre","lat":-16.3459595,"lng":-48.9353796},{"id":"6883570407","name":"Academia Phisicus","tags":"leisure:fitness_centre","lat":-16.3447185,"lng":-48.9357943},{"id":"6883570408","name":"Pamonharia Manna's","tags":"amenity:restaurant","lat":-16.3442921,"lng":-48.9355885},{"id":"6883570409","name":"Drogaria Certa","tags":"amenity:pharmacy,dispensing:yes,healthcare:pharmacy","lat":-16.344052,"lng":-48.9356123},{"id":"6883570410","name":"Super Vi","tags":"opening_hours:Seg a Sab 07:00-21:00,shop:supermarket","lat":-16.344169,"lng":-48.9359355},{"id":"6883570411","name":"Churrasquinho Goiano","tags":"amenity:restaurant,cuisine:regional","lat":-16.3434889,"lng":-48.9357023},{"id":"6883570412","name":"Restaurante do David","tags":"amenity:restaurant,cuisine:regional","lat":-16.3436665,"lng":-48.9359571},{"id":"6883570413","name":"Drogaria Bio farma","tags":"amenity:pharmacy,dispensing:yes,healthcare:pharmacy","lat":-16.3431986,"lng":-48.9357057},{"id":"6883570414","name":"Traira e Cia","tags":"amenity:restaurant,cuisine:regional;fish_and_chips","lat":-16.3433786,"lng":-48.9359782},{"id":"6883570415","name":"Farmácia Santa Maria","tags":"amenity:pharmacy,dispensing:yes,healthcare:pharmacy","lat":-16.3449226,"lng":-48.9358095},{"id":"6883570416","name":"Prato Cheio","tags":"amenity:restaurant,cuisine:regional;american;fish_and_chips","lat":-16.3430223,"lng":-48.935761},{"id":"6883570419","name":"Farmácia JK","tags":"amenity:pharmacy,dispensing:yes,healthcare:pharmacy","lat":-16.342519,"lng":-48.936102},{"id":"6883570422","name":"Salão de Beleza Fique bela","tags":"shop:beauty","lat":-16.3437613,"lng":-48.9359222},{"id":"6883570431","name":"Academia Champions","tags":"leisure:fitness_centre","lat":-16.3411124,"lng":-48.9363999},{"id":"6883570435","name":"Parada Obrigatória","tags":"amenity:restaurant,cuisine:regional","lat":-16.346727,"lng":-48.9354862},{"id":"6883570443","name":"Estácio UNISEB","tags":"amenity:university","lat":-16.3474686,"lng":-48.9351546},{"id":"7576020170","tags":"amenity:parking","lat":-16.3349321,"lng":-48.9417915},{"id":"7576020171","name":"Chão Goiano","tags":"amenity:restaurant","lat":-16.3350041,"lng":-48.9419494},{"id":"7576020176","tags":"amenity:car_wash","lat":-16.3254135,"lng":-48.9354994},{"id":"7576020177","tags":"leisure:park","lat":-16.3256088,"lng":-48.9352237},{"id":"7576093162","tags":"access:yes,amenity:parking,capacity:10,parking:surface","lat":-16.3037947,"lng":-48.953457},{"id":"7576093163","tags":"access:yes,amenity:parking,capacity:20,parking:surface","lat":-16.3041136,"lng":-48.9525008},{"id":"7576093165","tags":"access:yes,amenity:parking,capacity:30,parking:surface","lat":-16.3364466,"lng":-48.9406565},{"id":"7576093166","tags":"access:private,amenity:parking,capacity:3,parking:surface","lat":-16.3372719,"lng":-48.9405026},{"id":"7576093167","tags":"access:yes,amenity:parking,capacity:40,parking:surface","lat":-16.3382534,"lng":-48.9410899},{"id":"7576135077","tags":"access:yes,amenity:parking,capacity:15,parking:surface","lat":-16.3414458,"lng":-48.936084},{"id":"7576135078","tags":"access:yes,amenity:parking,capacity:15,parking:surface","lat":-16.3414874,"lng":-48.9361687},{"id":"7576135079","tags":"access:yes,amenity:parking,capacity:15,parking:surface","lat":-16.3415943,"lng":-48.9356141},{"id":"7576135080","tags":"access:yes,amenity:parking,capacity:15,parking:surface","lat":-16.341904,"lng":-48.9365004},{"id":"7632555807","name":"Farmácia Artesanal - St. Central - Anápolis / GO","tags":"addr:city:Anápolis,addr:housenumber:237,addr:postcode:75020030,addr:street:Rua Manoel d'Abadia,addr:suburb:Setor Central,amenity:pharmacy,dispensing:yes,healthcare:pharmacy","lat":-16.3279127,"lng":-48.9539594},{"id":"7632582246","name":"Farmácia Artesanal - St. Jundiaí - Anápolis / GO","tags":"addr:city:Anápolis,addr:housenumber:211,addr:postcode:75110-580,addr:street:Avenida Pinheiro Chagas,addr:suburb:Setor Jundiaí,amenity:pharmacy,dispensing:yes,healthcare:pharmacy","lat":-16.3340188,"lng":-48.9467505},{"id":"7741551953","tags":"amenity:car_wash","lat":-16.3378498,"lng":-48.9481942},{"id":"7827906528","name":"Avião Mirage 2000 - Vila dos Sargentos","tags":"addr:city:Anápolis,addr:suburb:Anápolis city,tourism:attraction","lat":-16.3248095,"lng":-48.9302304},{"id":"7827966518","tags":"amenity:parking,fee:no","lat":-16.3255689,"lng":-48.950774},{"id":"8100313251","name":"Drogasil","tags":"amenity:pharmacy,brand:Drogasil,brand:wikidata:Q5308185,brand:wikipedia:pt:Drogasil,dispensing:yes,healthcare:pharmacy,opening_hours:24/7,wheelchair:yes","lat":-16.3294465,"lng":-48.9477256},{"id":"9573985830","name":"Delegacia de Anápolis","tags":"addr:city:Anápolis,addr:housenumber:465,addr:postcode:75113-640,addr:street:Avenida Alfredo Nasser,amenity:police,operator:Polícia Federal do Brasil,operator:en:Federal Police of Brazil,operator:wikidata:Q2289697,operator:wikipedia:pt:Polícia Federal do Brasil,phone:+55 62 3310 5300","lat":-16.3313859,"lng":-48.9488119},{"id":"9579287914","name":"Polícia Federal do Brasil","tags":"addr:city:Anápolis,addr:housenumber:Q65L15,addr:postcode:75110-430,addr:street:Avenida José Neto Paranhos,addr:suburb:Bairro Jundiaí,amenity:police,operator:Polícia Federal do Brasil,operator:en:Federal Police of Brazil,operator:wikidata:Q2289697,operator:wikipedia:pt:Polícia Federal do Brasil","lat":-16.3363061,"lng":-48.9349796}]