[{"id":"4392817092","name":"Drogaria Santa Pharma","tags":"amenity:pharmacy,healthcare:pharmacy,name:pt:Drogaria Santa Pharma","lat":-16.283464,"lng":-48.9719154},{"id":"4392875890","name":"Supervi Supermercado","tags":"name:pt:Supervi Supermercado,shop:supermarket","lat":-16.2839351,"lng":-48.971904},{"id":"4830999698","name":"AC Jayara","tags":"addr:city:Anápolis,addr:housenumber:801,addr:street:Avenida Fernando Costa,addr:suburb:Vila Jayara,amenity:post_office,official_name:Agência de Correios Jayara,postal_code:75064970","lat":-16.2870474,"lng":-48.9706162},{"id":"5333322821","name":"CEF 3257 - Jaiara","tags":"amenity:bank","lat":-16.2938234,"lng":-48.9673946},{"id":"6387948213","tags":"addr:city:Anápolis,addr:street:Avenida dos Pirineus,addr:suburb:Parque dos Pirineus,amenity:pharmacy,dispensing:yes,healthcare:pharmacy","lat":-16.2750897,"lng":-48.9553549},{"id":"7576105956","tags":"amenity:restaurant","lat":-16.2930167,"lng":-48.9678643},{"id":"8300693875","name":"Pet Shop Vida Animal","tags":"addr:city:Anápolis,addr:housenumber:Qd 29 Lt 36,addr:postcode:75060-130,addr:street:Avenida Nair Xavier Correia,addr:suburb:Jardim Alexandrina,image:https://business.google.com/u/1/photos/l/12627179748809286654,opening_hours:Mo-Fr 08:00-18:00; Sa 08:00-13:00,opening_hours:covid19:open,operator:Geovana Mesquita,payment:cards:yes,payment:cash:yes,phone:+55 62 9 9572 9487,shop:pet,website:https://www.instagram.com/pet_shop_vidaanimal/","lat":-16.2975089,"lng":-48.9635304}]