[{"id":"2514057878","name":"Jerivá","tags":"amenity:restaurant,cuisine:regional","lat":-16.1915571,"lng":-48.7246411},{"id":"4828461221","name":"Disk Remédio","tags":"amenity:pharmacy,name:pt:Disk Remédio","lat":-16.1910269,"lng":-48.710399},{"id":"10292074230","name":"Central Gás","tags":"shop:supermarket","lat":-16.2046418,"lng":-48.7063939},{"id":"10292074247","tags":"shop:supermarket","lat":-16.2074575,"lng":-48.705603},{"id":"10292074248","tags":"shop:supermarket","lat":-16.2089146,"lng":-48.7056269},{"id":"10292074278","name":"Sempre Mais","tags":"shop:supermarket","lat":-16.1928713,"lng":-48.7076262},{"id":"10292074282","name":"Caixa Econômica Federal","tags":"amenity:bank,brand:Caixa Econômica Federal,brand:wikidata:Q835283","lat":-16.1926756,"lng":-48.7107789},{"id":"10292074291","name":"Mercado Filipe","tags":"shop:supermarket","lat":-16.1935782,"lng":-48.7094834},{"id":"10292074292","tags":"amenity:bus_station,bus:yes,public_transport:station","lat":-16.1950115,"lng":-48.708967}]