[{"id":"1042088014","name":"Aeroporto Brigadeiro Araripe Macedo","tags":"aeroway:aerodrome,icao:SWUZ,internet_access:wlan,internet_access:fee:no,operator:Aeroclube de Brasília,phone:+55 61 3621-1318,wikidata:Q18472005,wikipedia:pt:Aeroclube de Brasília","lat":-16.258876,"lng":-47.9682509},{"id":"3141614767","name":"Instituto Federal de Educação, Ciência e Tecnologia de Goiás","tags":"addr:city:Luziânia,addr:postcode:72811-580,addr:street:Rua São Bartolomeu,addr:suburb:Vila Esperença,amenity:school,office:educational_institution,website:http://www.luziania.ifg.edu.br/,wheelchair:yes","lat":-16.2434179,"lng":-47.961892},{"id":"3141915777","name":"Igreja Matriz","tags":"amenity:place_of_worship,building:church","lat":-16.2535617,"lng":-47.9498179},{"id":"4332724098","name":"Cartório imóveis","tags":"amenity:bank","lat":-16.2537377,"lng":-47.9555253},{"id":"4610776880","name":"Praça Santa Luzia","tags":"leisure:park","lat":-16.2529909,"lng":-47.9466877},{"id":"7294508027","tags":"amenity:school","lat":-16.2409283,"lng":-47.9590672},{"id":"7295386981","tags":"amenity:bus_station,bus:yes,public_transport:station","lat":-16.2588644,"lng":-47.9593562}]