[{"id":"2579649163","name":"Any Shirley Fitness","tags":"leisure:sports_centre,phone:+55 61 3556 7622","lat":-16.0134909,"lng":-48.0582655},{"id":"2579649171","name":"Abaeté Restaurante","tags":"amenity:restaurant","lat":-16.0266896,"lng":-48.0682972},{"id":"2579649174","name":"Academia Atitude","tags":"leisure:sports_centre","lat":-16.0215719,"lng":-48.0624476},{"id":"2579649177","name":"Academia Body Sisio","tags":"leisure:sports_centre","lat":-16.0226474,"lng":-48.0741031},{"id":"2579649181","name":"Academia Capital","tags":"leisure:sports_centre","lat":-16.0197215,"lng":-48.0575609},{"id":"2579649184","name":"Academia Corpo Arte","tags":"leisure:sports_centre","lat":-16.0332061,"lng":-48.0732368},{"id":"2579649188","name":"Academia Explosão","tags":"leisure:sports_centre","lat":-16.0322857,"lng":-48.0602493},{"id":"2579649191","name":"Academia Gama Fit Clube","tags":"leisure:sports_centre,phone:+55 61 3384 0074","lat":-16.0291023,"lng":-48.0555725},{"id":"2579649192","name":"Academia Sport Life - Gama","tags":"leisure:sports_centre","lat":-16.0251227,"lng":-48.0633058},{"id":"2579649204","name":"Altas Horas - Distribuidora de Bebidas","tags":"amenity:bar","lat":-16.0221901,"lng":-48.05616},{"id":"2579649208","name":"Arco Íris- Salão de Festa","tags":"amenity:restaurant","lat":-16.0209887,"lng":-48.0728328},{"id":"2579649237","name":"Açougue Junior Carnes","tags":"shop:supermarket","lat":-16.0027889,"lng":-48.0601963},{"id":"2579649243","name":"BRB Conveniencia","tags":"amenity:bank","lat":-16.0282694,"lng":-48.060931},{"id":"2579649244","name":"BRB Conveniência","tags":"amenity:bank","lat":-16.0090103,"lng":-48.0714531},{"id":"2579649245","name":"BRB Conveniência","tags":"amenity:bank","lat":-16.0160503,"lng":-48.0695152},{"id":"2579649246","name":"BRB Conveniência","tags":"amenity:bank","lat":-16.0179069,"lng":-48.0752462},{"id":"2579649247","name":"BRB Conveniência","tags":"amenity:bank","lat":-16.0241451,"lng":-48.0733948},{"id":"2579649248","name":"BRB Conviniência","tags":"amenity:bank","lat":-15.9985008,"lng":-48.0579491},{"id":"2579649249","name":"BRB","tags":"amenity:bank","lat":-16.0147305,"lng":-48.0599098},{"id":"2579649250","name":"BRB","tags":"amenity:bank","lat":-16.0181484,"lng":-48.0654984},{"id":"2579649251","name":"BRB","tags":"amenity:bank","lat":-16.0337448,"lng":-48.0582314},{"id":"2579649262","name":"Branco24Horas","tags":"amenity:atm,brand:Banco24Horas,brand:wikidata:Q4854069,brand:wikipedia:pt:Banco24Horas","lat":-16.0243609,"lng":-48.0640044},{"id":"2579649263","name":"Banco do Brasil","tags":"addr:place:Gama,amenity:bank,brand:Banco do Brasil,brand:wikidata:Q610817,brand:wikipedia:en:Banco do Brasil","lat":-16.0215454,"lng":-48.067604},{"id":"2579649264","name":"Banco do Brasil","tags":"amenity:bank,atm:yes,brand:Banco do Brasil,brand:wikidata:Q610817,brand:wikipedia:en:Banco do Brasil","lat":-16.0318441,"lng":-48.0584466},{"id":"2579649265","name":"Bar Bola 7","tags":"amenity:bar,phone:+55 61 3484 2165","lat":-16.0227013,"lng":-48.0555916},{"id":"2579649266","name":"Bar Central Drinks","tags":"amenity:bar","lat":-16.0212466,"lng":-48.0729976},{"id":"2579649267","name":"Bar Embaixada do piauí","tags":"amenity:bar","lat":-16.0180435,"lng":-48.0749359},{"id":"2579649268","name":"Quiosque JC","tags":"addr:street:Q. 21,amenity:bar,opening_hours:Tu-Su 16:00-23:00","lat":-16.0199814,"lng":-48.0569839},{"id":"2579649269","name":"Bar Primeira Opção","tags":"amenity:bar","lat":-16.029314,"lng":-48.0556908},{"id":"2579649270","name":"Bar da Patricia","tags":"amenity:bar","lat":-16.0212123,"lng":-48.0729709},{"id":"2579649271","name":"Bar do Atleta","tags":"amenity:bar","lat":-16.0128452,"lng":-48.0645352},{"id":"2579649272","name":"Bar do Chico","tags":"amenity:bar","lat":-16.0273089,"lng":-48.0690419},{"id":"2579649275","tags":"amenity:bar","lat":-16.0269604,"lng":-48.0578651},{"id":"2579649276","tags":"amenity:bar","lat":-16.0305157,"lng":-48.0564995},{"id":"2579649277","tags":"amenity:bar","lat":-16.0331091,"lng":-48.0563052},{"id":"2579649281","name":"Bella Arte Papelaria","tags":"amenity:library","lat":-16.0083199,"lng":-48.0731583},{"id":"2579649287","name":"Biblioteca do Gama","tags":"amenity:library","lat":-16.0197548,"lng":-48.0687298},{"id":"2579649293","name":"Bob Esponja- Distribuidor de Bebidas","tags":"amenity:bar","lat":-16.0216909,"lng":-48.0625322},{"id":"2579649294","name":"Bola da Vez - Distribuidora de Bebidas","tags":"amenity:bar,phone:+55 61 3484 5876","lat":-16.0230045,"lng":-48.055088},{"id":"2579649310","name":"Bradesco","tags":"amenity:atm","lat":-16.012873,"lng":-48.0627956},{"id":"2579649311","name":"Bradesco- Agencia Central","tags":"amenity:bank","lat":-16.0192986,"lng":-48.0660172},{"id":"2579649314","name":"Buteco com","tags":"amenity:bar","lat":-16.0217844,"lng":-48.062578},{"id":"2579649316","name":"Caixa Econômica Federal","tags":"amenity:bank,brand:Caixa Econômica Federal,brand:wikidata:Q835283,brand:wikipedia:pt:Caixa Econômica Federal","lat":-16.018472,"lng":-48.064713},{"id":"2579649319","name":"CNA","tags":"amenity:school,training:language","lat":-16.0257232,"lng":-48.060501},{"id":"2579649329","name":"Itaú","tags":"amenity:atm","lat":-16.0130876,"lng":-48.0624608},{"id":"2579649330","name":"Caldo do Chico","tags":"amenity:bar","lat":-16.0208428,"lng":-48.0624113},{"id":"2579649357","name":"Central Supermercado","tags":"shop:supermarket","lat":-16.0196165,"lng":-48.0729059},{"id":"2579649363","name":"Centro Olímpico do Gama","tags":"leisure:stadium","lat":-16.0131187,"lng":-48.0603752},{"id":"2579649375","name":"Centro de Saúde 2 do gama","tags":"amenity:hospital","lat":-16.036829,"lng":-48.0610962},{"id":"2579649378","name":"Centro de Saúde 6 do Gama","tags":"amenity:hospital","lat":-16.0115414,"lng":-48.0739784},{"id":"2579649379","name":"Centro de Saúde 8 do Gama","tags":"amenity:hospital,healthcare:hospital","lat":-16.0138187,"lng":-48.0675316},{"id":"2579649382","name":"Chaguinha","tags":"amenity:bar","lat":-16.029501,"lng":-48.0647011},{"id":"2579649390","name":"Chilli Pizza","tags":"amenity:restaurant,cuisine:pizza,phone:+55 61 3384 6494","lat":-16.0166779,"lng":-48.0530968},{"id":"2579649392","name":"Choperia Harem","tags":"amenity:bar","lat":-16.0073329,"lng":-48.0582376},{"id":"2579649394","name":"Churrasco do Gama","tags":"amenity:bar","lat":-16.0125789,"lng":-48.0640094},{"id":"2579649395","name":"Churrasquinho Belchior","tags":"amenity:bar","lat":-16.0219917,"lng":-48.0564232},{"id":"2579649396","name":"Churrasquinho do Dudu","tags":"amenity:bar","lat":-16.0069561,"lng":-48.0741386},{"id":"2579649398","name":"Churrasquinho do Pernambuco","tags":"amenity:bar","lat":-16.0228062,"lng":-48.0551414},{"id":"2579649399","name":"Churrasquinhos do João","tags":"amenity:bar","lat":-16.0153236,"lng":-48.0730934},{"id":"2579649405","name":"Claudios Bar","tags":"amenity:bar","lat":-16.023592,"lng":-48.0725975},{"id":"2579649421","name":"Contigo Supermercado","tags":"shop:supermarket","lat":-16.0290952,"lng":-48.0606837},{"id":"2579649422","name":"Cooplem Idiomas","tags":"amenity:school,phone:+55 61 3385 1770","lat":-16.0201188,"lng":-48.062448},{"id":"2579649424","name":"Correio da Rodoviária","tags":"amenity:post_office","lat":-16.0199366,"lng":-48.0675094},{"id":"2579649425","name":"Correios Distribuição Gama","tags":"amenity:post_office","lat":-16.0073605,"lng":-48.0580902},{"id":"2579649426","name":"Costela no Bafo","tags":"amenity:bar","lat":-16.0252952,"lng":-48.0658991},{"id":"2579649428","name":"Cozinha Brasil","tags":"amenity:restaurant","lat":-16.0086842,"lng":-48.072216},{"id":"2579649429","name":"Cozinha Brasileira","tags":"amenity:restaurant","lat":-16.0048248,"lng":-48.0535264},{"id":"2579649432","name":"Crocodilos","tags":"amenity:bar","lat":-16.0131292,"lng":-48.0650608},{"id":"2579649433","name":"Crume Room","tags":"amenity:restaurant","lat":-16.0269547,"lng":-48.0581894},{"id":"2579649434","name":"Cursos Impacto","tags":"amenity:school","lat":-16.0223999,"lng":-48.0733223},{"id":"2579649435","name":"Cursos de Brigadista","tags":"amenity:school","lat":-16.029122,"lng":-48.0647815},{"id":"2579649436","name":"Cursos microlins","tags":"amenity:school","lat":-16.0286987,"lng":-48.0644963},{"id":"2579649446","name":"Diamante","tags":"shop:supermarket","lat":-16.0070066,"lng":-48.051868},{"id":"2579649450","name":"Distribuidor de Bebidas","tags":"amenity:bar","lat":-16.0389748,"lng":-48.0617828},{"id":"2579649456","name":"Droga Forte","tags":"amenity:pharmacy","lat":-16.0175926,"lng":-48.0756139},{"id":"2579649457","name":"Droga lane","tags":"amenity:pharmacy,dispensing:yes,healthcare:pharmacy","lat":-16.0252467,"lng":-48.0699623},{"id":"2579649458","name":"Drogafuji","tags":"amenity:pharmacy,healthcare:pharmacy","lat":-16.02164,"lng":-48.068307},{"id":"2579649459","name":"Drogaria Catarina","tags":"amenity:pharmacy,dispensing:yes,healthcare:pharmacy,phone:+55 61 3484 7635","lat":-16.022234,"lng":-48.0563774},{"id":"2579649460","name":"Drogaria Claramed","tags":"amenity:pharmacy,dispensing:no,healthcare:pharmacy,phone:+55 61 3385 1900","lat":-16.0087471,"lng":-48.0721283},{"id":"2579649461","name":"Drogaria Douglas","tags":"addr:place:Gama Leste,amenity:pharmacy,dispensing:no","lat":-16.0100779,"lng":-48.0518258},{"id":"2579649462","name":"Drogaria Douglas","tags":"amenity:pharmacy,dispensing:no,healthcare:pharmacy","lat":-16.0108263,"lng":-48.0645897},{"id":"2579649463","name":"Drogaria Douglas","tags":"amenity:pharmacy,dispensing:no","lat":-16.0148525,"lng":-48.0748634},{"id":"2579649464","name":"Drogaria Drogasil","tags":"amenity:pharmacy,dispensing:no,healthcare:pharmacy","lat":-16.0255633,"lng":-48.0694766},{"id":"2579649465","name":"Drogaria Familia","tags":"amenity:pharmacy,dispensing:no,healthcare:pharmacy,phone:+55 61 3037 7604","lat":-16.0173276,"lng":-48.0520382},{"id":"2579649466","name":"Drogaria Familia","tags":"amenity:pharmacy,dispensing:yes,healthcare:pharmacy","lat":-16.0258886,"lng":-48.0689107},{"id":"2579649467","name":"Drogaria Farma","tags":"amenity:pharmacy,dispensing:no","lat":-16.0302181,"lng":-48.0562859},{"id":"2579649469","name":"Drogaria Genética","tags":"amenity:pharmacy,dispensing:yes,healthcare:pharmacy,phone:+55 61 3385 3343","lat":-16.0246281,"lng":-48.0607335},{"id":"2579649470","name":"Drogaria Joia","tags":"addr:place:Gama Leste,amenity:pharmacy,dispensing:no,healthcare:pharmacy,phone:+55 61 3036 8449","lat":-16.0105674,"lng":-48.0516309},{"id":"2579649471","name":"Drogaria Leste","tags":"amenity:pharmacy,dispensing:no,healthcare:pharmacy","lat":-16.0315227,"lng":-48.0589491},{"id":"2579649472","name":"Drogaria Mais Saúde","tags":"amenity:pharmacy,dispensing:no","lat":-16.0347195,"lng":-48.0645828},{"id":"2579649475","name":"Drogaria Medi Vida","tags":"amenity:pharmacy,dispensing:yes,healthcare:pharmacy","lat":-16.0082111,"lng":-48.0730896},{"id":"2579649476","name":"Drogaria Nova Visão","tags":"amenity:pharmacy,dispensing:no,healthcare:pharmacy,phone:+55 61 3385 0888","lat":-16.0196404,"lng":-48.0620608},{"id":"2579649477","name":"Drogaria Popular","tags":"amenity:pharmacy,dispensing:no,healthcare:pharmacy,phone:+55 61 3041 0585","lat":-16.0227547,"lng":-48.0555191},{"id":"2579649478","name":"Drogaria Popular","tags":"amenity:pharmacy,dispensing:no,healthcare:pharmacy","lat":-16.0247093,"lng":-48.0644918},{"id":"2579649479","name":"Drogaria Popular","tags":"amenity:pharmacy,dispensing:yes,healthcare:pharmacy","lat":-16.0278154,"lng":-48.0605641},{"id":"2579649480","name":"Drogaria Princesa","tags":"amenity:pharmacy,dispensing:no","lat":-16.003088,"lng":-48.0598984},{"id":"2579649481","name":"Drogaria Rina","tags":"amenity:pharmacy,dispensing:no,healthcare:pharmacy,phone:+55 61 35560534","lat":-16.0095272,"lng":-48.0706062},{"id":"2579649482","name":"Drogaria Rosária","tags":"amenity:pharmacy,dispensing:yes,healthcare:pharmacy","lat":-16.0261394,"lng":-48.0686056},{"id":"2579649483","name":"Drogaria Rosário","tags":"amenity:pharmacy,healthcare:pharmacy","lat":-16.0094776,"lng":-48.0706635},{"id":"2579649484","name":"Drogaria Rosário","tags":"amenity:pharmacy,dispensing:no","lat":-16.0172443,"lng":-48.0521927},{"id":"2579649485","name":"Drogaria Rosário","tags":"amenity:pharmacy,dispensing:no,healthcare:pharmacy","lat":-16.0243859,"lng":-48.071385},{"id":"2579649486","name":"Drogaria Santo Expedito","tags":"amenity:pharmacy,healthcare:pharmacy","lat":-16.0096741,"lng":-48.0703926},{"id":"2579649487","name":"Drogaria São Luiz","tags":"amenity:pharmacy,dispensing:no,healthcare:pharmacy","lat":-16.0258477,"lng":-48.0662519},{"id":"2579649488","name":"Drogaria São Rafael","tags":"amenity:pharmacy,dispensing:no,healthcare:pharmacy,phone:+55 61 3385 1722","lat":-16.0099277,"lng":-48.0701866},{"id":"2579649489","name":"Drogaria São Rafael","tags":"amenity:pharmacy,dispensing:no,healthcare:pharmacy,phone:+55 61 3484 8985","lat":-16.0313176,"lng":-48.0592905},{"id":"2579649491","name":"Drogaria Timbiras","tags":"amenity:pharmacy,dispensing:yes,drive_through:no,healthcare:pharmacy","lat":-16.0224133,"lng":-48.0558243},{"id":"2579649494","tags":"amenity:pharmacy,dispensing:no","lat":-16.0189629,"lng":-48.0724792},{"id":"2579649495","name":"Drogasil","tags":"amenity:pharmacy,brand:Drogasil,brand:wikidata:Q5308185,brand:wikipedia:pt:Drogasil,healthcare:pharmacy,wheelchair:yes","lat":-16.018856,"lng":-48.0659943},{"id":"2579649496","name":"Drograria Estrela","tags":"amenity:pharmacy,healthcare:pharmacy,phone:+55 61 3384 5857","lat":-16.0091057,"lng":-48.0715179},{"id":"2579649497","name":"Drograria Nobre","tags":"amenity:pharmacy","lat":-16.017046,"lng":-48.0524597},{"id":"2579649498","name":"Duarte- Lava Jato","tags":"amenity:car_wash","lat":-16.0292928,"lng":-48.0632312},{"id":"2579649557","name":"Empório Goiano Restaurante","tags":"amenity:restaurant","lat":-16.0263042,"lng":-48.0687069},{"id":"2579649566","name":"Equilíbrium","tags":"amenity:bar","lat":-16.0303745,"lng":-48.0687828},{"id":"2579649567","name":"Escola Adventista","tags":"amenity:school","lat":-16.0145671,"lng":-48.0688129},{"id":"2579649568","name":"Escola Brincando e Construindo o Futuro","tags":"amenity:school","lat":-16.0297966,"lng":-48.0680275},{"id":"2579649570","name":"Elite Rede de Ensino - Gama","tags":"addr:city:Distrito Federal,addr:street:Sind Qi 1,addr:suburb:Gama,amenity:school,website:https://ensinoelite.com.br","lat":-16.0160103,"lng":-48.0589561},{"id":"2579649575","name":"Escola Centro Recreativo Aprender","tags":"amenity:school","lat":-16.0141093,"lng":-48.0743533},{"id":"2579649590","name":"Escola Clube da Criança","tags":"amenity:school","lat":-16.0219345,"lng":-48.0734978},{"id":"2579649591","name":"Escola Compact","tags":"amenity:school","lat":-16.015049,"lng":-48.0599442},{"id":"2579649592","name":"Escolinha ABC Berçário e Educação Infantil","tags":"amenity:childcare","lat":-16.0168025,"lng":-48.0678471},{"id":"2579649594","name":"Centro Educacional Ebenézer","tags":"amenity:school","lat":-16.0320435,"lng":-48.065854},{"id":"2579649595","name":"Escola INEB","tags":"amenity:school","lat":-16.0129344,"lng":-48.0655773},{"id":"2579649598","name":"Escola Presbiteriana","tags":"amenity:school","lat":-16.0210705,"lng":-48.0617714},{"id":"2579649606","name":"Escola de musica Dó Ré Mi","tags":"amenity:school","lat":-16.0252209,"lng":-48.0732651},{"id":"2579649610","name":"Espaço Festa - Salão de Festa","tags":"amenity:restaurant","lat":-16.0226732,"lng":-48.0740682},{"id":"2579649612","name":"Estacionamento da Igreja","tags":"amenity:parking","lat":-16.0281391,"lng":-48.0728607},{"id":"2579649613","name":"Estacionamento do Centro de Saúde 5","tags":"amenity:parking","lat":-16.0235176,"lng":-48.0616531},{"id":"2579649616","tags":"amenity:parking","lat":-16.0098324,"lng":-48.0697861},{"id":"2579649617","tags":"amenity:parking","lat":-16.0131054,"lng":-48.0606728},{"id":"2579649620","name":"Estação das Bebidas - Distribuidor de Bebidas 24 hs","tags":"amenity:bar","lat":-16.008976,"lng":-48.0716972},{"id":"2579649627","name":"Academia No Limite","tags":"leisure:sports_centre","lat":-16.0012425,"lng":-48.0592013},{"id":"2579649629","name":"UNICEPLAC","tags":"amenity:school","lat":-16.0026512,"lng":-48.0514603},{"id":"2579649630","name":"Faculdade Fortium","tags":"amenity:university","lat":-16.022089,"lng":-48.0607101},{"id":"2579649632","name":"Farmácia Homeopatica","tags":"amenity:pharmacy,dispensing:yes,healthcare:pharmacy","lat":-16.021635,"lng":-48.073243},{"id":"2579649633","name":"Farmácia Homeopática","tags":"amenity:pharmacy,dispensing:yes,healthcare:pharmacy","lat":-16.0238037,"lng":-48.0723686},{"id":"2579649634","name":"Farmácia Medi Vida","tags":"amenity:pharmacy,dispensing:yes","lat":-16.0164235,"lng":-48.0567829},{"id":"2579649635","name":"Farmácia Plaza","tags":"amenity:pharmacy,dispensing:yes,healthcare:pharmacy","lat":-16.0313543,"lng":-48.0601338},{"id":"2579649636","name":"Farmácia Popular","tags":"amenity:pharmacy,dispensing:yes,healthcare:pharmacy","lat":-16.0235252,"lng":-48.0727119},{"id":"2579649637","tags":"amenity:pharmacy,dispensing:yes,healthcare:pharmacy","lat":-16.0213121,"lng":-48.0748769},{"id":"2579649638","tags":"amenity:pharmacy,dispensing:yes","lat":-16.0384102,"lng":-48.0612831},{"id":"2579649649","name":"Fest House- Salão de Festa","tags":"amenity:restaurant","lat":-16.0139579,"lng":-48.0539121},{"id":"2579649651","name":"Fit Lafe","tags":"leisure:sports_centre","lat":-16.0259151,"lng":-48.0688858},{"id":"2579649654","name":"Fogão Goiano","tags":"amenity:restaurant","lat":-16.0296252,"lng":-48.062726},{"id":"2579649669","name":"Fármacia Homeopatica","tags":"amenity:pharmacy,dispensing:yes,healthcare:pharmacy","lat":-16.0217962,"lng":-48.0680266},{"id":"2579649677","name":"Gama Boys-Distribuidora de Bebidas","tags":"amenity:bar,phone:+55 61 8435 4155","lat":-16.0073776,"lng":-48.0734482},{"id":"2579649699","name":"Gamboa","tags":"amenity:bar","lat":-16.0048708,"lng":-48.0535246},{"id":"2579649709","name":"Getsêmani","tags":"amenity:pharmacy,healthcare:pharmacy","lat":-16.0168476,"lng":-48.0527992},{"id":"2579649718","name":"Gran Cursos","tags":"addr:place:Gama,addr:street:Via Scln,amenity:school,phone:+55 61 3556 0010","lat":-16.0116135,"lng":-48.0598231},{"id":"2579649767","name":"Impório Caseiro","tags":"amenity:restaurant","lat":-15.9985676,"lng":-48.0572207},{"id":"2579649771","name":"Inovart Gráfica","tags":"amenity:library,phone:+55 61 3385 0783","lat":-16.0295601,"lng":-48.0642738},{"id":"2579649778","name":"Itaú","tags":"amenity:bank,brand:Itaú Unibanco,brand:wikidata:Q1424293,brand:wikipedia:pt:Itaú Unibanco","lat":-16.0178833,"lng":-48.0659332},{"id":"2579649788","name":"Jota Papelaria","tags":"amenity:library","lat":-16.022501,"lng":-48.0559425},{"id":"2579649789","name":"Junior Chopp","tags":"amenity:bar","lat":-15.9986143,"lng":-48.0571222},{"id":"2579649807","name":"Lappetit","tags":"amenity:restaurant,phone:+55 61 3385 1432","lat":-16.0166395,"lng":-48.070883},{"id":"2579649808","name":"Lava Jato Box 01","tags":"amenity:car_wash","lat":-16.0142043,"lng":-48.0744076},{"id":"2579649810","name":"Lava Jato","tags":"amenity:car_wash","lat":-16.0044372,"lng":-48.0486559},{"id":"2579649811","name":"Lava Jato","tags":"amenity:car_wash","lat":-16.0051945,"lng":-48.048505},{"id":"2579649812","name":"Lava Jato","tags":"amenity:car_wash","lat":-16.0066872,"lng":-48.0753479},{"id":"2579649813","tags":"amenity:car_wash,shop:car","lat":-16.016127,"lng":-48.0553741},{"id":"2579649814","name":"Lava Jato","tags":"amenity:car_wash","lat":-16.0266483,"lng":-48.0692942},{"id":"2579649815","name":"Lava Jato","tags":"amenity:car_wash","lat":-16.026783,"lng":-48.0680313},{"id":"2579649816","name":"Lava Rápido","tags":"amenity:car_wash","lat":-16.0296993,"lng":-48.0609283},{"id":"2579649818","name":"Lava jato da Prainha","tags":"amenity:car_wash","lat":-16.0354804,"lng":-48.0548962},{"id":"2579649836","tags":"amenity:bank","lat":-16.0181122,"lng":-48.0748978},{"id":"2579649850","name":"Malibu - Distribuidora de Bebidas","tags":"addr:place:Gama Leste,amenity:bar,phone:+55 61 3021 3493","lat":-16.0105133,"lng":-48.0517173},{"id":"2579649853","name":"Mansão Parente - Salão de Festas","tags":"amenity:restaurant","lat":-16.0023512,"lng":-48.068796},{"id":"2579649870","name":"Mercadinho Dallas","tags":"phone:+55 61 3484 8047,shop:supermarket","lat":-16.0289135,"lng":-48.0707855},{"id":"2579649871","name":"Mercadinho Iran","tags":"shop:supermarket","lat":-16.0115452,"lng":-48.0750046},{"id":"2579649873","name":"Mercadinho Super Forte","tags":"shop:supermarket","lat":-16.0314407,"lng":-48.0604668},{"id":"2579649874","name":"Mercadinho Trigota","tags":"shop:supermarket","lat":-16.021431,"lng":-48.0623278},{"id":"2579649875","name":"Mercado K boco","tags":"shop:supermarket","lat":-16.0284067,"lng":-48.0609436},{"id":"2579649876","name":"Mercado Luam","tags":"shop:supermarket","lat":-16.0250566,"lng":-48.052761},{"id":"2579649877","name":"Mercado Nossa Senhora de Fátima","tags":"shop:supermarket","lat":-16.0043462,"lng":-48.0745293},{"id":"2579649878","name":"Mercado da Economia","tags":"shop:supermarket","lat":-16.008585,"lng":-48.0721397},{"id":"2579649881","name":"Mercadão Leste","tags":"shop:supermarket","lat":-16.016752,"lng":-48.0567668},{"id":"2579649883","name":"Mercearia e Sacolão","tags":"shop:supermarket","lat":-16.0030556,"lng":-48.0598984},{"id":"2579649885","name":"Mineiros","tags":"amenity:restaurant,phone:+55 61 3033 2747","lat":-16.0243988,"lng":-48.0731673},{"id":"2579649889","name":"Mont Blanc - Salão de Festas","tags":"amenity:restaurant,phone:+55 61 3556 5344","lat":-16.0020689,"lng":-48.0578135},{"id":"2579649903","name":"New Tec Informática","tags":"amenity:school","lat":-16.0252844,"lng":-48.0656456},{"id":"2579649904","name":"Ninos Bar","tags":"amenity:bar","lat":-16.0386658,"lng":-48.0608673},{"id":"2579649905","name":"São Paulo Pizzaria","tags":"amenity:restaurant","lat":-16.01718,"lng":-48.0638484},{"id":"2579649908","name":"Nova Opção","tags":"amenity:restaurant","lat":-16.0159836,"lng":-48.0694733},{"id":"2579649911","name":"Novo Nissei","tags":"phone:+55 61 3273 1880,shop:supermarket","lat":-16.0305729,"lng":-48.0684967},{"id":"2579649919","name":"Olho D água Distribuidora de Bebidas","tags":"amenity:bar","lat":-16.0171108,"lng":-48.0523911},{"id":"2579649921","name":"Origami Sushi","tags":"amenity:restaurant,cuisine:asian","lat":-16.0215816,"lng":-48.0676231},{"id":"2579649924","name":"Paladar Goiano","tags":"amenity:restaurant,phone:+55 61 3033 5204","lat":-16.0229931,"lng":-48.0548515},{"id":"2579649947","name":"Papelaria Central","tags":"amenity:library","lat":-16.0245728,"lng":-48.0642994},{"id":"2579649948","name":"Papelaria Joelma","tags":"amenity:library","lat":-16.0291748,"lng":-48.0554504},{"id":"2579649949","name":"Papelaria Lider Megastore","tags":"amenity:library","lat":-16.0169258,"lng":-48.0529022},{"id":"2579649950","name":"Papelaria Mundim","tags":"amenity:library","lat":-16.0179272,"lng":-48.0663261},{"id":"2579649952","name":"Para Gulas","tags":"amenity:restaurant","lat":-16.0317834,"lng":-48.0585403},{"id":"2579649963","name":"Pistão Sul - Distribuidor de Bebidas","tags":"amenity:bar","lat":-16.0234051,"lng":-48.0728912},{"id":"2579649964","name":"Pizza Creparia","tags":"amenity:restaurant,cuisine:pizza","lat":-16.0181081,"lng":-48.0589816},{"id":"2579649965","name":"Pizza Sayb","tags":"amenity:restaurant,cuisine:pizza","lat":-16.0259572,"lng":-48.0663431},{"id":"2579649967","tags":"amenity:restaurant,cuisine:pizza","lat":-16.0214692,"lng":-48.0623812},{"id":"2579649968","name":"Pizzaria Caprichosa","tags":"amenity:restaurant,cuisine:pizza","lat":-16.0178642,"lng":-48.051136},{"id":"2579649969","name":"Pizzaria Dom Cesar","tags":"amenity:restaurant,cuisine:pizza","lat":-16.0200878,"lng":-48.0732073},{"id":"2579649970","name":"Pizzaria Max Burguer","tags":"amenity:restaurant,cuisine:pizza","lat":-16.0181122,"lng":-48.0589194},{"id":"2579649971","name":"Pizzaria Nathely","tags":"amenity:restaurant,cuisine:pizza","lat":-16.0193563,"lng":-48.0727299},{"id":"2579649972","name":"Pizzaria Vira Volta","tags":"amenity:restaurant,cuisine:pizza","lat":-16.0200515,"lng":-48.073192},{"id":"2579649976","name":"Planeta da Criança","tags":"amenity:school","lat":-16.0190754,"lng":-48.062149},{"id":"2579649984","name":"Policia Militar PCS 083","tags":"amenity:police","lat":-16.0140858,"lng":-48.0639877},{"id":"2579649986","name":"Policia Militar PCS 109","tags":"amenity:police","lat":-16.0268868,"lng":-48.0605426},{"id":"2579649990","name":"Polícia Civil 14a DP","tags":"addr:place:Gama,amenity:police","lat":-16.0167522,"lng":-48.0655746},{"id":"2579650005","name":"Posto Iticar","tags":"amenity:fuel,shop:convenience","lat":-16.0072613,"lng":-48.0596046},{"id":"2579650008","name":"Parque Distrital do Gama","tags":"alt_name:Prainha,tourism:attraction","lat":-16.0370123,"lng":-48.0507788},{"id":"2579650009","name":"Praça 1 Setor Sul Gama","tags":"leisure:park","lat":-16.030817,"lng":-48.0683899},{"id":"2579650011","name":"Praça 3 Setor Sul Gama","tags":"leisure:park","lat":-16.0332699,"lng":-48.0641899},{"id":"2579650013","name":"Praça Setor Oeste","tags":"leisure:park","lat":-16.0084476,"lng":-48.075222},{"id":"2579650025","name":"Quadra de Areia","tags":"leisure:stadium","lat":-16.0382975,"lng":-48.0572721},{"id":"2579650029","name":"Quíncas","tags":"amenity:restaurant","lat":-16.0178372,"lng":-48.0752459},{"id":"2579650057","name":"Restaurante Amarelinha","tags":"amenity:restaurant","lat":-16.0181373,"lng":-48.0577705},{"id":"2579650061","name":"Restaurante Calderão de Barro","tags":"amenity:restaurant","lat":-16.0280499,"lng":-48.0609148},{"id":"2579650064","name":"Restaurante Carne de Sol","tags":"amenity:restaurant","lat":-16.0315113,"lng":-48.0605202},{"id":"2579650068","name":"Restaurante Caçarolas","tags":"amenity:restaurant","lat":-16.0281183,"lng":-48.060922},{"id":"2579650071","name":"Restaurante Comunitário do Gama","tags":"amenity:restaurant","lat":-16.0130491,"lng":-48.0613079},{"id":"2579650074","name":"Restaurante Quero Quilo","tags":"amenity:restaurant","lat":-16.0068874,"lng":-48.0749969},{"id":"2579650079","name":"Restaurante Sabor a Mil","tags":"addr:place:Gama,addr:street:Quadra 4 Setor Indústrial,amenity:restaurant","lat":-16.0039617,"lng":-48.056423},{"id":"2579650085","name":"Restaurante Sol Nascente","tags":"amenity:restaurant","lat":-16.0287548,"lng":-48.0606695},{"id":"2579650134","name":"Sabor da Roça","tags":"amenity:restaurant,phone:+55 61 9101 9591","lat":-16.0047513,"lng":-48.0482096},{"id":"2579650141","name":"Parrilla Beer","tags":"amenity:restaurant","lat":-16.0173867,"lng":-48.0581293},{"id":"2579650220","name":"Santo Antônio","tags":"shop:supermarket","lat":-16.0269585,"lng":-48.0581284},{"id":"2579650290","name":"Shopping das Bebidas","tags":"amenity:bar","lat":-16.015234,"lng":-48.058381},{"id":"2579650296","name":"Show Bar","tags":"amenity:bar","lat":-16.0273722,"lng":-48.0689564},{"id":"2579650309","name":"Solar Castelo das Flores- Salão de Festa","tags":"amenity:restaurant","lat":-16.0017002,"lng":-48.0708717},{"id":"2579650347","name":"Super Um","tags":"shop:supermarket","lat":-16.0305252,"lng":-48.0685616},{"id":"2579650351","name":"Supercei","tags":"shop:supermarket","lat":-16.0215206,"lng":-48.0687866},{"id":"2579650354","name":"Supercompras","tags":"shop:supermarket","lat":-16.0170822,"lng":-48.0524254},{"id":"2579650364","name":"Supermercado Baiano","tags":"shop:supermarket","lat":-16.0334044,"lng":-48.0640157},{"id":"2579650367","name":"Supermercado Baratão","tags":"shop:supermarket","lat":-16.029726,"lng":-48.0642929},{"id":"2579650370","name":"Supermercado Boção","tags":"shop:supermarket","lat":-16.0182378,"lng":-48.0746949},{"id":"2579650372","name":"Supermercado Comper Gama","tags":"shop:supermarket","lat":-16.0243925,"lng":-48.063946},{"id":"2579650375","name":"Supermercado Condor","tags":"shop:supermarket","lat":-16.0030213,"lng":-48.0601302},{"id":"2579650379","name":"Supermercado Cor do Sol","tags":"shop:supermarket","lat":-16.029274,"lng":-48.0555153},{"id":"2579650383","name":"Supermercado Di Sempre","tags":"shop:supermarket","lat":-16.0243607,"lng":-48.0732193},{"id":"2579650384","name":"Supermercado Di Sempre","tags":"phone:+55 61 3484 0076,shop:supermarket","lat":-16.0342064,"lng":-48.0654449},{"id":"2579650385","name":"Supermercado Econômico","tags":"shop:supermarket","lat":-16.0225983,"lng":-48.0557594},{"id":"2579650386","name":"Supermercado Eldorado","tags":"addr:place:Gama Leste,shop:mall","lat":-16.0105547,"lng":-48.051044},{"id":"2579650387","name":"Supermercado Eldorado","tags":"shop:supermarket","lat":-16.0290184,"lng":-48.0646925},{"id":"2579650388","name":"Supermercado Então","tags":"shop:supermarket","lat":-16.0316715,"lng":-48.0595665},{"id":"2579650403","name":"Supermercado Minas","tags":"shop:supermarket","lat":-16.0089493,"lng":-48.0715561},{"id":"2579650406","name":"Supermercado Ponto Alto","tags":"shop:supermarket","lat":-16.0176239,"lng":-48.0757675},{"id":"2579650412","name":"Supermercado Serve Bem","tags":"shop:supermarket","lat":-16.0225067,"lng":-48.0556488},{"id":"2579650415","name":"Supermercado Super Popular","tags":"shop:supermarket","lat":-16.0319616,"lng":-48.0600975},{"id":"2579650418","name":"Supermercado Super um","tags":"shop:supermarket","lat":-16.0270897,"lng":-48.0690378},{"id":"2579650425","name":"Supermercado São José","tags":"shop:supermarket","lat":-16.0222416,"lng":-48.056076},{"id":"2579650428","name":"Supermercado São José","tags":"shop:supermarket","lat":-16.0380592,"lng":-48.0613174},{"id":"2579650431","name":"Supermercado Tem Tem","tags":"shop:supermarket","lat":-16.0149847,"lng":-48.0750538},{"id":"2579650434","name":"Supermercado tubarão","tags":"shop:supermarket","lat":-16.0104763,"lng":-48.0510715},{"id":"2579650453","name":"Tempero Goiano","tags":"amenity:restaurant","lat":-16.0201425,"lng":-48.073247},{"id":"2579650469","name":"Thon Gráfica","tags":"amenity:library","lat":-16.0328704,"lng":-48.0567537},{"id":"2579650472","name":"Tio Sam","tags":"amenity:restaurant,cuisine:pizza","lat":-16.022073,"lng":-48.062795},{"id":"2579650488","name":"Trailer Paraiba","tags":"amenity:bar","lat":-16.0171032,"lng":-48.0525894},{"id":"2579650538","name":"Vilas Boas- Distribuidor de Bebidas","tags":"amenity:bar","lat":-16.0230664,"lng":-48.0734041},{"id":"2579650551","name":"WM Buffet Eventos","tags":"amenity:restaurant,phone:+55 61 3556 5236","lat":-16.0157871,"lng":-48.0607834},{"id":"2579650568","name":"Kiskina Restaurante e Lanchonete","tags":"amenity:restaurant","lat":-16.0270939,"lng":-48.0580101},{"id":"2579650578","tags":"leisure:stadium","lat":-16.0127392,"lng":-48.0717621},{"id":"2579650601","tags":"leisure:stadium","lat":-16.0276833,"lng":-48.0688629},{"id":"2579650604","tags":"leisure:stadium","lat":-16.0278759,"lng":-48.0526047},{"id":"2579650606","tags":"leisure:stadium","lat":-16.0308228,"lng":-48.0714607},{"id":"2579650615","tags":"leisure:stadium","lat":-16.0339928,"lng":-48.0673866},{"id":"2579650633","name":"Área de Treinamento das Auto Escolas","tags":"amenity:parking","lat":-16.0044556,"lng":-48.0690269},{"id":"2579650645","name":"Banco24Horas","tags":"addr:place:Gama,amenity:atm,brand:Banco24Horas,brand:wikidata:Q4854069,brand:wikipedia:pt:Banco24Horas,cash_in:no,currency:BRL:yes,disused:amenity:atm,network:24H","lat":-16.0165669,"lng":-48.0597033},{"id":"2579955870","name":"Chacara do Nilo","tags":"amenity:bar","lat":-15.9964514,"lng":-48.0432053},{"id":"2579955883","name":"Drogaria Vida Saudável","tags":"amenity:pharmacy,dispensing:no","lat":-16.0398344,"lng":-48.0343107},{"id":"2579955890","name":"Escola Classe 203 Santa Maria","tags":"amenity:school","lat":-16.0383873,"lng":-48.0335984},{"id":"2712090084","name":"Polícia Militar - PCS 008","tags":"amenity:police,phone:+55 61 3910 1008","lat":-16.0219965,"lng":-48.0570704},{"id":"2726097168","name":"Polícia Militar - PCS 048","tags":"amenity:police,phone:+55 61 3910 1048","lat":-16.029104,"lng":-48.0732535},{"id":"4331462138","name":"Supermercado Nordestão","tags":"shop:supermarket","lat":-16.0129763,"lng":-48.0516997},{"id":"4337912990","name":"Mesa 295","tags":"amenity:bar","lat":-16.0384113,"lng":-48.0374554},{"id":"4342126291","name":"Mesas 319 e 120","tags":"amenity:bar","lat":-16.0317136,"lng":-48.0351437},{"id":"4342134089","name":"Invasão","tags":"amenity:bar","lat":-16.0281754,"lng":-48.0392793},{"id":"4467123657","name":"Kaneko Sushi e Pizzaria","tags":"amenity:restaurant","lat":-15.9986511,"lng":-48.0573531},{"id":"5322658383","name":"Sayonara","tags":"amenity:pharmacy","lat":-15.9989515,"lng":-48.0581921},{"id":"6400701685","name":"Campinho de areia","tags":"addr:city:Gama,addr:postcode:72415-000,addr:street:area especial 13/15,addr:suburb:Setor Ssul,leisure:park","lat":-16.0392858,"lng":-48.0609289},{"id":"6434742531","tags":"amenity:parking","lat":-16.0111137,"lng":-48.0650855},{"id":"6434742903","name":"Terminal de Ônibus Setor Sul","tags":"amenity:bus_station,bus:yes,public_transport:station","lat":-16.0375597,"lng":-48.056585},{"id":"6473190230","name":"Blue Fit","tags":"leisure:fitness_centre","lat":-16.0000064,"lng":-48.0591712},{"id":"6473190233","tags":"amenity:car_wash","lat":-16.0019246,"lng":-48.0592732},{"id":"6473190238","name":"Pet Shop","tags":"shop:pet","lat":-16.0012646,"lng":-48.059697},{"id":"6565022002","tags":"leisure:park","lat":-16.0110627,"lng":-48.0741582},{"id":"6565022026","tags":"leisure:park","lat":-16.0200709,"lng":-48.0699776},{"id":"6566527755","name":"Supremo","tags":"amenity:restaurant","lat":-16.0141827,"lng":-48.0570329},{"id":"6566527756","name":"Espaço Gourmet","tags":"amenity:restaurant","lat":-16.0071676,"lng":-48.0585818},{"id":"6566527758","name":"Armazém 21","tags":"amenity:restaurant","lat":-16.0180694,"lng":-48.0565414},{"id":"6566527760","name":"Nerd's Burguer","tags":"amenity:restaurant,cuisine:burger","lat":-16.0107914,"lng":-48.0552671},{"id":"6566575511","name":"Estádio Bezerrão","tags":"leisure:stadium","lat":-16.0114434,"lng":-48.0619295},{"id":"6566575512","name":"Gama Shopping","tags":"shop:mall","lat":-16.0132093,"lng":-48.0626394},{"id":"6566575513","name":"Praça Administração","tags":"leisure:park","lat":-16.0164521,"lng":-48.0647695},{"id":"6566575514","name":"Praça Lourival Bandeira","tags":"leisure:park","lat":-16.0174709,"lng":-48.0573141},{"id":"6566575516","name":"Coração do Gama","tags":"addr:city:Gama,addr:postcode:72430-100,addr:street:Parque Urbano do Gama,addr:suburb:Sno,tourism:attraction","lat":-16.0065978,"lng":-48.0635217},{"id":"6883312988","name":"Wilsonfarma","tags":"amenity:pharmacy,dispensing:yes,healthcare:pharmacy","lat":-16.0400249,"lng":-48.0344795},{"id":"7308870989","tags":"access:private,amenity:parking,parking:surface","lat":-16.0072072,"lng":-48.0623786},{"id":"7627644849","name":"ANA FERREIRA SALÃO DE BELEZA & ASSOCIADOS","tags":"beauty:nails;hair;hair_removal,shop:beauty","lat":-16.0235887,"lng":-48.0644315},{"id":"9322168295","name":"Dom Manju","tags":"amenity:restaurant","lat":-16.0205361,"lng":-48.0660506},{"id":"9322207262","name":"Dominos's Pizza","tags":"amenity:restaurant","lat":-16.0152304,"lng":-48.0598345},{"id":"9322210555","name":"Café com Leite","tags":"amenity:restaurant","lat":-16.0120129,"lng":-48.0669008},{"id":"9322211627","name":"Maria Fumaça Pizzaria","tags":"amenity:restaurant","lat":-16.0021177,"lng":-48.0625851},{"id":"9322211628","name":"Porks","tags":"amenity:restaurant","lat":-16.0161083,"lng":-48.0560902},{"id":"9322211629","name":"Trend's Bar","tags":"amenity:restaurant","lat":-16.0161057,"lng":-48.0560312},{"id":"9322213664","name":"Mamute Fast Food","tags":"amenity:restaurant","lat":-16.0173909,"lng":-48.0582346},{"id":"9322243989","name":"Atacadão","tags":"shop:supermarket","lat":-15.9975451,"lng":-48.0518281},{"id":"9322256920","name":"Tarumã","tags":"amenity:restaurant","lat":-16.0150242,"lng":-48.0603898},{"id":"9864241802","name":"Arena Grill","tags":"amenity:restaurant","lat":-15.9997536,"lng":-48.0576546},{"id":"9864256112","name":"Gama Farma","tags":"amenity:pharmacy,dispensing:yes,healthcare:pharmacy","lat":-15.9999058,"lng":-48.058515},{"id":"9864256113","name":"Point do Assado","tags":"amenity:restaurant","lat":-16.0011504,"lng":-48.0579959},{"id":"9968606286","name":"Letreiro simbolo da nossa cidade: EU AMO O GAMA","tags":"addr:street:Balão QD Leste? Norte,leisure:park,operator:Administração do Gama","lat":-15.9983831,"lng":-48.0592897},{"id":"9968618192","name":"Quadra de areia","tags":"leisure:park,operator:Administração do Gama","lat":-15.999492,"lng":-48.0602573},{"id":"10132558231","name":"Gregos e Asados","tags":"amenity:restaurant,cuisine:regional,description:Restaurante não fixo.,opening_hours:Mo-Fr 16:30-22:00,phone:61 985614782","lat":-16.0029962,"lng":-48.0516887},{"id":"10242363807","name":"Creche Nossa Senhora do Carmo","tags":"amenity:childcare","lat":-16.013276,"lng":-48.047625},{"id":"10242378409","tags":"leisure:park","lat":-16.0075705,"lng":-48.0495227},{"id":"10242412289","name":"Mercearia Indío","tags":"shop:supermarket","lat":-16.012687,"lng":-48.0481385}]