[{"id":"2333472574","name":"Ginásio","tags":"leisure:sports_centre","lat":-16.1108698,"lng":-47.9314436},{"id":"2333472583","name":"Escola Santo Antônio","tags":"amenity:school,building:school","lat":-16.1102457,"lng":-47.9324314},{"id":"2338333559","name":"Escola Municipal Edson André de Aguiar","tags":"addr:city:Cidade Ocidental,addr:housename:Super Quadra 17,addr:postcode:72880-000,amenity:school,building:school","lat":-16.1020444,"lng":-47.9248575},{"id":"2412234576","name":"Hospital Municipal de Cidade Ocidental","tags":"amenity:hospital","lat":-16.1099373,"lng":-47.9368046},{"id":"2412234583","name":"Escola Municipal Dom Agostinho S. Januszewicz","tags":"amenity:school","lat":-16.0972792,"lng":-47.9181094},{"id":"2676276206","name":"Pastelaria Alfredo","tags":"amenity:bar","lat":-16.1062749,"lng":-47.929748},{"id":"6903319881","name":"Praça Santa Guadalupe","tags":"leisure:park","lat":-16.1008358,"lng":-47.9437111},{"id":"7700577715","name":"Quarda Municipal","tags":"amenity:police","lat":-16.1076422,"lng":-47.9395217},{"id":"7700577720","name":"Delegacia de Polícia - PCGO","tags":"amenity:police","lat":-16.1048591,"lng":-47.9435933},{"id":"7700577730","name":"Hospital Particular de Cidade Ocidental GO","tags":"amenity:hospital,healthcare:hospital","lat":-16.1104665,"lng":-47.9334921},{"id":"7717974609","name":"Primavera Supermercado","tags":"shop:supermarket","lat":-16.1054947,"lng":-47.92283},{"id":"7718003196","name":"Praça Santo Antônio","tags":"leisure:park","lat":-16.1098413,"lng":-47.9324846},{"id":"7718821170","name":"Academia","tags":"leisure:fitness_centre","lat":-16.1110743,"lng":-47.9310149},{"id":"7718821172","name":"Bradesco","tags":"amenity:bank,brand:Bradesco,brand:wikidata:Q806181,brand:wikipedia:en:Banco Bradesco","lat":-16.1079318,"lng":-47.9315755},{"id":"7718821173","name":"Caixa Econômica Federal","tags":"amenity:bank,brand:Caixa Econômica Federal,brand:wikidata:Q835283,brand:wikipedia:pt:Caixa Econômica Federal","lat":-16.1052776,"lng":-47.9286867},{"id":"7718821174","name":"Itaú","tags":"amenity:bank,brand:Itaú Unibanco,brand:wikidata:Q1424293,brand:wikipedia:pt:Itaú Unibanco","lat":-16.1049838,"lng":-47.927823}]