[{"id":"2561419312","name":"Tatico","tags":"shop:supermarket","lat":-16.0477719,"lng":-48.033582},{"id":"2579955852","name":"Bonamix","tags":"shop:supermarket","lat":-16.0486674,"lng":-48.037905},{"id":"2579955907","name":"JLH Lotérica Cef","tags":"amenity:bank","lat":-16.0401368,"lng":-48.0343184},{"id":"2579955910","name":"Lava Rápido","tags":"amenity:car_wash","lat":-16.0496712,"lng":-48.0351601},{"id":"2579955944","name":"Restaurante Coqueiro","tags":"amenity:restaurant","lat":-16.0416838,"lng":-48.0368536},{"id":"4342033990","tags":"amenity:bar","lat":-16.0558088,"lng":-48.0584999},{"id":"4674702491","name":"Praça","tags":"leisure:park","lat":-16.0460662,"lng":-48.0435681},{"id":"4674702497","tags":"amenity:school","lat":-16.0488659,"lng":-48.0469062},{"id":"6412642576","name":"Biblioteca Pública Municipal Castro Alves","tags":"amenity:library","lat":-16.0546893,"lng":-48.0366657},{"id":"6415310292","name":"Guarda Municipal de Novo Gama","tags":"amenity:police","lat":-16.0548413,"lng":-48.0366775},{"id":"6415311223","name":"19º Batalhão de Polícia Militar do Estado de Goiás","tags":"amenity:police","lat":-16.0591639,"lng":-48.0411407},{"id":"6415317823","name":"Rodoviária de Novo Gama","tags":"amenity:bus_station,bus:yes,public_transport:station","lat":-16.0555115,"lng":-48.036357},{"id":"6415383678","name":"UPA - Unidade de Pronto Atendimento de Novo Gama","tags":"amenity:hospital,emergency:yes,healthcare:hospital","lat":-16.055755,"lng":-48.0356622},{"id":"6467113774","name":"Supermercado Economisa","tags":"opening_hours:Mo-Su 08:00-21:00,payment:cash:yes,payment:credit_cards:yes,payment:debit_cards:yes,shop:supermarket","lat":-16.0549061,"lng":-48.037166},{"id":"6467113775","name":"Restaurante e Petiscaria Rodoviaria","tags":"amenity:restaurant","lat":-16.0559565,"lng":-48.0363711},{"id":"6467113776","name":"Colégio Estadual Novo Gama","tags":"amenity:school","lat":-16.0545138,"lng":-48.0341574},{"id":"6467113777","name":"Ginásio de Esportes do Novo Gama","tags":"leisure:sports_centre,sport:soccer;basketball;fitness","lat":-16.0540292,"lng":-48.0360188},{"id":"6467113778","name":"Praça da Bíblia","tags":"leisure:park","lat":-16.0542921,"lng":-48.0362763},{"id":"6467113779","tags":"amenity:pharmacy,dispensing:yes,healthcare:pharmacy","lat":-16.0540808,"lng":-48.0353107},{"id":"6467113781","name":"LUXFARMA","tags":"amenity:pharmacy,dispensing:yes,healthcare:pharmacy","lat":-16.0558617,"lng":-48.0364425},{"id":"6467114001","name":"Pizzaria Alves","tags":"amenity:restaurant,cuisine:pizza","lat":-16.0540104,"lng":-48.0350718},{"id":"6467114004","name":"Drogaria Generica","tags":"amenity:pharmacy,dispensing:yes,healthcare:pharmacy","lat":-16.0538516,"lng":-48.0349421},{"id":"6468273494","name":"Agua Branca","tags":"amenity:restaurant,cuisine:pizza","lat":-16.0534892,"lng":-48.0345373},{"id":"6468273498","name":"Cantinho da Bahia","tags":"amenity:restaurant","lat":-16.0533912,"lng":-48.0344273},{"id":"6468273499","name":"São José","tags":"shop:supermarket","lat":-16.05335,"lng":-48.0343817},{"id":"6468273501","name":"Pimenta's","tags":"amenity:restaurant","lat":-16.0532521,"lng":-48.034312},{"id":"6468273504","name":"Petiscaria Carioca","tags":"amenity:restaurant","lat":-16.0530871,"lng":-48.0341752},{"id":"6468273505","name":"Drogaria Avenida Central","tags":"amenity:pharmacy,dispensing:yes,healthcare:pharmacy","lat":-16.0530381,"lng":-48.0341135},{"id":"6468273506","name":"Drogaria Social","tags":"amenity:pharmacy,dispensing:yes,healthcare:pharmacy","lat":-16.0528551,"lng":-48.0339043},{"id":"6468273507","name":"Pamonharia Espigão","tags":"amenity:restaurant","lat":-16.0527855,"lng":-48.0338158},{"id":"6468273513","name":"Chis Silva","tags":"shop:beauty","lat":-16.052538,"lng":-48.0335985},{"id":"6468273514","name":"LR Polpas e Embalagens","tags":"shop:supermarket","lat":-16.0524865,"lng":-48.0335368},{"id":"6468273518","name":"Mãe Rainha","tags":"amenity:pharmacy,dispensing:yes,healthcare:pharmacy","lat":-16.0521823,"lng":-48.0332418},{"id":"6468273528","name":"Bicho Limpo","tags":"shop:pet","lat":-16.0521815,"lng":-48.0326561},{"id":"6468273532","name":"Deus é Fiel","tags":"amenity:restaurant,cuisine:pizza","lat":-16.0525313,"lng":-48.0330041},{"id":"6468273537","name":"Supersacolão Novo Gama","tags":"shop:supermarket","lat":-16.053001,"lng":-48.0335035},{"id":"6883159979","name":"Centro de Ensino Fundamental 201 de Santa Maria","tags":"amenity:school","lat":-16.0440518,"lng":-48.0337001},{"id":"6883358528","name":"Supermercado Ideal","tags":"shop:supermarket","lat":-16.0761564,"lng":-48.0652663},{"id":"6883358529","name":"Creche vovó Nica","tags":"amenity:childcare","lat":-16.0819764,"lng":-48.0651426},{"id":"6883358538","name":"Drogaria Oliveira","tags":"amenity:pharmacy,dispensing:yes,healthcare:pharmacy","lat":-16.0767934,"lng":-48.0624782},{"id":"6883358540","name":"Posto 24 horas","tags":"amenity:hospital,healthcare:hospital","lat":-16.0789321,"lng":-48.0646296},{"id":"7448732385","name":"Big Burg Galegos","tags":"addr:street:Rua 25 - 1HI,amenity:restaurant,cuisine:burger;hotdog;italian_pizza,name:en:Big Burg Galego’s","lat":-16.0541279,"lng":-48.0340646},{"id":"7678607393","name":"Escola municipal Bela vista","tags":"amenity:school","lat":-16.0760945,"lng":-48.0334453},{"id":"9917728060","name":"Reserva ambiental Prainha","tags":"leisure:park","lat":-16.0480357,"lng":-48.047712}]