[{"id":"2579955871","name":"Churrascaria Laçador","tags":"amenity:restaurant","lat":-16.0500198,"lng":-47.9871419},{"id":"2579955957","name":"União Farmacêutica de Brasília","tags":"amenity:pharmacy","lat":-16.0460663,"lng":-47.9780579},{"id":"2742286176","name":"Banco do Brasil","tags":"amenity:bank,brand:Banco do Brasil,brand:wikidata:Q610817,brand:wikipedia:en:Banco do Brasil","lat":-16.073494,"lng":-47.9816399},{"id":"2846727185","name":"Edificio Tropical","tags":"addr:city:Valparaiso de Goias,addr:housenumber:Lote 1,addr:street:Quadra 7,opening_hours:Mo-Fr 06:00-18:00,shop:mall","lat":-16.0699847,"lng":-47.9821644},{"id":"2846950962","name":"Supermercado Vedan","tags":"addr:city:Valparaiso de Goias,addr:street:Rua 8,shop:supermarket","lat":-16.0548456,"lng":-47.9850515},{"id":"2847106575","name":"Colégio CEBAM","tags":"addr:city:Valparaiso de Goias,addr:street:Quadra 19,amenity:school,operator:Centro de Ensino Balão Magico","lat":-16.0688342,"lng":-47.9786941},{"id":"3036274091","name":"Escola Sementinha","tags":"addr:city:valparaiso de Goias,addr:street:Quadra 24,addr:suburb:Valparaiso I,amenity:school","lat":-16.0717493,"lng":-47.9785473},{"id":"3205038552","name":"Bar Ponto Verde","tags":"addr:city:Valparaiso de Goias,addr:housenumber:01,addr:postcode:72876-024,addr:street:Quadra 8,addr:suburb:Etapa A,amenity:bar,smoking:outside,wheelchair:yes","lat":-16.07098,"lng":-47.9823798},{"id":"3206526378","name":"Base da Polícia Militar","tags":"amenity:police","lat":-16.054053,"lng":-47.9811706},{"id":"3810123646","tags":"amenity:parking","lat":-16.0690594,"lng":-47.9820781},{"id":"3810123650","tags":"amenity:parking","lat":-16.0700189,"lng":-47.9822939},{"id":"3810123651","tags":"amenity:parking","lat":-16.0702218,"lng":-47.9817567},{"id":"3810123656","tags":"amenity:parking","lat":-16.0706776,"lng":-47.9825412},{"id":"3810124358","tags":"amenity:parking","lat":-16.0708342,"lng":-47.9825319},{"id":"3810124362","tags":"amenity:parking","lat":-16.0709855,"lng":-47.9833211},{"id":"3810124370","tags":"amenity:parking","lat":-16.0711618,"lng":-47.9837185},{"id":"3810124372","tags":"amenity:parking","lat":-16.0712383,"lng":-47.9835314},{"id":"3810124373","tags":"amenity:parking","lat":-16.0713184,"lng":-47.9834258},{"id":"3810124374","tags":"amenity:parking","lat":-16.0716014,"lng":-47.9839927},{"id":"3810124378","tags":"amenity:parking","lat":-16.0727585,"lng":-47.98179},{"id":"3810124381","tags":"amenity:parking","lat":-16.0731584,"lng":-47.981857},{"id":"3829135362","name":"Academia","tags":"leisure:sports_centre","lat":-16.0563215,"lng":-47.9804638},{"id":"3829135369","name":"Itaú","tags":"amenity:bank,atm:yes,brand:Itaú Unibanco,brand:wikidata:Q1424293,brand:wikipedia:pt:Itaú Unibanco","lat":-16.0667551,"lng":-47.984963},{"id":"3829135375","name":"Nillmart Supermercados-Unidade Jardim Oriente II","tags":"addr:city:Valparaíso de Goiás,addr:street:Rua Capitão da PM Carlos Silva,addr:suburb:Jardim Oriente,shop:supermarket","lat":-16.068076,"lng":-47.9851486},{"id":"3829135381","name":"DrogaLene","tags":"amenity:pharmacy,healthcare:pharmacy","lat":-16.0672233,"lng":-47.9850368},{"id":"3829135383","name":"Farmácia Popular","tags":"amenity:pharmacy,healthcare:pharmacy","lat":-16.0548099,"lng":-47.9816347},{"id":"3829135385","name":"Pizzaria Pedra de Fogo","tags":"addr:city:Valparaíso de Goiás,addr:postcode:72.878-184,addr:street:Q QI 01, SN, CONJ B LOTE 17 LOJA 01 E 02,addr:suburb:CIDADE JARDINS,amenity:restaurant,cuisine:pizza,delivery:yes,description:Bar, Restaurante e Pizzaria.,email:contato@pizzariapedradefogo.com.br,outdoor_seating:yes,smoking:outside,takeaway:yes","lat":-16.0550931,"lng":-47.9803519},{"id":"3829135389","name":"Hospital Nossa Senhora Aparecida","tags":"amenity:hospital","lat":-16.059108,"lng":-47.983551},{"id":"3829135394","name":"Judi Padilha Esteticista","tags":"shop:beauty","lat":-16.0598432,"lng":-47.9805468},{"id":"3829135399","name":"Melhor do Brasil Restaurante","tags":"amenity:restaurant","lat":-16.0549246,"lng":-47.9812326},{"id":"3829135413","name":"Supermercado Jardins","tags":"shop:supermarket","lat":-16.0549333,"lng":-47.981119},{"id":"3829135421","tags":"amenity:pharmacy,healthcare:pharmacy","lat":-16.0584899,"lng":-47.9834455},{"id":"3829135435","tags":"amenity:pharmacy,healthcare:pharmacy","lat":-16.0687965,"lng":-47.9852598},{"id":"3839140762","tags":"amenity:parking","lat":-16.0611192,"lng":-47.9836079},{"id":"3839140957","tags":"amenity:parking","lat":-16.0562712,"lng":-47.9828509},{"id":"3839140959","tags":"amenity:parking","lat":-16.0616771,"lng":-47.9837135},{"id":"3839140961","tags":"amenity:parking","lat":-16.0545144,"lng":-47.9831416},{"id":"3839141058","tags":"amenity:parking","lat":-16.0625427,"lng":-47.9837967},{"id":"3839141159","tags":"amenity:parking","lat":-16.0646422,"lng":-47.9841397},{"id":"3839141258","tags":"amenity:parking","lat":-16.0685427,"lng":-47.9848793},{"id":"3839141357","tags":"amenity:parking","lat":-16.0634965,"lng":-47.9840472},{"id":"4042543124","name":"Caixa Econômica Federal","tags":"amenity:bank,atm:yes,brand:Caixa Econômica Federal,brand:wikidata:Q835283,brand:wikipedia:pt:Caixa Econômica Federal,short_name:CEF","lat":-16.0780566,"lng":-47.984454},{"id":"4042604203","name":"Caixa Econômica Federal","tags":"amenity:bank,atm:yes,brand:Caixa Econômica Federal,brand:wikidata:Q835283,brand:wikipedia:pt:Caixa Econômica Federal,short_name:CEF","lat":-16.0722526,"lng":-47.9819283},{"id":"4042604297","tags":"amenity:parking","lat":-16.0582288,"lng":-47.9824933},{"id":"4046259170","tags":"amenity:pharmacy,healthcare:pharmacy","lat":-16.0782031,"lng":-47.9850516},{"id":"4107541292","tags":"shop:supermarket","lat":-16.0686015,"lng":-47.9852292},{"id":"4289714313","name":"Salão Masculino","tags":"addr:city:Valparaiso de Goias,addr:suburb:Parque São Bernardo,shop:beauty","lat":-16.0537893,"lng":-47.9853333},{"id":"4289714759","name":"Academia","tags":"leisure:fitness_centre","lat":-16.0591778,"lng":-47.9855737},{"id":"4289720492","name":"Faculdade","tags":"amenity:university","lat":-16.0755356,"lng":-47.9872171},{"id":"4371040327","name":"Rei do Laço","tags":"amenity:restaurant","lat":-16.049484,"lng":-47.9872028},{"id":"4374186962","name":"Itaú","tags":"amenity:bank,atm:yes,brand:Itaú Unibanco,brand:wikidata:Q1424293,brand:wikipedia:pt:Itaú Unibanco","lat":-16.0696534,"lng":-47.982025},{"id":"4374186973","tags":"amenity:parking","lat":-16.0533715,"lng":-47.9771436},{"id":"4478887221","tags":"amenity:parking","lat":-16.0549046,"lng":-47.9766086},{"id":"4580663990","name":"Savassi Carne De Sol","tags":"amenity:restaurant,name:pt:Savassi Carne De Sol","lat":-16.0839117,"lng":-47.9821009},{"id":"4680584549","name":"Banco de Brasília","tags":"amenity:bank,atm:yes,brand:BRB,brand:wikidata:Q4854119,brand:wikipedia:pt:Banco de Brasília,short_name:BRB","lat":-16.0778086,"lng":-47.9843534},{"id":"5652506933","tags":"amenity:pharmacy,dispensing:yes,healthcare:pharmacy","lat":-16.0515183,"lng":-47.9783373},{"id":"5652506934","tags":"shop:convenience","lat":-16.0516048,"lng":-47.9783581},{"id":"5652506971","tags":"amenity:parking","lat":-16.0535895,"lng":-47.9773813},{"id":"5709677636","name":"Restaurante e Lanchonete Sol","tags":"amenity:restaurant,cuisine:barbecue;chicken;friture;burger;noodle;fish;fish_and_chips,toilets:yes","lat":-16.0703157,"lng":-47.9863994},{"id":"5713887779","tags":"leisure:fitness_centre","lat":-16.0550191,"lng":-47.9807047},{"id":"5713887782","name":"Valfarma","tags":"amenity:pharmacy,healthcare:pharmacy","lat":-16.0549288,"lng":-47.9807079},{"id":"5713887783","name":"Drogaria Renovo","tags":"amenity:pharmacy,healthcare:pharmacy","lat":-16.0549389,"lng":-47.9807962},{"id":"5764620064","name":"Saúde e Vida","tags":"amenity:pharmacy,healthcare:pharmacy","lat":-16.0725961,"lng":-47.9820274},{"id":"5764620066","name":"Supermercado Cemil","tags":"shop:convenience","lat":-16.0725075,"lng":-47.9816807},{"id":"5764620068","name":"Nice Borges Micropigmentação e Estética","tags":"shop:beauty","lat":-16.0725978,"lng":-47.9820822},{"id":"6015856238","tags":"amenity:restaurant","lat":-16.074181,"lng":-47.9844149},{"id":"6127991691","tags":"shop:chemist","lat":-16.072323,"lng":-47.9815494},{"id":"6297981665","tags":"amenity:parking","lat":-16.0701301,"lng":-47.9812252},{"id":"6297981666","tags":"amenity:parking","lat":-16.0698698,"lng":-47.9805083},{"id":"6297981667","tags":"amenity:parking","lat":-16.0699304,"lng":-47.9807535},{"id":"6297981668","tags":"amenity:parking","lat":-16.0694884,"lng":-47.97953},{"id":"6529773885","name":"Ceddim","tags":"amenity:school","lat":-16.0776956,"lng":-47.9715869},{"id":"6901086280","name":"Supermercado Marques","tags":"shop:supermarket","lat":-16.0538516,"lng":-47.9658445},{"id":"6901110396","name":"ZARPELLONE","tags":"amenity:restaurant,cuisine:pizza","lat":-16.0533186,"lng":-47.9652715},{"id":"7740362132","tags":"shop:convenience","lat":-16.0512947,"lng":-47.972486},{"id":"9535028037","name":"Santander","tags":"addr:city:Valparaiso de Goiás,addr:housenumber:S/N,addr:street:Rua 13,addr:suburb:Parque Esplanada III,amenity:bank,atm:yes,brand:Santander,brand:wikidata:Q5835668,brand:wikipedia:en:Santander Bank,drive_through:no","lat":-16.0733136,"lng":-47.9813177},{"id":"9535028038","name":"Bradesco","tags":"amenity:bank,atm:yes,brand:Bradesco,brand:wikidata:Q806181,brand:wikipedia:en:Banco Bradesco,drive_through:no","lat":-16.069991,"lng":-47.9821365},{"id":"9662738655","name":"Fábrica de Salgados Crocky King Coxinha","tags":"amenity:restaurant,phone:+55 61 98533-3420,website:https://crockykingcoxinha.com.br","lat":-16.064227,"lng":-47.9848769},{"id":"9813300544","name":"Macarrão Expresso","tags":"amenity:restaurant","lat":-16.0799575,"lng":-47.9747289},{"id":"9906362145","name":"Mercado Ipiranga","tags":"addr:city:VALPARAISO DE GOAIS,addr:suburb:YPIRANGA A,opening_hours:Mo-Su 08:00-20:00,payment:app:yes,payment:cash:yes,payment:debit_cards:yes,payment:mastercard:yes,payment:visa:yes,shop:supermarket","lat":-16.0602308,"lng":-47.972746},{"id":"9906362146","name":"Colégio Objetivo","tags":"addr:city:VALPARAISO DE GOAIS,addr:housenumber:2,addr:postcode:72879280,addr:street:R. Saia Velha, quadra 2 - chácara 25,addr:suburb:YPIRANGA A,amenity:school,website:https://www.instagram.com/objetivovalparaiso/","lat":-16.0593854,"lng":-47.9729231}]