[{"id":"1528863570","name":"Faculdade Darwin","tags":"addr:postcode:71968-720,addr:street:QS 7 R 400, 1 lt 1 - Areal,amenity:university,website:http://www.faculdadedarwin.com","lat":-15.8648046,"lng":-48.0244665},{"id":"1554422239","name":"Drogaria","tags":"amenity:pharmacy,healthcare:pharmacy","lat":-15.8852456,"lng":-48.01766},{"id":"1777309441","name":"Terminal Rodoviário","tags":"addr:city:Riacho Fundo I,addr:street:QN 09 Área Central 04,amenity:bus_station","lat":-15.8859327,"lng":-48.0229994},{"id":"1786895110","tags":"leisure:sports_centre","lat":-15.8776914,"lng":-48.0223175},{"id":"1846173712","name":"Supermercado Caíque","tags":"shop:supermarket","lat":-15.8867018,"lng":-48.0125464},{"id":"2678757384","name":"Barril 66","tags":"amenity:bar","lat":-15.877083,"lng":-48.015559},{"id":"2678757388","name":"Planeta Country","tags":"amenity:bar","lat":-15.8772249,"lng":-48.0142822},{"id":"2678790863","name":"Estância Universitária","tags":"amenity:bar","lat":-15.8690853,"lng":-48.0321045},{"id":"2691215078","name":"Banco do Brasil","tags":"addr:city:Riacho Fundo I,addr:street:CLN 07 bloco C lotes 3/4 térreo,amenity:atm,brand:Banco do Brasil,brand:wikidata:Q610817,brand:wikipedia:en:Banco do Brasil,operator:Banco do Brasil,operator:wikidata:Q610817,operator:wikipedia:en:Banco do Brasil,phone:+55 61 3404 5290","lat":-15.8838106,"lng":-48.0192175},{"id":"2691215217","name":"Portal Grill","tags":"amenity:restaurant,cuisine:barbecue","lat":-15.877162,"lng":-48.014957},{"id":"2709743996","name":"Polícia Civil 21a DP","tags":"addr:street:CSG 09 Lote 10,amenity:police,phone:+55 61 3451 3300;+55 61 3451 3328","lat":-15.87357,"lng":-48.027837},{"id":"2710212422","name":"Correios Riacho Fundo","tags":"addr:city:Riacho Fundo I,addr:street:CLN 07 bloco C lotes 1/2,amenity:post_office,operator:Correios,operator:wikidata:Q3375004,operator:wikipedia:en:Correios,phone:+55 61 3399 6621","lat":-15.8837498,"lng":-48.0190731},{"id":"2710236368","name":"Itaú","tags":"addr:city:Riacho Fundo I,addr:street:CLN 05 Bloco E Loja 1,amenity:bank,brand:Itaú Unibanco,brand:wikidata:Q1424293,brand:wikipedia:pt:Itaú Unibanco,phone:+55 61 3399 5129;+55 61 3404 5892","lat":-15.8826582,"lng":-48.0163154},{"id":"2710236369","name":"Caixa Econômica Federal","tags":"addr:city:Riacho Fundo I,addr:street:CLS 04 Conjunto C Lotes 3/4,amenity:bank,brand:Caixa Econômica Federal,brand:wikidata:Q835283,brand:wikipedia:pt:Caixa Econômica Federal,phone:+55 61 2196 7550","lat":-15.8841309,"lng":-48.016629},{"id":"2710236370","name":"Supermercado Super Bom","tags":"shop:supermarket","lat":-15.8807565,"lng":-48.0114803},{"id":"2711431644","name":"Drogaria Pró Saúde","tags":"addr:city:Riacho Fundo I,amenity:pharmacy","lat":-15.8870826,"lng":-48.0159875},{"id":"2711431653","name":"Supermercado Master","tags":"addr:city:Riacho Fundo I,shop:supermarket","lat":-15.8874255,"lng":-48.0158297},{"id":"2713473843","name":"Polícia Militar - PCS 013","tags":"amenity:police,phone:+55 61 3910 1013","lat":-15.8842154,"lng":-48.0177454},{"id":"3064234516","name":"Espaço Absoluto","tags":"amenity:nightclub","lat":-15.8767442,"lng":-48.0158146},{"id":"3090553632","tags":"amenity:restaurant","lat":-15.8664006,"lng":-48.0302821},{"id":"4494844790","name":"Base Atacado","tags":"addr:city:Águas Claras,addr:street:Smpw Trecho 3 Conjunto 31,addr:suburb:Ade,name:pt:Base Atacado,shop:supermarket","lat":-15.8753607,"lng":-47.9961507},{"id":"4687221158","name":"Praça 1","tags":"leisure:park","lat":-15.888447,"lng":-48.0247477},{"id":"4687222323","name":"Praça 2","tags":"leisure:park","lat":-15.8860469,"lng":-48.0244906},{"id":"4726073931","tags":"shop:convenience","lat":-15.8854594,"lng":-48.0157004},{"id":"4726167024","name":"Café Com Leite","tags":"shop:supermarket","lat":-15.8876458,"lng":-48.0211978},{"id":"4726189515","name":"A Mineira","tags":"amenity:restaurant","lat":-15.8836356,"lng":-48.0187599},{"id":"4726189520","name":"AquaMedley","tags":"leisure:fitness_centre","lat":-15.8829707,"lng":-48.0170363},{"id":"4726189521","name":"FarmaVida","tags":"amenity:pharmacy","lat":-15.8829109,"lng":-48.016899},{"id":"4726189522","name":"Drogasil","tags":"amenity:pharmacy,healthcare:pharmacy","lat":-15.8828531,"lng":-48.0175194},{"id":"4726189524","name":"Drogaria","tags":"amenity:pharmacy","lat":-15.8822225,"lng":-48.0178293},{"id":"4726189528","name":"Restaurante Tucanos","tags":"amenity:restaurant","lat":-15.8827451,"lng":-48.0178567},{"id":"4726189529","name":"Bradesco","tags":"amenity:bank,atm:yes,brand:Bradesco,brand:wikidata:Q806181,brand:wikipedia:en:Banco Bradesco","lat":-15.8839696,"lng":-48.016224},{"id":"4726189531","name":"Drogaria Popular","tags":"amenity:pharmacy","lat":-15.8834992,"lng":-48.0150703},{"id":"4726517649","name":"SuperMercado Rabelo","tags":"addr:city:Brasilia,addr:postcode:71805547,addr:suburb:Riacho Fundo I,shop:supermarket","lat":-15.8787187,"lng":-48.0200585},{"id":"4726703801","tags":"amenity:childcare","lat":-15.8858034,"lng":-48.013684},{"id":"4728963805","name":"Academia SUPREME","tags":"leisure:fitness_centre,sport:multi","lat":-15.8783613,"lng":-48.0202944},{"id":"4728973189","tags":"amenity:pharmacy","lat":-15.8802137,"lng":-48.0189287},{"id":"5184968572","tags":"amenity:atm,currency:BRL:yes,operator:Banco 24h","lat":-15.8783148,"lng":-48.0201191},{"id":"5303154933","tags":"amenity:parking","lat":-15.8793636,"lng":-48.0044972},{"id":"5451936396","name":"BrB (Conveniência)","tags":"amenity:bank","lat":-15.8842113,"lng":-48.0168185},{"id":"5451936397","tags":"amenity:atm,currency:BRL:yes,drive_through:no,operator:BrB","lat":-15.8842452,"lng":-48.0169024},{"id":"5472983151","name":"Restaurante EMPÓRIO'S","tags":"amenity:restaurant","lat":-15.8829411,"lng":-48.0148013},{"id":"5472983172","name":"Restaurante Tucano's","tags":"amenity:restaurant","lat":-15.8837549,"lng":-48.0157095},{"id":"5473752194","name":"Mercado Central","tags":"shop:supermarket","lat":-15.8823039,"lng":-48.0180477},{"id":"5473752197","name":"Mercado Oliveira","tags":"shop:supermarket","lat":-15.882011,"lng":-48.0179207},{"id":"5962983087","name":"Formosa","tags":"amenity:car_wash","lat":-15.8758328,"lng":-48.0083249},{"id":"5962988385","name":"Armazém São José","tags":"shop:supermarket","lat":-15.8757858,"lng":-48.0081209},{"id":"5962988389","name":"BRB","tags":"amenity:bank","lat":-15.8774093,"lng":-48.0109002},{"id":"6285056286","name":"Doce Lar do Chocolate","tags":"phone:+55 61 3026 4969,shop:supermarket","lat":-15.8771431,"lng":-48.0077064},{"id":"6873210185","name":"Americanas Express","tags":"shop:supermarket,website:https://americanas.com.br","lat":-15.8777913,"lng":-48.0202039},{"id":"7948559733","name":"Sacolão Mohon indiano","tags":"opening_hours:08:00-16:00,shop:supermarket","lat":-15.8812722,"lng":-48.0189447},{"id":"7948590953","name":"RL revenda de ovos e variedades","tags":"opening_hours:08:00-18:00,opening_hours:covid19:same,shop:convenience","lat":-15.8819376,"lng":-48.0183366},{"id":"8421762317","name":"Banco24Horas","tags":"amenity:atm,brand:Banco24Horas,brand:wikidata:Q4854069,brand:wikipedia:pt:Banco24Horas,operator:Banco 24 horas","lat":-15.8768082,"lng":-48.0108376},{"id":"8454135117","name":"Super Mais","tags":"shop:supermarket","lat":-15.8708779,"lng":-48.0027062}]