[{"id":"1528863572","name":"FACITEC","tags":"amenity:school,website:http://www.facitec.br/","lat":-15.8699986,"lng":-48.0327405},{"id":"2587337996","name":"Armarinho e Papelaria","tags":"amenity:library,phone:+55 61 3333 1645","lat":-15.9047621,"lng":-48.060278},{"id":"2587338006","name":"BRB -Banco de Brasilia","tags":"amenity:bank","lat":-15.9036327,"lng":-48.0633103},{"id":"2587338014","name":"Bradesco","tags":"amenity:bank,brand:Bradesco,brand:wikidata:Q806181,brand:wikipedia:en:Banco Bradesco","lat":-15.9044602,"lng":-48.0664067},{"id":"2587338030","name":"Centro de Saúde 2 Recanto das Emas- DF","tags":"amenity:hospital","lat":-15.9023697,"lng":-48.0602228},{"id":"2587338045","name":"Correios","tags":"amenity:post_office,brand:Correios,brand:wikidata:Q3375004,brand:wikipedia:en:Correios","lat":-15.9031563,"lng":-48.0628131},{"id":"2587338051","name":"Droga Lene","tags":"amenity:pharmacy,healthcare:pharmacy,phone:+55 61 3434 1099","lat":-15.9026005,"lng":-48.0612773},{"id":"2587338052","name":"Droga Med","tags":"amenity:pharmacy,healthcare:pharmacy","lat":-15.8722016,"lng":-48.0675535},{"id":"2587338053","name":"Drogafuji","tags":"amenity:pharmacy,healthcare:pharmacy","lat":-15.9040099,"lng":-48.0646732},{"id":"2587338054","name":"Drogaria - Genética Popular","tags":"amenity:pharmacy,dispensing:no,healthcare:pharmacy,phone:+55 61 3458 5302","lat":-15.8736508,"lng":-48.0722071},{"id":"2587338055","name":"Drogaria Central","tags":"amenity:pharmacy,dispensing:no,healthcare:pharmacy,phone:+55 61 3358 4888","lat":-15.8723813,"lng":-48.0680914},{"id":"2587338056","name":"Drogaria Rosário","tags":"amenity:pharmacy,dispensing:no;yes,healthcare:pharmacy","lat":-15.8724315,"lng":-48.0678885},{"id":"2587338057","name":"Drogaria Rosário","tags":"amenity:pharmacy,dispensing:no","lat":-15.9036293,"lng":-48.0654411},{"id":"2587338059","name":"Drogaria Visão","tags":"amenity:pharmacy,dispensing:no,healthcare:pharmacy,phone:+55 61 3046 6667","lat":-15.9030916,"lng":-48.0626165},{"id":"2587338060","name":"Drogaria Visão","tags":"amenity:pharmacy,dispensing:no,healthcare:pharmacy,phone:+55 61 3333 8000","lat":-15.9038889,"lng":-48.0655542},{"id":"2587338061","name":"Drogaria Visão","tags":"amenity:pharmacy,dispensing:no","lat":-15.9044749,"lng":-48.0654196},{"id":"2587338063","name":"Du Cheff","tags":"amenity:restaurant,cuisine:pizza,phone:+55-61-3434-3707","lat":-15.9031643,"lng":-48.0618906},{"id":"2587338070","name":"Euro Supermercado","tags":"shop:supermarket","lat":-15.9044086,"lng":-48.0678799},{"id":"2587338074","name":"Faculdade Unicesp","tags":"amenity:university","lat":-15.9035478,"lng":-48.0602124},{"id":"2587338088","name":"Gurgel Restaurante","tags":"amenity:restaurant,phone:+55 61 3434 4086","lat":-15.9042709,"lng":-48.0601249},{"id":"2587338104","name":"Itaú","tags":"amenity:bank,brand:Itaú Unibanco,brand:wikidata:Q1424293,brand:wikipedia:pt:Itaú Unibanco","lat":-15.9044933,"lng":-48.0666015},{"id":"2587338129","name":"Mais Atacadista","tags":"shop:supermarket","lat":-15.8664287,"lng":-48.056067},{"id":"2587338136","name":"Microlins","tags":"amenity:school,phone:+55 61 3333 6000","lat":-15.9033257,"lng":-48.0623335},{"id":"2587338144","name":"One Store - Estaçaõ Criança","tags":"shop:mall","lat":-15.902463,"lng":-48.0592997},{"id":"2587338147","name":"Panificadora Bello Pane","tags":"amenity:restaurant,phone:+55 61 3434 7106","lat":-15.9033969,"lng":-48.0618665},{"id":"2587338150","name":"Pizzaria Franklin","tags":"amenity:restaurant,cuisine:pizza,phone:+55 61 3333 3339","lat":-15.9020778,"lng":-48.0582046},{"id":"2587338151","name":"Pizzaria Nathelly","tags":"amenity:restaurant,cuisine:pizza","lat":-15.9013873,"lng":-48.0549864},{"id":"2587338157","name":"Policia Militar PCS 064","tags":"amenity:police","lat":-15.9011289,"lng":-48.0560883},{"id":"2587338213","name":"Tático","tags":"shop:supermarket","lat":-15.8735232,"lng":-48.0709987},{"id":"2587338216","name":"Belavia","tags":"addr:place:Recanto das Emas,shop:supermarket","lat":-15.902694,"lng":-48.059311},{"id":"2587338243","name":"BR","tags":"amenity:fuel,brand:BR,brand:wikidata:Q4836468,brand:wikipedia:pt:BR Distribuidora,operator:BR,shop:convenience","lat":-15.9014688,"lng":-48.0576022},{"id":"2678757385","name":"Distribuidora de Bebidas Cassiano","tags":"addr:street:Qn 7F Conjunto 2,amenity:bar","lat":-15.8996499,"lng":-48.047583},{"id":"2678757389","name":"Sasa Doces e Bebidas","tags":"addr:street:Qn 7F Conjunto 7,amenity:bar","lat":-15.9004336,"lng":-48.0466167},{"id":"2678757395","tags":"addr:street:Qn 7F Conjunto 1,amenity:bar","lat":-15.9000471,"lng":-48.0489755},{"id":"2678757397","tags":"amenity:bar","lat":-15.9005112,"lng":-48.0503949},{"id":"2709744052","name":"Polícia Militar - PCS 066","tags":"amenity:police","lat":-15.8643482,"lng":-48.0367304},{"id":"2713473852","name":"Polícia Militar - PCS 017","tags":"amenity:police,opening_hours:24/7,phone:+55 61 3910 1017","lat":-15.881621,"lng":-48.0669632},{"id":"2716265667","name":"Polícia Militar - PCS 033","tags":"amenity:police,phone:+55 61 3910 1033","lat":-15.8935641,"lng":-48.0466082},{"id":"2726097153","name":"Polícia Militar - PCS 042","tags":"amenity:police,phone:+55 61 3910 1042","lat":-15.8694786,"lng":-48.0714117},{"id":"2727096098","name":"Academia Agile","tags":"addr:street:Qn 7F Conjunto 7,leisure:fitness_centre,phone:+55 61 3333 4479","lat":-15.8998532,"lng":-48.0467932},{"id":"2727096115","name":"Drogaria Mais vida","tags":"addr:street:Qn 7D Conjunto 4,amenity:pharmacy,dispensing:no,phone:+55 61 3333 0101","lat":-15.902163,"lng":-48.0460442},{"id":"2727096119","name":"Drogaria Pop Farma","tags":"addr:street:Qn 7F Conjunto 7,amenity:pharmacy,dispensing:no,healthcare:pharmacy,phone:+55 61 3333 6644","lat":-15.9006938,"lng":-48.0465249},{"id":"2727096122","name":"Drogaria Via Brasil","tags":"amenity:pharmacy,dispensing:no,healthcare:pharmacy,phone:+55 61 3333 5666","lat":-15.8995913,"lng":-48.0474502},{"id":"2727096128","name":"Lava Jato Aliança","tags":"addr:street:Qn 7F Conjunto 7,amenity:car_wash","lat":-15.8994453,"lng":-48.0469695},{"id":"2727096153","name":"Restaurante Comunitário do Riacho Fundo","tags":"amenity:restaurant","lat":-15.9000498,"lng":-48.0508933},{"id":"2727096155","name":"Sacolão Safra","tags":"addr:housenumber:Qn 7F Conjunto 7,addr:street:Brasília,shop:supermarket","lat":-15.8999603,"lng":-48.0467832},{"id":"2727096159","name":"Salão de Festa Maison Buffet","tags":"amenity:restaurant,phone:+55 61 3358 0615","lat":-15.8792545,"lng":-48.0567601},{"id":"2946814964","tags":"amenity:police","lat":-15.9042365,"lng":-48.0662497},{"id":"4725095094","name":"Distribuidora de bebidas Japão","tags":"amenity:bar,name:pt:Distribuidora de bebidas Japão","lat":-15.8983124,"lng":-48.0494865},{"id":"4731289024","name":"Mercadinho sena","tags":"name:pt:Mercadinho sena,shop:supermarket","lat":-15.8987395,"lng":-48.0513263},{"id":"5364665642","name":"Parque Comunitario 120","tags":"leisure:park","lat":-15.8672871,"lng":-48.0608699},{"id":"6384527736","name":"Supermercado Universe","tags":"shop:supermarket","lat":-15.8808657,"lng":-48.075536},{"id":"6466824535","name":"Drogafarma","tags":"amenity:pharmacy,dispensing:yes,healthcare:pharmacy","lat":-15.8726344,"lng":-48.0685305},{"id":"6466824540","name":"Drogaria Nacional","tags":"amenity:pharmacy,dispensing:yes,healthcare:pharmacy","lat":-15.8725112,"lng":-48.0680772},{"id":"6466824543","name":"+Q Frama","tags":"amenity:pharmacy,dispensing:yes,healthcare:pharmacy","lat":-15.8723427,"lng":-48.0675201},{"id":"6466824544","name":"DrogaFugi","tags":"amenity:pharmacy,dispensing:yes,healthcare:pharmacy","lat":-15.8723219,"lng":-48.0674038},{"id":"6466824545","name":"Drogasil","tags":"amenity:pharmacy,brand:Drogasil,brand:wikidata:Q5308185,brand:wikipedia:pt:Drogasil,dispensing:yes,healthcare:pharmacy,wheelchair:yes","lat":-15.8722847,"lng":-48.0672905},{"id":"6466824550","name":"Restaurante Cuié de Pau","tags":"amenity:restaurant","lat":-15.8719515,"lng":-48.0661675},{"id":"6466824558","name":"Casa do Fazendeiro","tags":"shop:pet","lat":-15.8716885,"lng":-48.0650545},{"id":"6466859156","name":"Drogaria Sara","tags":"amenity:pharmacy,dispensing:yes,healthcare:pharmacy","lat":-15.8708012,"lng":-48.0624029},{"id":"6466859159","name":"Taveirão pizzaria e chopperia","tags":"amenity:restaurant","lat":-15.8701126,"lng":-48.0623159},{"id":"6466859161","name":"Drogaria Gabriel","tags":"amenity:pharmacy,dispensing:yes,healthcare:pharmacy","lat":-15.8703474,"lng":-48.0627973},{"id":"6466859170","name":"Sacolão Qualidade","tags":"shop:supermarket","lat":-15.8711433,"lng":-48.0654675},{"id":"6466859171","name":"BRB conveniência","tags":"amenity:bank","lat":-15.8711704,"lng":-48.0655345},{"id":"6466859172","name":"Caixa Econômica Federal","tags":"amenity:bank,brand:Caixa Econômica Federal,brand:wikidata:Q835283,brand:wikipedia:pt:Caixa Econômica Federal","lat":-15.8712272,"lng":-48.0657585},{"id":"6466859175","tags":"amenity:pharmacy,dispensing:yes,healthcare:pharmacy","lat":-15.8719457,"lng":-48.0681229},{"id":"6466859184","tags":"amenity:pharmacy,dispensing:yes,healthcare:pharmacy","lat":-15.8726603,"lng":-48.0704291},{"id":"6466859288","tags":"amenity:post_office","lat":-15.8729944,"lng":-48.0715087},{"id":"6466859289","name":"Garçom Beer","tags":"amenity:restaurant","lat":-15.8741296,"lng":-48.0753161},{"id":"6905521025","name":"Mercado Bom Vizinho (Ramos)","tags":"addr:street:Avenida entre a 310/312,opening_hours:Mo-Sa 08:00-20:00; Su 08:00-14:00,shop:supermarket","lat":-15.8749061,"lng":-48.0715465},{"id":"6905521030","name":"Academia Força & Vida","tags":"addr:street:Quadra 110,addr:suburb:samambaia sul,leisure:fitness_centre","lat":-15.8726561,"lng":-48.0724091},{"id":"6906992186","name":"sao de beleza","tags":"beauty:nails,opening_hours:Mo-Sa 08:00-18:00,shop:beauty","lat":-15.9018642,"lng":-48.0458424},{"id":"6906992187","name":"salao de beleza","tags":"shop:beauty","lat":-15.9023515,"lng":-48.0456906},{"id":"6906992188","name":"salao de beleza","tags":"shop:beauty","lat":-15.9023987,"lng":-48.0456719},{"id":"6906992189","name":"academia","tags":"leisure:fitness_centre","lat":-15.9026749,"lng":-48.0455178},{"id":"6906992190","tags":"amenity:pharmacy,dispensing:yes,healthcare:pharmacy","lat":-15.9027063,"lng":-48.0455132},{"id":"6906992192","name":"donatella","tags":"amenity:restaurant,cuisine:pizza","lat":-15.9025155,"lng":-48.0459802},{"id":"6906992194","name":"Garcia","tags":"shop:supermarket","lat":-15.9022976,"lng":-48.0460385},{"id":"6906992203","name":"salao de beleza","tags":"shop:beauty","lat":-15.9008245,"lng":-48.0461833},{"id":"6906992207","name":"da familia","tags":"shop:supermarket","lat":-15.903636,"lng":-48.0456369},{"id":"7058877555","name":"Rocha Pizzas & Lanches","tags":"addr:city:Samambaia,addr:housenumber:Quadra 212 conj. 13 lote 17,addr:postcode:72316-313,addr:street:Avenida Primeira Norte,addr:suburb:Norte,amenity:restaurant,cuisine:pizza;burger,description:Ambiente fixo que permite o acesso à internet, opções variadas de lanches, pizzas e açaí. \nDelivery.,opening_hours:Tu-Su 17:00-23:59,phone:+55 61 4103-4200","lat":-15.8648312,"lng":-48.073345},{"id":"8454962100","tags":"leisure:fitness_centre","lat":-15.8764149,"lng":-48.0666319},{"id":"8454962102","tags":"shop:supermarket","lat":-15.8768406,"lng":-48.0664012},{"id":"8454962106","tags":"amenity:restaurant","lat":-15.8765542,"lng":-48.0651674},{"id":"8454962108","tags":"leisure:fitness_centre","lat":-15.8758834,"lng":-48.0638558},{"id":"8454962116","tags":"leisure:fitness_centre","lat":-15.8780109,"lng":-48.0701611},{"id":"8530557433","name":"Samambaia Sul","tags":"network:Metrô DF,platforms:1,public_transport:station,railway:station,station:subway,subway:yes,wikipedia:pt:sambaíba sul","lat":-15.869041,"lng":-48.0715822},{"id":"8530707396","name":"Furnas","tags":"network:Metrô DF,platforms:1,public_transport:station,railway:station,station:subway,subway:yes,wikidata:Q10275816,wikipedia:pt:Estação Furnas","lat":-15.8649486,"lng":-48.0598039},{"id":"8677755057","name":"Esteticar Automotiva","tags":"addr:housenumber:01,addr:postcode:72610-650,addr:street:Avenida Recanto das Emas, Quadra 206, lote 18, loja,addr:suburb:Recanto das Emas,amenity:car_wash,opening_hours:Mo-Sa 08:00-18:00,opening_hours:covid19:open,payment:american_express:yes,payment:cards:yes,payment:cash:yes,payment:credit_cards:yes,payment:debit_cards:yes,payment:maestro:yes,payment:mastercard:yes,payment:visa:yes,payment:visa_debit:yes,wheelchair:yes","lat":-15.9042473,"lng":-48.0720196}]