[{"id":"187358110","tags":"amenity:parking","lat":-15.7924992,"lng":-47.8266155},{"id":"1523009369","name":"Casarão","tags":"amenity:restaurant,cuisine:regional,description:Porkilo style,phone:+55 61 33271108","lat":-15.7903463,"lng":-47.854579},{"id":"1548615718","name":"Churrascaria do Lago","tags":"amenity:restaurant","lat":-15.7864096,"lng":-47.8314},{"id":"1548615764","name":"Churrascaria Porteira Grill","tags":"amenity:restaurant","lat":-15.7872252,"lng":-47.8458839},{"id":"2263503662","name":"Kranfo","tags":"amenity:restaurant","lat":-15.794922,"lng":-47.853516},{"id":"2265957865","name":"Drogaria Colorado","tags":"addr:street:Rua da Praça,amenity:pharmacy,dispensing:yes,healthcare:pharmacy","lat":-15.7941167,"lng":-47.8505978},{"id":"2265957869","name":"Mestre Cuca","tags":"amenity:restaurant,cuisine:regional","lat":-15.7932892,"lng":-47.8520676},{"id":"2581672878","name":"Esquina Gourmet","tags":"amenity:restaurant","lat":-15.7928865,"lng":-47.8542898},{"id":"2581672879","name":"Feitiço da Vila","tags":"amenity:restaurant","lat":-15.7915428,"lng":-47.8546992},{"id":"2581672880","name":"Sertão e Mar","tags":"amenity:restaurant","lat":-15.7901305,"lng":-47.8530842},{"id":"2581672881","name":"Tchê Garoto","tags":"amenity:restaurant,cuisine:regional;brazilian,outdoor_seating:yes","lat":-15.7954629,"lng":-47.8532997},{"id":"2581672882","name":"Traíra sem Espinha","tags":"amenity:restaurant,cuisine:fish","lat":-15.7923385,"lng":-47.8545728},{"id":"2673846715","name":"Academia de Tênis","tags":"leisure:sports_centre,sport:tennis","lat":-15.8033906,"lng":-47.8318313},{"id":"2673846721","name":"Banco do Brasil","tags":"addr:place:Setor de Clubes Sul,addr:street:Centro Cultural Banco do Brasil,amenity:atm,brand:Banco do Brasil,brand:wikidata:Q610817,brand:wikipedia:en:Banco do Brasil,operator:Banco do Brasil,operator:wikidata:Q610817,operator:wikipedia:en:Banco do Brasil","lat":-15.8137332,"lng":-47.8382686},{"id":"2673846741","name":"Clube Coat Fitness","tags":"addr:place:Setor de Clubes Sul,addr:street:Setor de Clubes Trecho 3 - Ao Lado da Mdo Squash,leisure:sports_centre,phone:+55 61 3223 0187;+55 61 4141 4126","lat":-15.814368,"lng":-47.856039},{"id":"2673846747","name":"Clube de Caça E Pesca","tags":"leisure:sports_centre,sport:fishing","lat":-15.8023049,"lng":-47.8330199},{"id":"2673846752","name":"Clube de Meditação Amygo","tags":"leisure:sports_centre","lat":-15.815586,"lng":-47.847584},{"id":"2673846758","name":"Dom Francisco","tags":"addr:place:Setor de Clubes Sul,addr:street:Academia de Tênis,amenity:restaurant,cuisine:international,phone:+55 61 3316 6285;+55 61 3316 6265","lat":-15.8045337,"lng":-47.8320085},{"id":"2673846761","name":"Eleven Hall","tags":"amenity:bar","lat":-15.8193333,"lng":-47.8339806},{"id":"2673846763","name":"Triplex","tags":"amenity:bar","lat":-15.8188131,"lng":-47.8366942},{"id":"2673846772","name":"Avenida Paulista","tags":"addr:housenumber:39,addr:place:Lago Sul,addr:street:SCES Trecho 2,amenity:restaurant,cuisine:pizza","lat":-15.819322,"lng":-47.8337842},{"id":"2673846792","name":"Villa Náutica Brasília","tags":"addr:place:Asa Sul,addr:street:SCES Trecho 2,leisure:sports_centre","lat":-15.8195756,"lng":-47.8450095},{"id":"2678765920","name":"Bar Piauí","tags":"amenity:bar","lat":-15.794795,"lng":-47.847811},{"id":"2678765925","name":"Liv Lounge","tags":"amenity:bar","lat":-15.7859373,"lng":-47.8494684},{"id":"2691239366","name":"Delícias do Mar","tags":"addr:place:Vila Planalto,amenity:restaurant,cuisine:seafood","lat":-15.796567,"lng":-47.850877},{"id":"2691239448","name":"Figueira da Villa","tags":"amenity:restaurant,cuisine:barbecue","lat":-15.7929898,"lng":-47.854102},{"id":"2727302753","name":"Churrascaria Vila Brasas","tags":"amenity:restaurant,cuisine:meat;barbecue","lat":-15.7912004,"lng":-47.8476149},{"id":"2786625354","name":"Esquina do Lago","tags":"amenity:restaurant","lat":-15.7900255,"lng":-47.8514246},{"id":"2880479288","name":"Daorla","tags":"amenity:bar","lat":-15.8187247,"lng":-47.836891},{"id":"2909187117","name":"La Bonne","tags":"amenity:restaurant","lat":-15.8187489,"lng":-47.836815},{"id":"2959293763","tags":"amenity:parking","lat":-15.7937528,"lng":-47.850123},{"id":"3021277292","name":"Bar e Restaurante Cristiano","tags":"addr:city:Brasília,addr:street:Avenida Pacheco Fernandes Dantas,addr:suburb:Vila Planalto,amenity:restaurant,cuisine:regional","lat":-15.7947155,"lng":-47.8488704},{"id":"3021289679","name":"Supermercado Renascer","tags":"shop:supermarket,wheelchair:yes","lat":-15.7948678,"lng":-47.8480068},{"id":"3033760099","name":"Drogaria Pinheirense","tags":"amenity:pharmacy","lat":-15.793598,"lng":-47.8503403},{"id":"3033760105","name":"Unhas Belas","tags":"shop:beauty,wheelchair:yes","lat":-15.794371,"lng":-47.8496136},{"id":"3033760109","name":"Jô Salão de Beleza","tags":"phone:+55 61 38794932,shop:beauty","lat":-15.794873,"lng":-47.8521132},{"id":"3033760112","tags":"amenity:restaurant,cuisine:regional","lat":-15.7947362,"lng":-47.8496241},{"id":"3139257361","name":"Banco do Brasil","tags":"amenity:atm,brand:Banco do Brasil,brand:wikidata:Q610817,brand:wikipedia:en:Banco do Brasil,operator:Banco do Brasil,operator:wikidata:Q610817,operator:wikipedia:en:Banco do Brasil","lat":-15.8142985,"lng":-47.83895},{"id":"3139274343","name":"Bistrô Bom Demais","tags":"amenity:restaurant","lat":-15.81395,"lng":-47.83851},{"id":"3139274344","tags":"amenity:cafe","lat":-15.8145074,"lng":-47.8388265},{"id":"3245432308","name":"Rubão Refeições","tags":"amenity:restaurant","lat":-15.7900551,"lng":-47.8533315},{"id":"6272419606","name":"Ki Mukeka","tags":"addr:street:Setor de Hotéis e Turismo Norte Trecho 2,amenity:restaurant,building:yes","lat":-15.7839917,"lng":-47.8526393},{"id":"6329977106","name":"Kabuki Sushi House","tags":"addr:postcode:70200002,addr:street:SCES Trecho 2 Clube de Golfe,amenity:restaurant,cuisine:japanese,outdoor_seating:yes","lat":-15.8147988,"lng":-47.8359148},{"id":"6329985249","name":"Nikkei","tags":"amenity:restaurant,cuisine:japanese","lat":-15.8188866,"lng":-47.8349278},{"id":"6468145303","name":"Rei do camarão beira do lago","tags":"addr:housenumber:9,addr:postcode:70297-400,addr:street:SHTN Trecho 1,amenity:restaurant,name:en:Rei do camarão beira lago,name:pt:Rei do camarão beira lago","lat":-15.7861508,"lng":-47.8338832},{"id":"9778082859","name":"Villa Vegana","tags":"amenity:restaurant","lat":-15.8153953,"lng":-47.8478041}]