[{"id":"446236175","tags":"amenity:parking","lat":-15.8176144,"lng":-47.8751844},{"id":"652166576","name":"401 Sul","tags":"amenity:bus_station,bus:yes,public_transport:station","lat":-15.8046256,"lng":-47.8795021},{"id":"984930824","name":"Correios","tags":"amenity:parking","lat":-15.7941881,"lng":-47.8879372},{"id":"984930827","name":"5ª DP Polícia Civil SBN","tags":"amenity:police","lat":-15.7884065,"lng":-47.8786165},{"id":"985265081","tags":"amenity:parking","lat":-15.7964837,"lng":-47.8881882},{"id":"985265086","tags":"amenity:post_office,operator:Correios,operator:wikidata:Q3375004,operator:wikipedia:en:Correios","lat":-15.7945888,"lng":-47.8879068},{"id":"1032593121","name":"Fred","tags":"amenity:restaurant,cuisine:german","lat":-15.8139814,"lng":-47.8904585},{"id":"1102290614","name":"Garagem do TCU","tags":"amenity:parking,capacity:disabled:yes,parking:underground","lat":-15.8042166,"lng":-47.8614066},{"id":"1102290669","name":"Garagem do Edifício Sede do TCU","tags":"amenity:parking,capacity:disabled:yes,parking:underground","lat":-15.8024574,"lng":-47.8630328},{"id":"1166810570","name":"Drogaria Popular","tags":"amenity:pharmacy,healthcare:pharmacy","lat":-15.8182465,"lng":-47.8957528},{"id":"1166896487","name":"Fausto e Manoel","tags":"amenity:bar","lat":-15.8181707,"lng":-47.8958136},{"id":"1194595428","name":"Restaurante Coco Bambu","tags":"amenity:restaurant,opening_hours:Mo-Sa 10:00-22:00; Su 12:00-20:00","lat":-15.7863197,"lng":-47.8894121},{"id":"1201115436","tags":"amenity:police","lat":-15.7941211,"lng":-47.8971488},{"id":"1201115442","tags":"amenity:library","lat":-15.7915056,"lng":-47.8990542},{"id":"1327038282","tags":"amenity:parking","lat":-15.7893732,"lng":-47.8859701},{"id":"1327038606","tags":"access:yes,amenity:parking","lat":-15.7885912,"lng":-47.8867846},{"id":"1327039479","tags":"amenity:parking","lat":-15.8130972,"lng":-47.8912862},{"id":"1327067712","tags":"amenity:parking","lat":-15.7968347,"lng":-47.8877591},{"id":"1529993584","name":"Galeteria BEIRA LOGO","tags":"amenity:restaurant,cuisine:chicken,wheelchair:yes","lat":-15.8171219,"lng":-47.8732575},{"id":"1532860297","name":"Banco24Horas","tags":"amenity:atm,brand:Banco24Horas,brand:wikidata:Q4854069,brand:wikipedia:pt:Banco24Horas,operator:Banco 24Horas","lat":-15.7798716,"lng":-47.8745687},{"id":"1532860307","name":"Supren Verda","tags":"addr:street:CLN 203,amenity:restaurant,diet:vegan:only","lat":-15.7772526,"lng":-47.8779342},{"id":"1532860320","name":"Área 51","tags":"addr:street:CLN 204,amenity:bar","lat":-15.777151,"lng":-47.8790491},{"id":"1533007297","tags":"addr:street:CLN 204,amenity:pharmacy,healthcare:pharmacy","lat":-15.7768388,"lng":-47.8789465},{"id":"1533007305","name":"Molho de Tomate","tags":"addr:street:CLN 204,amenity:restaurant,cuisine:pizza","lat":-15.7767845,"lng":-47.8779668},{"id":"1533007308","name":"Drogaria Colorado","tags":"addr:street:CLN 204,amenity:pharmacy","lat":-15.7770509,"lng":-47.8777968},{"id":"1533007334","name":"Bedrock","tags":"addr:street:CLN 204,amenity:bar","lat":-15.7768454,"lng":-47.8790691},{"id":"1938484734","tags":"amenity:parking","lat":-15.8067404,"lng":-47.8668594},{"id":"2142982438","name":"Banco do Brasil","tags":"addr:street:CLN 201,amenity:bank,atm:yes,brand:Banco do Brasil,brand:wikidata:Q610817,brand:wikipedia:en:Banco do Brasil,wheelchair:yes","lat":-15.7838723,"lng":-47.8776097},{"id":"2167189736","tags":"amenity:parking","lat":-15.7971081,"lng":-47.8958284},{"id":"2187535549","tags":"amenity:restaurant","lat":-15.8074861,"lng":-47.866112},{"id":"2187559880","tags":"amenity:parking","lat":-15.8126964,"lng":-47.8688747},{"id":"2187559883","tags":"amenity:parking,parking:underground","lat":-15.8087246,"lng":-47.868872},{"id":"2187559884","tags":"amenity:parking","lat":-15.8103376,"lng":-47.8684106},{"id":"2322157556","name":"Restaurante da Conab","tags":"amenity:restaurant,payment:credit_cards:no,payment:debit_cards:yes","lat":-15.7956283,"lng":-47.8973491},{"id":"2356214935","name":"Places","tags":"amenity:restaurant","lat":-15.7943438,"lng":-47.892459},{"id":"2446520966","name":"Restaurante China","tags":"amenity:restaurant,cuisine:chinese","lat":-15.80624,"lng":-47.8937699},{"id":"2446520974","name":"Marvin American Burger","tags":"amenity:restaurant,cuisine:burger","lat":-15.8071717,"lng":-47.8926219},{"id":"2467256567","name":"Peixe na Rede","tags":"amenity:restaurant,cuisine:fish","lat":-15.8138674,"lng":-47.8906648},{"id":"2467257625","name":"Bar do Juca","tags":"amenity:bar,internet_access:wlan","lat":-15.8136349,"lng":-47.8909011},{"id":"2507505846","tags":"access:private,amenity:parking,layer:-1,parking:underground","lat":-15.7887526,"lng":-47.882914},{"id":"2525832430","name":"Hospital SARAH","tags":"addr:place:Asa Sul,addr:street:SMHS Q 501 Conjunto,amenity:hospital,healthcare:hospital,phone:+55 61 3319 1111","lat":-15.799489,"lng":-47.890839},{"id":"2596498857","name":"Boteco","tags":"amenity:bar","lat":-15.8193337,"lng":-47.89482},{"id":"2634476566","name":"Banco24Horas","tags":"addr:city:Brasília,addr:housename:SCS Qd - 7, 3º piso, Praça dos Bancos - Asa Sul,addr:postcode:70307-902,addr:street:W3 Sul,amenity:atm,brand:Banco24Horas,brand:wikidata:Q4854069,brand:wikipedia:pt:Banco24Horas,cash_in:yes,website:https://www.sicoob.com.br/","lat":-15.7966049,"lng":-47.8919932},{"id":"2669249579","name":"Armazem do Ferreira","tags":"addr:street:CLN 202,amenity:bar","lat":-15.7835338,"lng":-47.8787274},{"id":"2669249582","name":"Don Durica","tags":"addr:street:CLN 201,amenity:restaurant","lat":-15.7838395,"lng":-47.878712},{"id":"2671472776","name":"Drogasil","tags":"amenity:pharmacy,brand:Drogasil,brand:wikidata:Q5308185,brand:wikipedia:pt:Drogasil,healthcare:pharmacy,opening_hours:Mo-Sa 07:00-23:00; Su 08:00-22:00,wheelchair:yes","lat":-15.78338,"lng":-47.882908},{"id":"2673846707","name":"Academia Body Tech","tags":"leisure:sports_centre","lat":-15.8191853,"lng":-47.8681766},{"id":"2673846710","name":"Academia Companhia Athletica","tags":"addr:place:Asa Sul,addr:street:SCES Trecho 2 Lotes 32 33,leisure:fitness_centre,phone:+55 61 3322 4000","lat":-15.818728,"lng":-47.874617},{"id":"2673846759","name":"Dom Francisco","tags":"addr:place:Setor de Clubes Sul,addr:street:ASBAC,amenity:restaurant,cuisine:international,phone:+55 61 3226 2005;+55 61 3224 8429","lat":-15.818996,"lng":-47.869615},{"id":"2673846766","name":"Espaço Del Mare","tags":"amenity:bar","lat":-15.8189847,"lng":-47.8684797},{"id":"2673846776","name":"Mokai","tags":"amenity:nightclub","lat":-15.818897,"lng":-47.874985},{"id":"2675388228","name":"Espaço Cultural Lúcio Costa - Maquete de Brasília","tags":"tourism:museum,wikidata:Q10274958","lat":-15.8010944,"lng":-47.8616779},{"id":"2675388253","name":"Museu Histórico da OAB","tags":"tourism:museum","lat":-15.8050456,"lng":-47.8808838},{"id":"2678830147","name":"Adega Piantas","tags":"addr:street:CLS 403,amenity:bar,shop:beverages","lat":-15.8095824,"lng":-47.8849959},{"id":"2678830149","name":"Adega do Frade","tags":"addr:street:Cls 405,amenity:bar","lat":-15.8141653,"lng":-47.8902102},{"id":"2678830152","name":"Garota Carioca","tags":"amenity:bar","lat":-15.7869176,"lng":-47.8854739},{"id":"2678830154","name":"Bali Hali","tags":"addr:street:Cls 208,amenity:bar","lat":-15.8194229,"lng":-47.8997044},{"id":"2678830156","name":"Nazo","tags":"addr:street:CLS 403,amenity:restaurant","lat":-15.8085073,"lng":-47.8862835},{"id":"2678830158","name":"Bar Brahma","tags":"addr:street:Cls 201,amenity:bar","lat":-15.8049066,"lng":-47.8846089},{"id":"2678830159","name":"Bar do Mané Rei das Codornas","tags":"addr:street:CLN 403,amenity:bar","lat":-15.7797989,"lng":-47.87502},{"id":"2678830161","name":"Bar e Café do Brasil","tags":"addr:street:CLN 202,amenity:bar","lat":-15.7834752,"lng":-47.878527},{"id":"2678830162","name":"Beer Selection","tags":"amenity:bar","lat":-15.793647,"lng":-47.893177},{"id":"2678830164","name":"Pizza César","tags":"addr:city:Brasília,addr:street:CLS 404 bloco A,addr:suburb:Asa Sul,amenity:restaurant,cuisine:pizza","lat":-15.813399,"lng":-47.890718},{"id":"2678830165","name":"Beer Club","tags":"addr:street:CLS 403,amenity:bar","lat":-15.8095377,"lng":-47.8850579},{"id":"2678830170","name":"Mix Gourmet","tags":"addr:street:Cls 105,amenity:restaurant","lat":-15.8118602,"lng":-47.8970958},{"id":"2678830174","name":"Choperia Lapa","tags":"addr:street:Cls 305,amenity:bar","lat":-15.807185,"lng":-47.897778},{"id":"2678830183","name":"La Bussola","tags":"addr:street:Cls 103,amenity:bar","lat":-15.80698,"lng":-47.892973},{"id":"2678830184","name":"La Ursa","tags":"amenity:bar,shop:vacant","lat":-15.7883227,"lng":-47.8788346},{"id":"2678830185","name":"Libanus","tags":"addr:street:Cls 206,amenity:bar","lat":-15.815275,"lng":-47.89408},{"id":"2678830188","name":"Novo Museu","tags":"amenity:bar","lat":-15.7986091,"lng":-47.8868724},{"id":"2678830195","name":"Quem Temperou","tags":"addr:street:Cls 302,amenity:restaurant","lat":-15.8028634,"lng":-47.892761},{"id":"2678830198","name":"Só Drinks Bar dos Botafoguenses","tags":"addr:street:CLN 403,amenity:bar","lat":-15.7798334,"lng":-47.8753981},{"id":"2678830202","name":"Velvet Pub","tags":"addr:city:Brasília,addr:postcode:70722-520,addr:street:CLN 102 Bloco B,addr:suburb:Asa Norte,amenity:nightclub,gay:welcome","lat":-15.7832206,"lng":-47.8827318},{"id":"2678864228","name":"Banco do Brasil","tags":"addr:place:Asa Norte,addr:street:Shopping Conjunto Nacional,amenity:bank,atm:yes,brand:Banco do Brasil,brand:wikidata:Q610817,brand:wikipedia:en:Banco do Brasil,level:2,operator:Banco do Brasil,wheelchair:yes","lat":-15.7907609,"lng":-47.8830925},{"id":"2678864233","name":"Caixa Econômica Federal","tags":"addr:place:Asa Norte,addr:street:Shopping Conjunto Nacional,amenity:bank,atm:yes,brand:Caixa Econômica Federal,brand:wikidata:Q835283,brand:wikipedia:pt:Caixa Econômica Federal,wheelchair:yes","lat":-15.791745,"lng":-47.883434},{"id":"2678864239","name":"L Affaire","tags":"amenity:restaurant,cuisine:international","lat":-15.788829,"lng":-47.890998},{"id":"2678864240","name":"Polícia Civil Posto Brasília Centro Touring","tags":"addr:place:SDS,amenity:police","lat":-15.796228,"lng":-47.882687},{"id":"2678864242","name":"The Continental Restaurant","tags":"amenity:restaurant","lat":-15.793781,"lng":-47.891087},{"id":"2691204424","name":"Centro Educacional Maria Auxiliadora","tags":"addr:place:Asa Sul,amenity:school,wheelchair:yes","lat":-15.7988276,"lng":-47.8953482},{"id":"2691204451","name":"Centro de Ensino Fundamental 1","tags":"addr:place:Asa Sul,addr:street:SQS 105,amenity:school","lat":-15.8129451,"lng":-47.8976236},{"id":"2691204455","name":"Centro de Ensino Fundamental 3","tags":"addr:place:Asa Sul,addr:street:SQS 103,amenity:school","lat":-15.8055468,"lng":-47.8916085},{"id":"2691204474","name":"Colégio Dom Bosco","tags":"amenity:school,wikidata:Q17126263,wikipedia:pt:Colégio Dom Bosco (Brasília)","lat":-15.7994316,"lng":-47.8942905},{"id":"2691204572","name":"Sociedade Teosófica de Brasília","tags":"addr:place:Asa Sul,addr:street:SGAS - Quadra 603,amenity:school","lat":-15.8121548,"lng":-47.8849373},{"id":"2691239238","name":"Algos Pizza e Bar","tags":"addr:place:Asa Norte,addr:street:CLN 403,amenity:restaurant,cuisine:pizza","lat":-15.779773,"lng":-47.875197},{"id":"2691239244","name":"Alo Mamma","tags":"addr:place:Asa Norte,addr:street:CLN 201,amenity:restaurant,cuisine:pizza","lat":-15.7838263,"lng":-47.878376},{"id":"2691239300","name":"Camarão e Cia","tags":"addr:place:Asa Sul,addr:street:Cls 206,amenity:restaurant,cuisine:seafood","lat":-15.814458,"lng":-47.894906},{"id":"2691239301","name":"Cantina da Massa","tags":"addr:place:Asa Sul,addr:street:Cls 302,amenity:restaurant,cuisine:italian","lat":-15.803373,"lng":-47.892146},{"id":"2691239323","name":"Chamas Grill","tags":"amenity:restaurant,cuisine:barbecue","lat":-15.794918,"lng":-47.889443},{"id":"2691239327","name":"Chez Fondue","tags":"addr:place:Asa Sul,addr:street:Cls 407,amenity:restaurant,cuisine:french","lat":-15.818924,"lng":-47.895569},{"id":"2691239358","name":"Crepe Royale","tags":"addr:place:Asa Sul,addr:street:Cls 207,amenity:restaurant,cuisine:french","lat":-15.819505,"lng":-47.899324},{"id":"2691239367","name":"Doce Delicia","tags":"addr:place:Asa Sul,addr:street:CLS 404 Bloco A Loja 27,amenity:restaurant,cuisine:international,phone:+55 61 3321 1412","lat":-15.8138315,"lng":-47.8905933},{"id":"2691239375","name":"Dom Bosco","tags":"addr:place:Asa Sul,addr:street:Cls 103,amenity:restaurant,cuisine:pizza","lat":-15.806837,"lng":-47.893132},{"id":"2691239384","name":"Dom Francisco","tags":"addr:place:Asa Sul,addr:street:Cls 402,amenity:restaurant,cuisine:international,phone:+55 61 3224 1634;+55 61 3321 0769","lat":-15.8086624,"lng":-47.885693},{"id":"2691239422","name":"Dudu Camargo","tags":"addr:place:Asa Sul,addr:street:Cls 303,amenity:restaurant,cuisine:international","lat":-15.8035714,"lng":-47.8922993},{"id":"2691239426","name":"El Paso Texas","tags":"addr:place:Asa Sul,addr:street:CLS 404,amenity:restaurant,contact:instagram:elpasobsb,cuisine:mexican","lat":-15.814123,"lng":-47.889946},{"id":"2691239431","name":"Espeto de Ouro","tags":"amenity:restaurant,cuisine:barbecue","lat":-15.789495,"lng":-47.886877},{"id":"2691239453","name":"Fratello Uno","tags":"addr:street:CLS 103,amenity:restaurant,cuisine:pizza","lat":-15.8071159,"lng":-47.8927959},{"id":"2691239454","name":"Fritz","tags":"addr:place:Asa Sul,addr:street:Cls 404,amenity:restaurant,cuisine:german","lat":-15.814492,"lng":-47.889533},{"id":"2691239465","name":"Grande Muralha","tags":"addr:place:Asa Sul,addr:street:Cls 302,amenity:restaurant,cuisine:chinese","lat":-15.8010917,"lng":-47.8908838},{"id":"2691239473","name":"La Gioconda","tags":"addr:place:Asa Sul,addr:street:Cls 102,amenity:restaurant,cuisine:pizza","lat":-15.8017601,"lng":-47.8899423},{"id":"2691239476","name":"Lakes Restaurante","tags":"addr:place:Asa Sul,addr:street:Cls 402,amenity:restaurant,cuisine:international","lat":-15.8090163,"lng":-47.8852816},{"id":"2691239477","name":"Long","tags":"addr:place:Asa Sul,addr:street:Cls 404,amenity:restaurant,cuisine:chinese","lat":-15.814404,"lng":-47.88964},{"id":"2691239478","name":"Marzuk Empório Árabe","tags":"addr:street:CLS 105/106,amenity:restaurant,cuisine:arab","lat":-15.811551,"lng":-47.8977427},{"id":"2691239481","name":"Mangiare","tags":"addr:place:Asa Sul,addr:street:Cls 208,amenity:restaurant,cuisine:pizza","lat":-15.8189868,"lng":-47.9000531},{"id":"2691239485","name":"Spot Burguers","tags":"addr:street:CLS 403,amenity:restaurant,cuisine:pizza","lat":-15.8085672,"lng":-47.8862155},{"id":"2691239486","name":"Nakombi","tags":"addr:place:Asa Sul,addr:street:CLS 404,amenity:restaurant,cuisine:international","lat":-15.813931,"lng":-47.890158},{"id":"2691239503","name":"Pacifico","tags":"addr:place:Asa Norte,addr:street:CLN 204,amenity:restaurant,cuisine:chinese","lat":-15.7766894,"lng":-47.8788941},{"id":"2691239535","name":"Santa Pizza","tags":"addr:place:Asa Sul,addr:street:CLS 207,amenity:restaurant,cuisine:pizza","lat":-15.8188268,"lng":-47.8998599},{"id":"2691239537","name":"Self-service Calamares","tags":"addr:place:Asa Norte,addr:street:CLN 403,amenity:restaurant,cuisine:seafood","lat":-15.7798366,"lng":-47.8757577},{"id":"2691239542","name":"Armazém do livro","tags":"addr:place:Asa Norte,addr:street:CLN 402,cuisine:steak_grill,shop:books","lat":-15.7802223,"lng":-47.8759199},{"id":"2691239567","name":"Sumo","tags":"addr:place:Asa Sul,addr:street:Cls 204,amenity:restaurant,cuisine:asian;japones","lat":-15.8100767,"lng":-47.8895818},{"id":"2691239597","name":"Temakeria Maki","tags":"addr:place:Asa Sul,addr:street:Cls 405,amenity:restaurant,cuisine:asian","lat":-15.814551,"lng":-47.889783},{"id":"2691239645","name":"Galeteria Serrana","tags":"addr:place:Asa Sul,addr:street:CLS 404,amenity:restaurant,cuisine:pizza","lat":-15.814341,"lng":-47.889712},{"id":"2691239650","name":"O Contemporâneo","tags":"addr:place:Asa Sul,addr:street:Cls 201,amenity:restaurant","lat":-15.804376,"lng":-47.885436},{"id":"2707442854","name":"Outro Calaf","tags":"amenity:bar","lat":-15.8008979,"lng":-47.8820866},{"id":"2712056300","name":"Galleria","tags":"amenity:nightclub","lat":-15.7963233,"lng":-47.884917},{"id":"2811192817","name":"Espaço Mesa Brasileira","tags":"amenity:restaurant","lat":-15.8024694,"lng":-47.8656001},{"id":"2885371754","name":"Quiosque da Vilani","tags":"addr:city:Brasilia,addr:street:Estacionamento da Funasa,amenity:restaurant,capacity:20,cuisine:almoço e salgados caseiros,opening_hours:Mo-Su 08:00-18:00,smoking:no,wheelchair:limited","lat":-15.8038725,"lng":-47.8792919},{"id":"3033822282","name":"Naturetto Família","tags":"addr:street:CLS 403,amenity:restaurant,cuisine:italian,diet:vegetarian:yes,wheelchair:limited","lat":-15.8092485,"lng":-47.8854176},{"id":"3033844852","name":"Banco do Brasil","tags":"amenity:atm,brand:Banco do Brasil,brand:wikidata:Q610817,brand:wikipedia:en:Banco do Brasil,operator:Banco do Brasil,operator:wikidata:Q610817,operator:wikipedia:en:Banco do Brasil","lat":-15.7905249,"lng":-47.8865549},{"id":"3069554826","name":"Drogasil","tags":"amenity:pharmacy,brand:Drogasil,brand:wikidata:Q5308185,brand:wikipedia:pt:Drogasil,healthcare:pharmacy,opening_hours:Mo-Su 08:00-22:00,wheelchair:yes","lat":-15.7771919,"lng":-47.8837965},{"id":"3069563013","name":"Estrela do Sul","tags":"amenity:restaurant","lat":-15.7771246,"lng":-47.8828582},{"id":"3074794863","name":"Drogarias Pacheco","tags":"amenity:pharmacy,healthcare:pharmacy","lat":-15.8093425,"lng":-47.8848773},{"id":"3074794865","name":"L'Entrecôte de Paris","tags":"amenity:restaurant","lat":-15.8092394,"lng":-47.8850174},{"id":"3086350453","name":"Brasil Vexado","tags":"addr:street:CLS 302/303,amenity:restaurant,cuisine:regional,phone:+556133231222","lat":-15.8023285,"lng":-47.893388},{"id":"3089963930","name":"Cafezinho Express","tags":"amenity:cafe","lat":-15.786985,"lng":-47.886423},{"id":"3093838425","name":"Candy House","tags":"addr:street:CLN 204,amenity:cafe,wheelchair:yes","lat":-15.7770943,"lng":-47.878313},{"id":"3164638783","name":"Farmácia do Trabalhador","tags":"amenity:pharmacy,healthcare:pharmacy","lat":-15.7982984,"lng":-47.8870928},{"id":"3164638784","name":"Drogaria Rosário","tags":"amenity:pharmacy,healthcare:pharmacy","lat":-15.7983954,"lng":-47.8871106},{"id":"3164638785","name":"Bradesco","tags":"addr:city:Brasília,addr:housenumber:Bloco B,addr:street:SCS Quadra 2,amenity:bank,atm:yes,brand:Bradesco,brand:wikidata:Q806181,brand:wikipedia:en:Banco Bradesco","lat":-15.7993153,"lng":-47.8874035},{"id":"3170854043","name":"Banco do Brasil","tags":"amenity:bank,atm:yes,brand:Banco do Brasil,brand:wikidata:Q610817,brand:wikipedia:en:Banco do Brasil,opening_hours:Mo-Fr 11:00-16:00,wheelchair:yes","lat":-15.7767484,"lng":-47.8877356},{"id":"3170854044","name":"Santander","tags":"amenity:bank,atm:yes,brand:Santander,brand:wikidata:Q5835668,brand:wikipedia:en:Santander Bank,wheelchair:yes","lat":-15.7773395,"lng":-47.8876766},{"id":"3170854045","name":"Bradesco","tags":"amenity:bank,atm:yes,brand:Bradesco,brand:wikidata:Q806181,brand:wikipedia:en:Banco Bradesco,wheelchair:yes","lat":-15.7772621,"lng":-47.887682},{"id":"3170854046","name":"BRB","tags":"amenity:bank,atm:yes,opening_hours:Mo-Fr 11:00-16:00,wheelchair:yes","lat":-15.777164,"lng":-47.8876954},{"id":"3170854047","name":"Itaú","tags":"amenity:bank,atm:yes,wheelchair:yes","lat":-15.777022,"lng":-47.8877115},{"id":"3170854048","name":"Wizard","tags":"amenity:school,training:language","lat":-15.7772176,"lng":-47.8790491},{"id":"3190988125","name":"Dona Lenha","tags":"amenity:restaurant,cuisine:mediterranean","lat":-15.8050671,"lng":-47.8847506},{"id":"3202125243","name":"Terra Viva","tags":"amenity:restaurant,diet:vegetarian:only","lat":-15.7834693,"lng":-47.8774214},{"id":"3203030476","name":"Koni","tags":"amenity:restaurant,cuisine:sushi","lat":-15.7838359,"lng":-47.8785827},{"id":"3222511050","name":"Santander","tags":"amenity:bank,atm:yes,brand:Santander,brand:wikidata:Q5835668,brand:wikipedia:en:Santander Bank,wheelchair:yes","lat":-15.7813571,"lng":-47.8873734},{"id":"3222511051","name":"Drogaria Pacheco","tags":"addr:place:CLN 303,amenity:pharmacy,healthcare:pharmacy,wheelchair:no","lat":-15.7805495,"lng":-47.8849765},{"id":"3222516133","name":"Cerrado Capital","tags":"addr:place:CLN 303,amenity:restaurant","lat":-15.7803384,"lng":-47.8845945},{"id":"3222516873","name":"Greens","tags":"amenity:restaurant,diet:vegan:yes,diet:vegetarian:yes,opening_hours:Mo-Sa 10:00-22:00,website:http://www.greens.com.br/","lat":-15.7808421,"lng":-47.8850214},{"id":"3222516874","name":"Caramella","tags":"addr:place:CLN 303,amenity:cafe,internet_access:wlan,internet_access:fee:no,opening_hours:Mo-Su 07:30-21:00,smoking:no,website:http://www.caramellaconfeitaria.com.br/,wheelchair:yes","lat":-15.7806286,"lng":-47.8860998},{"id":"3222516875","name":"Martinica Café","tags":"addr:place:CLN 303,amenity:cafe,internet_access:wlan,opening_hours:Mo-Fr 11:00-01:00; Sa 17:00-01:00; Su 18:00-01:00,phone:+55 61 33262357","lat":-15.7805371,"lng":-47.8847823},{"id":"3222516879","name":"Drogaria Renata","tags":"amenity:pharmacy,healthcare:pharmacy","lat":-15.7798379,"lng":-47.8755113},{"id":"3222518081","name":"Forninho Mineiro","tags":"amenity:restaurant","lat":-15.7801718,"lng":-47.874984},{"id":"3230418026","name":"Objeto Encontrado","tags":"addr:city:Brasília,addr:housenumber:Loja 56,addr:postcode:70722-520,addr:street:CLN 102 Bloco B,addr:suburb:Asa Norte,amenity:cafe,internet_access:wlan,opening_hours:Mo-Sa 12:00-23:00,phone:+55 61 3081-8383,smoking:no,website:https://www.objetoencontrado.com.br/","lat":-15.7832184,"lng":-47.8829046},{"id":"3231952883","name":"Daniel Briand","tags":"amenity:cafe,cuisine:french,opening_hours:Tu-Fr 09:00-22:00; Sa 09:30-22:00; Su 08:00-22:00,phone:+55 61 33261135,website:https://www.cafedanielbriand.com/","lat":-15.7770016,"lng":-47.8827129},{"id":"3252625219","name":"Veredas Grill","tags":"amenity:restaurant,opening_hours:12:00-15:00,smoking:no","lat":-15.809807,"lng":-47.8898882},{"id":"3252625220","name":"Horti Mais","tags":"addr:city:Brasília,addr:housenumber:Loja 35,addr:postcode:70233-540,addr:street:CLS 203 Bloco D,addr:suburb:Asa Sul,opening_hours:Mo-Sa 08:00-22:00, Su 08:00-18:00,shop:supermarket","lat":-15.81032,"lng":-47.8889402},{"id":"3252625221","name":"Banco do Brasil","tags":"amenity:bank,atm:yes,brand:Banco do Brasil,brand:wikidata:Q610817,brand:wikipedia:en:Banco do Brasil","lat":-15.8101972,"lng":-47.8890617},{"id":"3254618954","name":"Banco do Brasil","tags":"amenity:bank,atm:yes,brand:Banco do Brasil,brand:wikidata:Q610817,brand:wikipedia:en:Banco do Brasil,wheelchair:yes","lat":-15.8032643,"lng":-47.885104},{"id":"3255931312","tags":"amenity:police","lat":-15.8028147,"lng":-47.8980936},{"id":"3267593505","name":"Museu Nacional dos Correios","tags":"tourism:museum","lat":-15.7966475,"lng":-47.8884562},{"id":"3295036476","tags":"amenity:pharmacy,healthcare:pharmacy","lat":-15.801133,"lng":-47.8908194},{"id":"3295036477","tags":"amenity:pharmacy,healthcare:pharmacy","lat":-15.8020285,"lng":-47.8894381},{"id":"3295036478","name":"China Dìfang","tags":"addr:street:CLS 402,amenity:restaurant,cuisine:chinese","lat":-15.8090973,"lng":-47.8851814},{"id":"3295036479","name":"Palace Long Fu","tags":"addr:street:CLS 402,amenity:restaurant,cuisine:chinese","lat":-15.8089156,"lng":-47.8854132},{"id":"3337664866","name":"Bioon Ecomercado","tags":"addr:place:CLN 303,organic:yes,shop:convenience,website:http://www.bioon.com.br/","lat":-15.7805623,"lng":-47.885153},{"id":"3358345330","name":"Café Cristina Colina da Pedra","tags":"addr:city:Brasilia,addr:street:CLN 202 Bloco A,addr:suburb:Asa Norte,amenity:cafe,internet_access:wlan,opening_hours:Su 12:00-19:00; Mo-Sa 08:00-19:00","lat":-15.7833159,"lng":-47.8785943},{"id":"3362304638","name":"A melhor do mundo pizzaria","tags":"amenity:restaurant,cuisine:pizza,wheelchair:yes","lat":-15.7805472,"lng":-47.8860928},{"id":"3362304639","name":"Drogasil","tags":"amenity:pharmacy,brand:Drogasil,brand:wikidata:Q5308185,brand:wikipedia:pt:Drogasil,healthcare:pharmacy,wheelchair:yes","lat":-15.7806479,"lng":-47.8862752},{"id":"3362305606","name":"Bioon Café","tags":"amenity:cafe,diet:gluten_free:yes,diet:vegan:yes","lat":-15.7804074,"lng":-47.8851897},{"id":"3362305794","name":"Volta à Natureza","tags":"amenity:pharmacy,healthcare:pharmacy","lat":-15.7808672,"lng":-47.8851481},{"id":"3362306195","name":"Picanhas do Sul","tags":"amenity:restaurant","lat":-15.7809254,"lng":-47.8857156},{"id":"3362308337","name":"Café com Café","tags":"amenity:cafe,cuisine:arab","lat":-15.7809705,"lng":-47.8862323},{"id":"3382121497","name":"Banco do Brasil","tags":"amenity:atm,brand:Banco do Brasil,brand:wikidata:Q610817,brand:wikipedia:en:Banco do Brasil,operator:Banco do Brasil,operator:wikidata:Q610817,operator:wikipedia:en:Banco do Brasil","lat":-15.7958067,"lng":-47.8916994},{"id":"3448681491","name":"Caixa Econômica Federal","tags":"amenity:bank,atm:yes,brand:Caixa Econômica Federal,brand:wikidata:Q835283","lat":-15.8072612,"lng":-47.8995678},{"id":"3448684864","name":"Premiere Fitness","tags":"leisure:fitness_centre","lat":-15.8019559,"lng":-47.8947067},{"id":"3448684865","name":"Santander","tags":"amenity:bank,atm:yes,brand:Santander,brand:wikidata:Q5835668,brand:wikipedia:en:Santander Bank","lat":-15.8026102,"lng":-47.8952522},{"id":"3448684867","name":"Bradesco","tags":"amenity:bank,atm:yes,brand:Bradesco,brand:wikidata:Q806181,brand:wikipedia:en:Banco Bradesco","lat":-15.8047541,"lng":-47.8971716},{"id":"3458600232","name":"Citibank","tags":"amenity:bank,atm:yes,brand:Citibank,brand:wikidata:Q857063,brand:wikipedia:en:Citibank,short_name:Citi","lat":-15.7863043,"lng":-47.8873611},{"id":"3458600514","name":"Bradesco","tags":"amenity:bank,atm:yes,brand:Bradesco,brand:wikidata:Q806181,brand:wikipedia:en:Banco Bradesco,wheelchair:yes","lat":-15.7819647,"lng":-47.8873288},{"id":"3458600637","name":"Bradesco","tags":"amenity:bank,atm:yes,brand:Bradesco,brand:wikidata:Q806181,brand:wikipedia:en:Banco Bradesco","lat":-15.7864699,"lng":-47.8869585},{"id":"3489909451","tags":"amenity:library","lat":-15.7770455,"lng":-47.8736019},{"id":"3489909453","tags":"tourism:museum","lat":-15.7770474,"lng":-47.873648},{"id":"3530616803","name":"Hajimê","tags":"amenity:restaurant,cuisine:japanese,opening_hours:24/7,website:http://www.hajimejapanesefood.com","lat":-15.783841,"lng":-47.8778107},{"id":"3634570435","name":"Veloce","tags":"amenity:restaurant,cuisine:italian","lat":-15.8041871,"lng":-47.885688},{"id":"3634570438","name":"Santander","tags":"amenity:bank,atm:yes,brand:Santander,brand:wikidata:Q5835668,brand:wikipedia:en:Santander Bank","lat":-15.8042542,"lng":-47.8855887},{"id":"3634570439","name":"Buteco da Boa","tags":"amenity:restaurant","lat":-15.8044555,"lng":-47.8853058},{"id":"3634570440","name":"Rappot","tags":"amenity:cafe","lat":-15.8044722,"lng":-47.8852709},{"id":"3634570441","name":"Cozinha do Sabor Gourmet","tags":"amenity:restaurant","lat":-15.8044955,"lng":-47.8852293},{"id":"3634570442","name":"Café do Ponto","tags":"amenity:cafe","lat":-15.80452,"lng":-47.8851878},{"id":"3634570443","name":"Severina","tags":"amenity:restaurant","lat":-15.8045432,"lng":-47.8851489},{"id":"3634570444","name":"Sabor Glacé","tags":"amenity:restaurant","lat":-15.8045716,"lng":-47.8851019},{"id":"3634570445","name":"Sushi Loko","tags":"amenity:restaurant,cuisine:sushi","lat":-15.8046232,"lng":-47.8850174},{"id":"3634570447","name":"Jesua Salão de Beleza","tags":"shop:beauty","lat":-15.8047342,"lng":-47.8848578},{"id":"3634570448","name":"Ticiana Wener","tags":"amenity:restaurant,opening_hours:Mo-Sa 11:30-15:30, 18:30-23:30,website:http://ticianawerner.com.br","lat":-15.8047626,"lng":-47.884823},{"id":"3634570449","name":"Cotidiano","tags":"shop:books","lat":-15.8047884,"lng":-47.8847841},{"id":"3634570451","name":"Cristina Cafés","tags":"amenity:cafe,website:http://cafecristina.com.br","lat":-15.8048503,"lng":-47.8846875},{"id":"3634579573","name":"Balada Mix","tags":"amenity:restaurant,cuisine:regional","lat":-15.8044122,"lng":-47.8857638},{"id":"3634579575","name":"Naturama Gourmet","tags":"addr:postcode:70232-010,amenity:restaurant,diet:vegetarian:yes,phone:+55 61 32233645","lat":-15.8045368,"lng":-47.8855928},{"id":"3634579580","name":"Mercadito","tags":"amenity:restaurant,diet:vegetarian:yes","lat":-15.8047789,"lng":-47.8852247},{"id":"3634579581","name":"Le Grand","tags":"amenity:restaurant,cuisine:international","lat":-15.8048199,"lng":-47.8851651},{"id":"3634579582","name":"Green's Restaurante Natural","tags":"addr:city:Brasília,addr:housenumber:Bloco C, Loja 4,addr:postcode:70232-535,addr:street:CLS 202,addr:suburb:Asa Sul,amenity:restaurant,diet:vegetarian:yes,website:http://www.greens.com.br","lat":-15.8049068,"lng":-47.8850377},{"id":"3634579583","name":"Fogo de Lenha","tags":"amenity:restaurant","lat":-15.8049471,"lng":-47.8849584},{"id":"3634579584","name":"Drogaria Rosário","tags":"amenity:pharmacy,healthcare:pharmacy","lat":-15.8049865,"lng":-47.884888},{"id":"3634579586","name":"Bela Maria","tags":"shop:beauty","lat":-15.8050374,"lng":-47.8847982},{"id":"3634685310","name":"Caixa Econômica Federal","tags":"amenity:atm,brand:Caixa Econômica Federal,brand:wikidata:Q835283,drive_through:no,operator:Caixa Econômica Federal,operator:wikidata:Q835283","lat":-15.8037437,"lng":-47.884268},{"id":"3653381668","name":"Vegas","tags":"addr:street:CLS 403,amenity:bar","lat":-15.8095069,"lng":-47.8850985},{"id":"3653381670","name":"Taikan","tags":"amenity:restaurant","lat":-15.8084115,"lng":-47.8860116},{"id":"3653387386","name":"Contê","tags":"addr:street:CLS 403,amenity:restaurant,cuisine:japanese","lat":-15.809438,"lng":-47.8851824},{"id":"3653388477","name":"l'a pacific food","tags":"amenity:restaurant,cuisine:japanese,opening_hours:24/7","lat":-15.8087453,"lng":-47.8856119},{"id":"3654252525","name":"Piauí","tags":"addr:street:CLS 402,amenity:restaurant","lat":-15.8086017,"lng":-47.8857873},{"id":"3665207479","name":"Drogasil","tags":"amenity:pharmacy,opening_hours:Mo-Su 08:00-22:00","lat":-15.7768131,"lng":-47.8783276},{"id":"3665209626","name":"Vasco Neto","tags":"leisure:sports_centre","lat":-15.7767084,"lng":-47.8781635},{"id":"3665386495","name":"Les Maries","tags":"amenity:restaurant,opening_hours:Mo-Th 11:00-23:00; Fr-Sa 08:30-23:00","lat":-15.7766523,"lng":-47.8790789},{"id":"3768730368","name":"Tempero Mineiro","tags":"amenity:restaurant","lat":-15.7835761,"lng":-47.8774185},{"id":"3768730370","name":"Barão","tags":"amenity:restaurant","lat":-15.7839122,"lng":-47.8777864},{"id":"3768730371","name":"Vanité","tags":"shop:beauty","lat":-15.7840121,"lng":-47.8782034},{"id":"3768730373","name":"Moreno's Restaurante","tags":"amenity:restaurant","lat":-15.7831796,"lng":-47.8832286},{"id":"3768730374","name":"Rosa's Café","tags":"amenity:cafe","lat":-15.7831717,"lng":-47.8834145},{"id":"3768730377","name":"Pizzas do Rei","tags":"amenity:restaurant,cuisine:pizza","lat":-15.7831653,"lng":-47.8835046},{"id":"3768730379","name":"Bom de Minas","tags":"amenity:restaurant","lat":-15.7810692,"lng":-47.8856888},{"id":"3768730380","name":"Melhor pizza do pedaço","tags":"amenity:restaurant,cuisine:pizza","lat":-15.7811291,"lng":-47.8861396},{"id":"3801345701","name":"Estação do Guaraná","tags":"amenity:restaurant","lat":-15.8116787,"lng":-47.8976233},{"id":"3824379957","name":"Professor Filemon","tags":"amenity:school","lat":-15.7806989,"lng":-47.8881207},{"id":"3824874783","name":"Bardana","tags":"addr:city:Brasília,addr:housenumber:Bloco A, Loja 22,addr:postcode:70239-510,addr:street:CLS 405,addr:suburb:Asa Sul,amenity:restaurant,opening_hours:Su-Sa 11:30-15:00,phone:+55 (61) 3242-3532","lat":-15.8137619,"lng":-47.890683},{"id":"3832528386","name":"Versão Brasileira","tags":"amenity:bar","lat":-15.8095986,"lng":-47.8901962},{"id":"3874996105","name":"Bradesco","tags":"amenity:bank,atm:yes,brand:Bradesco,brand:wikidata:Q806181,brand:wikipedia:en:Banco Bradesco,wheelchair:yes","lat":-15.7877785,"lng":-47.882538},{"id":"3892040816","name":"Coco Bambu","tags":"amenity:restaurant","lat":-15.8190912,"lng":-47.8683177},{"id":"3928682682","name":"Farmvet","tags":"shop:pet","lat":-15.7799762,"lng":-47.8880072},{"id":"3944566706","name":"Mistura Fina","tags":"amenity:restaurant","lat":-15.798863,"lng":-47.8828714},{"id":"3944566707","name":"Bliss","tags":"amenity:restaurant","lat":-15.7984411,"lng":-47.8829733},{"id":"3946030594","name":"Banco do Brasil","tags":"amenity:bank,atm:yes,brand:Banco do Brasil,brand:wikidata:Q610817,brand:wikipedia:en:Banco do Brasil","lat":-15.7995262,"lng":-47.8827678},{"id":"3946030595","name":"Banco de Brasília","tags":"amenity:bank,atm:yes,brand:BRB,brand:wikidata:Q4854119","lat":-15.7976758,"lng":-47.8830171},{"id":"3948186699","name":"Vintage Gourmet","tags":"amenity:restaurant","lat":-15.7988508,"lng":-47.8829258},{"id":"3948187171","name":"Panelinhas do Brasil","tags":"amenity:restaurant","lat":-15.7988301,"lng":-47.8829945},{"id":"3948187172","name":"Kálice","tags":"amenity:restaurant","lat":-15.7984109,"lng":-47.8830813},{"id":"3948187502","name":"Baú Mineiro","tags":"amenity:restaurant","lat":-15.7985033,"lng":-47.8827441},{"id":"3948200887","name":"Capital Grill","tags":"amenity:restaurant","lat":-15.7985989,"lng":-47.883136},{"id":"3953721550","name":"Boa Saúde","tags":"amenity:restaurant,diet:vegan:yes,diet:vegetarian:only,takeaway:yes,wheelchair:yes","lat":-15.7844891,"lng":-47.8880489},{"id":"3953721551","name":"Careca","tags":"amenity:restaurant,cuisine:chinese,wheelchair:yes","lat":-15.7836964,"lng":-47.8882823},{"id":"3953721552","name":"Correios","tags":"amenity:post_office,brand:Correios,brand:wikidata:Q3375004,brand:wikipedia:en:Correios,operator:Correios,operator:wikidata:Q3375004,operator:wikipedia:en:Correios,wheelchair:yes","lat":-15.7843372,"lng":-47.8883327},{"id":"3958863453","name":"Art Café","tags":"amenity:cafe","lat":-15.7877449,"lng":-47.8826614},{"id":"3958863455","name":"Tomilla Café","tags":"amenity:cafe,wheelchair:yes","lat":-15.7871193,"lng":-47.8828056},{"id":"3958864744","name":"Grã-finos","tags":"amenity:restaurant","lat":-15.7877036,"lng":-47.8827338},{"id":"3966836432","name":"Shopping ID","tags":"shop:mall","lat":-15.7869462,"lng":-47.8902335},{"id":"3971323273","name":"Flor de Lótus","tags":"amenity:restaurant,diet:vegetarian:yes","lat":-15.7831873,"lng":-47.882405},{"id":"3971324159","name":"Especiarias de Minas","tags":"amenity:cafe","lat":-15.7873255,"lng":-47.8828911},{"id":"3971325069","name":"Fran's Café","tags":"amenity:cafe,brand:Fran's Café,brand:wikidata:Q62075645,cuisine:coffee_shop,takeaway:yes","lat":-15.783933,"lng":-47.8848583},{"id":"3973507957","name":"Cópia com Café","tags":"amenity:cafe","lat":-15.7812333,"lng":-47.8881001},{"id":"3976168198","name":"Banco de Brasília","tags":"amenity:bank,atm:yes,brand:BRB,brand:wikidata:Q4854119,brand:wikipedia:pt:Banco de Brasília,opening_hours:Mo-Fr 11:00-16:00,wheelchair:yes","lat":-15.7884793,"lng":-47.8827789},{"id":"3976168199","name":"Banco do Brasil","tags":"amenity:bank,atm:yes,brand:Banco do Brasil,brand:wikidata:Q610817,brand:wikipedia:en:Banco do Brasil,level:0,wheelchair:yes","lat":-15.7871242,"lng":-47.8841844},{"id":"3976168200","name":"Correios","tags":"amenity:post_office,brand:Correios,brand:wikidata:Q3375004,brand:wikipedia:en:Correios,level:-1,operator:Correios,operator:wikidata:Q3375004,operator:wikipedia:en:Correios","lat":-15.7870545,"lng":-47.8890472},{"id":"3986585602","name":"Steak Grill","tags":"amenity:restaurant","lat":-15.8016049,"lng":-47.8823199},{"id":"4067089157","name":"Drogarias Pacheco","tags":"amenity:pharmacy,healthcare:pharmacy","lat":-15.7982716,"lng":-47.8865444},{"id":"4067090573","name":"Cozinha e Café Brasil","tags":"amenity:restaurant","lat":-15.7988954,"lng":-47.8863635},{"id":"4067091929","name":"Santander","tags":"amenity:bank,atm:yes,brand:Santander,brand:wikidata:Q5835668,brand:wikipedia:en:Santander Bank","lat":-15.7986194,"lng":-47.8862933},{"id":"4067091930","name":"Saraiva","tags":"alt_name:Livraria Saraiva,brand:Saraiva,brand:wikidata:Q10319337,brand:wikipedia:pt:Livraria Saraiva,shop:books","lat":-15.7980579,"lng":-47.8862398},{"id":"4067134460","name":"Alecrim","tags":"amenity:restaurant","lat":-15.7971762,"lng":-47.8861225},{"id":"4081269533","name":"Chateau Brasil","tags":"amenity:cafe","lat":-15.790137,"lng":-47.8849886},{"id":"4081269534","name":"Tribally","tags":"amenity:restaurant","lat":-15.7901856,"lng":-47.88469},{"id":"4081269535","name":"Deli Conveniências","tags":"shop:convenience","lat":-15.7900358,"lng":-47.8849872},{"id":"4081323888","name":"Brasil Vexado","tags":"amenity:restaurant,cuisine:regional,level:0","lat":-15.7907387,"lng":-47.8832682},{"id":"4081333090","name":"Leitura","tags":"alt_name:Livraria Leitura,brand:Leitura,brand:wikidata:Q6176628,brand:wikipedia:pt:Leitura (livraria),shop:books","lat":-15.7917926,"lng":-47.8833119},{"id":"4097119593","name":"Sabor Brasil","tags":"amenity:restaurant,cuisine:regional","lat":-15.8013393,"lng":-47.8905166},{"id":"4097119594","name":"Santa Marta","tags":"amenity:pharmacy,healthcare:pharmacy","lat":-15.801264,"lng":-47.8906446},{"id":"4097119595","tags":"amenity:post_office,operator:Correios,operator:wikidata:Q3375004,operator:wikipedia:en:Correios","lat":-15.7890404,"lng":-47.8832009},{"id":"4099692223","name":"Fatti a Mano","tags":"amenity:restaurant,cuisine:italian","lat":-15.7880104,"lng":-47.8892797},{"id":"4110729757","name":"Banco24Horas","tags":"amenity:atm,brand:Banco24Horas,brand:wikidata:Q4854069,brand:wikipedia:pt:Banco24Horas,cash_in:no,level:-1,operator:Banco24Horas","lat":-15.7938924,"lng":-47.8833983},{"id":"4127297490","tags":"leisure:sports_centre","lat":-15.8176722,"lng":-47.8987956},{"id":"4130507415","name":"Vila Esperança","tags":"amenity:bar","lat":-15.7769432,"lng":-47.8831345},{"id":"4133568524","name":"Banco24Horas","tags":"amenity:atm,brand:Banco24Horas,brand:wikidata:Q4854069","lat":-15.8196085,"lng":-47.8945459},{"id":"4156200318","name":"Empório dos Cosméticos","tags":"addr:housenumber:14,shop:chemist","lat":-15.7771698,"lng":-47.883584},{"id":"4156212575","name":"Via Estética","tags":"shop:beauty,website:viaesteticabeleza.com.br","lat":-15.7770551,"lng":-47.8834402},{"id":"4156213107","name":"Confraria Chico Mineiro","tags":"amenity:restaurant,cuisine:regional","lat":-15.7770128,"lng":-47.8837915},{"id":"4156214986","name":"Berimbau Brasil","tags":"amenity:restaurant,cuisine:brazilian","lat":-15.7774947,"lng":-47.8839409},{"id":"4156224378","name":"Nail Boutique","tags":"shop:beauty","lat":-15.777099,"lng":-47.8832823},{"id":"4156224379","name":"Barbearia Verde Oliva","tags":"shop:beauty","lat":-15.7769944,"lng":-47.8832909},{"id":"4156225390","name":"Transforme","tags":"shop:beauty","lat":-15.7769804,"lng":-47.8835763},{"id":"4156321058","name":"Chico Mineiro Confeitaria e Café","tags":"amenity:cafe","lat":-15.7770087,"lng":-47.8840073},{"id":"4173640140","name":"Mercado 153","tags":"amenity:restaurant","lat":-15.7871769,"lng":-47.8895397},{"id":"4185561281","name":"Caixa Seguradora","tags":"amenity:bank,website:https://www.caixaseguradora.com.br/","lat":-15.7896831,"lng":-47.8845735},{"id":"4185562607","name":"Magister","tags":"amenity:school,phone:+556133261922","lat":-15.7810153,"lng":-47.8846428},{"id":"4185562610","name":"Paladar Brasília","tags":"amenity:restaurant","lat":-15.7804262,"lng":-47.8845824},{"id":"4185562614","name":"Quinto","tags":"amenity:bar","lat":-15.7831824,"lng":-47.8824808},{"id":"4268062389","name":"Banco do Brasil","tags":"addr:housenumber:02 quadra,addr:street:SAFS,amenity:bank,brand:Banco do Brasil,brand:wikidata:Q610817,brand:wikipedia:en:Banco do Brasil","lat":-15.8036991,"lng":-47.8680817},{"id":"4330783337","name":"Magrelas Café","tags":"amenity:cafe","lat":-15.8192743,"lng":-47.8998423},{"id":"4486870691","name":"Pimenta de Cheiro","tags":"amenity:restaurant,name:pt:Pimenta de Cheiro","lat":-15.7765875,"lng":-47.8777892},{"id":"4512923460","name":"Banco do Brasil","tags":"amenity:bank,atm:yes,brand:Banco do Brasil,brand:wikidata:Q610817,brand:wikipedia:en:Banco do Brasil,wheelchair:yes","lat":-15.8010115,"lng":-47.8680941},{"id":"4512923461","name":"Caixa Econômica Federal","tags":"amenity:bank,atm:yes,brand:Caixa Econômica Federal,brand:wikidata:Q835283,brand:wikipedia:pt:Caixa Econômica Federal,wheelchair:yes","lat":-15.8010605,"lng":-47.8679519},{"id":"4512923462","name":"Correios","tags":"amenity:post_office,brand:Correios,brand:wikidata:Q3375004,brand:wikipedia:en:Correios,operator:Correios","lat":-15.8012308,"lng":-47.8678259},{"id":"4549484089","name":"Zimbrus","tags":"amenity:restaurant,name:pt:Zimbrus","lat":-15.8075346,"lng":-47.897489},{"id":"4550023791","name":"Drogaria Pacheco","tags":"amenity:pharmacy,healthcare:pharmacy","lat":-15.8080742,"lng":-47.8964601},{"id":"4585501235","name":"Fran's Café","tags":"amenity:cafe,brand:Fran's Café,brand:wikidata:Q62075645,cuisine:coffee_shop,takeaway:yes","lat":-15.786565,"lng":-47.8888328},{"id":"4585501236","name":"Martinica","tags":"amenity:cafe","lat":-15.7866114,"lng":-47.8890018},{"id":"4585501238","name":"Saraiva","tags":"alt_name:Livraria Saraiva,brand:Saraiva,brand:wikidata:Q10319337,brand:wikipedia:pt:Livraria Saraiva,shop:books","lat":-15.7871637,"lng":-47.889101},{"id":"4585501243","name":"Caixa Econômica Federal","tags":"amenity:bank,atm:yes,brand:Caixa Econômica Federal,brand:wikidata:Q835283,brand:wikipedia:pt:Caixa Econômica Federal,wheelchair:yes","lat":-15.7862991,"lng":-47.8893236},{"id":"4585501248","name":"Koni Store","tags":"amenity:restaurant,cuisine:sushi,opening_hours:Mo-Sa 10:00-22:00; Su 12:00-20:00","lat":-15.7864772,"lng":-47.8891252},{"id":"4585509560","name":"Banco do Brasil","tags":"amenity:bank,atm:yes,brand:Banco do Brasil,brand:wikidata:Q610817,brand:wikipedia:en:Banco do Brasil","lat":-15.786885,"lng":-47.8893961},{"id":"4585509563","name":"Drogasil","tags":"amenity:pharmacy,brand:Drogasil,brand:wikidata:Q5308185,brand:wikipedia:pt:Drogasil,healthcare:pharmacy,wheelchair:yes","lat":-15.7869134,"lng":-47.8891037},{"id":"4585529780","name":"Grande Muralha","tags":"amenity:restaurant,cuisine:chinese,level:1","lat":-15.7872127,"lng":-47.8841286},{"id":"4585529781","name":"Grande Café","tags":"amenity:cafe,level:1","lat":-15.7871869,"lng":-47.8840682},{"id":"4585529783","name":"DrogaFuji","tags":"amenity:pharmacy,healthcare:pharmacy,level:0","lat":-15.7865237,"lng":-47.884488},{"id":"4585529785","name":"Santander","tags":"amenity:bank,atm:yes,brand:Santander,brand:wikidata:Q5835668,brand:wikipedia:en:Santander Bank,level:0","lat":-15.7869651,"lng":-47.8839757},{"id":"4585529787","name":"Panelinhas do Brasil","tags":"amenity:restaurant,cuisine:regional,level:1","lat":-15.7866075,"lng":-47.8839568},{"id":"4596372425","name":"Livraria Vozes","tags":"shop:books","lat":-15.7771808,"lng":-47.8886918},{"id":"4596372427","name":"Restaurante Talher de Minas","tags":"amenity:restaurant,cuisine:regional","lat":-15.7781911,"lng":-47.8885969},{"id":"4605911847","name":"Drogaria Droga Lar","tags":"amenity:pharmacy,healthcare:pharmacy,survey:date:2022-03-06","lat":-15.8117747,"lng":-47.8971806},{"id":"4605911853","name":"Estação da Pizza","tags":"amenity:restaurant,cuisine:pizza,delivery:yes,takeaway:yes","lat":-15.8116528,"lng":-47.8976481},{"id":"4605911860","name":"Pague Menos","tags":"amenity:pharmacy,brand:Pague Menos,brand:wikidata:Q7124466,brand:wikipedia:pt:Pague Menos,healthcare:pharmacy","lat":-15.8111057,"lng":-47.8981724},{"id":"4605911861","name":"Oba Hortifruti","tags":"shop:supermarket,survey:date:2022-03-06","lat":-15.8109238,"lng":-47.8980128},{"id":"4605911862","name":"Estilo Saúde","tags":"leisure:fitness_centre","lat":-15.8109405,"lng":-47.8983816},{"id":"4606474688","name":"Centro Estético","tags":"shop:beauty","lat":-15.8076083,"lng":-47.8969633},{"id":"4606489401","name":"Miau que mia","tags":"amenity:restaurant","lat":-15.8072386,"lng":-47.8973666},{"id":"4608731433","name":"Crépe de Paris","tags":"amenity:cafe,level:0","lat":-15.7868298,"lng":-47.88463},{"id":"4640501865","name":"Cantucci Bistrô","tags":"amenity:restaurant,cuisine:mediterranean,diet:vegetarian:yes,opening_hours:Mo-Sa 12:00-23:00,website:http://cantucci.com.br","lat":-15.7796175,"lng":-47.8752157},{"id":"4695312390","name":"Restaurante Consulado","tags":"amenity:restaurant,name:en:Consulate restaurant,name:pt:Restaurante Consulado","lat":-15.8033904,"lng":-47.8740694},{"id":"4709791383","name":"Wise Up","tags":"amenity:school,training:language","lat":-15.7768953,"lng":-47.8885421},{"id":"4717106691","name":"Citibank","tags":"amenity:bank,atm:yes,brand:Citibank,brand:wikidata:Q857063,brand:wikipedia:en:Citibank,level:0,name:pt:Citibank,short_name:Citi,wheelchair:yes","lat":-15.7944517,"lng":-47.8933922},{"id":"4717298690","name":"Jamie Oliver","tags":"amenity:restaurant,cuisine:international,diet:gluten_free:yes,diet:vegetarian:yes,website:https://www.jamieoliverkitchen.com.br/en/brasilia/","lat":-15.7949085,"lng":-47.8925869},{"id":"4717307389","name":"Outback","tags":"amenity:restaurant,name:pt:Outback","lat":-15.7948771,"lng":-47.8924151},{"id":"4718380494","name":"Panelinhas do Brasil","tags":"amenity:restaurant","lat":-15.7951841,"lng":-47.8927181},{"id":"4718380505","name":"Banco do Brasil","tags":"amenity:bank,atm:yes,brand:Banco do Brasil,brand:wikidata:Q610817,brand:wikipedia:en:Banco do Brasil,wheelchair:yes","lat":-15.7948565,"lng":-47.8935168},{"id":"4785159996","name":"Clube de Remada Kaluanã","tags":"contact:instagram:https://www.instagram.com/clubederemadakaluana/,leisure:sports_centre,phone:+55 61 985923707,sport:canoe","lat":-15.8193107,"lng":-47.8722012},{"id":"4785204467","name":"Banco24Horas","tags":"amenity:atm,brand:Banco24Horas,brand:wikidata:Q4854069,brand:wikipedia:pt:Banco24Horas,operator:Banco 24 Horas","lat":-15.7868687,"lng":-47.8887784},{"id":"4785204468","name":"Mormaii Surf Bar","tags":"amenity:restaurant,cuisine:sushi","lat":-15.7871965,"lng":-47.8885906},{"id":"4791543801","name":"China Construction Bank","tags":"amenity:bank,atm:no,brand:China Construction Bank,brand:wikidata:Q26299,brand:wikipedia:en:China Construction Bank,short_name:CCB","lat":-15.7892587,"lng":-47.8833161},{"id":"4831275965","name":"Madero","tags":"amenity:restaurant","lat":-15.7873284,"lng":-47.8902516},{"id":"4853532380","name":"Drogasil","tags":"amenity:pharmacy,brand:Drogasil,brand:wikidata:Q5308185,brand:wikipedia:pt:Drogasil,healthcare:pharmacy,opening_hours:24/7,wheelchair:yes","lat":-15.8150237,"lng":-47.8893222},{"id":"4890085223","name":"Bengala","tags":"amenity:restaurant,cuisine:regional","lat":-15.7780775,"lng":-47.8884546},{"id":"4908141129","name":"Gaudi Café","tags":"amenity:cafe,level:2","lat":-15.7906235,"lng":-47.8831845},{"id":"4908141130","name":"Sushi Loko","tags":"amenity:restaurant,cuisine:sushi","lat":-15.7906519,"lng":-47.8832033},{"id":"4931695792","name":"Alexandre's","tags":"amenity:restaurant","lat":-15.7785951,"lng":-47.8881019},{"id":"4951596058","name":"Cão Véio","tags":"amenity:restaurant,opening_hours:Mo-Th 12:00-15:00,18:00-00:00; Fr-Sa 12:00-17:00,18:00-01:00,phone:+55 61 3257-8455","lat":-15.8141985,"lng":-47.8898684},{"id":"4958788858","tags":"amenity:atm,currency:BRL:yes,level:1,opening_hours:Mo-Sa 09:00-21:00; Su 14:00-20:00,operator:BRB","lat":-15.7866675,"lng":-47.8840023},{"id":"4958788859","name":"Branco24Horas","tags":"amenity:atm,brand:Banco24Horas,brand:wikidata:Q4854069,brand:wikipedia:pt:Banco24Horas,currency:BRL:yes,level:1,operator:Banco 24 Horas","lat":-15.786714,"lng":-47.8839908},{"id":"4958788860","name":"Aroma Restaurante","tags":"amenity:restaurant,level:1,name:pt:Aroma Restaurante","lat":-15.7871046,"lng":-47.8844814},{"id":"4962956721","name":"Museu de Valores do Banco Central","tags":"tourism:museum","lat":-15.8030514,"lng":-47.8850142},{"id":"4966191095","name":"Rede dos Cosméticos","tags":"shop:chemist","lat":-15.8100853,"lng":-47.8892014},{"id":"4966191100","name":"Malhart","tags":"leisure:fitness_centre","lat":-15.8094684,"lng":-47.8899396},{"id":"4966191102","name":"Murakami","tags":"description:Produtos orientais,shop:convenience","lat":-15.8102646,"lng":-47.8893476},{"id":"4966191103","name":"Drogaria Família","tags":"shop:chemist","lat":-15.8102246,"lng":-47.8893813},{"id":"4966191104","name":"Drogaria Rosário","tags":"shop:chemist","lat":-15.8101904,"lng":-47.8894188},{"id":"4966191107","name":"Salad Bowl","tags":"amenity:restaurant","lat":-15.8100977,"lng":-47.8895461},{"id":"5029115521","name":"Oficina Café","tags":"amenity:cafe,name:pt:Oficina Café","lat":-15.780834,"lng":-47.889139},{"id":"5029142786","name":"Cultura Italiana","tags":"amenity:school,level:1,room:121,training:language,website:https://laculturaitaliana.com.br/","lat":-15.7808978,"lng":-47.8850811},{"id":"5096352123","name":"Yakisoba Factory","tags":"amenity:restaurant,cuisine:chinese","lat":-15.8042263,"lng":-47.8856256},{"id":"5106519929","name":"Paris 6","tags":"amenity:restaurant,cuisine:french","lat":-15.7867842,"lng":-47.8903063},{"id":"5109936227","name":"SuperGeeks","tags":"amenity:school,website:http://asanorte.supergeeks.com.br/","lat":-15.7810471,"lng":-47.8902963},{"id":"5124575930","name":"Café Civitá","tags":"amenity:cafe,internet_access:wlan,name:pt:Café Civitá","lat":-15.7962238,"lng":-47.8927946},{"id":"5125114322","name":"Fran's Café","tags":"amenity:cafe,brand:Fran's Café,brand:wikidata:Q62075645,cuisine:coffee_shop,takeaway:yes","lat":-15.7953783,"lng":-47.8924834},{"id":"5125114323","name":"Banco24Horas","tags":"amenity:atm,brand:Banco24Horas,brand:wikidata:Q4854069,brand:wikipedia:pt:Banco24Horas,operator:Banco 24 Horas","lat":-15.7962754,"lng":-47.8928412},{"id":"5125114324","name":"Banco de Brasília","tags":"amenity:bank,brand:BRB,brand:wikidata:Q4854119,brand:wikipedia:pt:Banco de Brasília","lat":-15.7961393,"lng":-47.8931726},{"id":"5129731201","tags":"amenity:parking","lat":-15.8183168,"lng":-47.8941136},{"id":"5131167638","name":"Vegan-se","tags":"addr:city:Brasília,addr:housenumber:29,addr:postcode:70842-510,addr:street:CLN 203 Bloco A,addr:suburb:Asa Norte,amenity:restaurant,delivery:yes,diet:vegan:only,opening_hours:Mo-Sa 11:00-21:00,outdoor_seating:yes,phone:+55 61 3522-7875,smoking:no,takeaway:yes,website:https://www.vegan-se.com.br/","lat":-15.7767563,"lng":-47.8788905},{"id":"5133032329","name":"Bio Mundo","tags":"level:-1,shop:convenience","lat":-15.7867165,"lng":-47.8888527},{"id":"5133032330","name":"Bio Mundo","tags":"level:-1,shop:convenience","lat":-15.7959034,"lng":-47.8847119},{"id":"5137609123","name":"Le Parisien Bistrot","tags":"amenity:restaurant,cuisine:french,name:pt:Le Parisien Bistrot","lat":-15.7776368,"lng":-47.8832105},{"id":"5155823124","name":"essence","tags":"amenity:nightclub","lat":-15.8147073,"lng":-47.8897204},{"id":"5225067824","name":"Moagem cozinha bar","tags":"amenity:restaurant","lat":-15.8034257,"lng":-47.8924533},{"id":"5225078921","name":"Vitabel","tags":"amenity:pharmacy,dispensing:yes,healthcare:pharmacy","lat":-15.8034794,"lng":-47.89241},{"id":"5225096721","name":"Maxsushi","tags":"amenity:restaurant,cuisine:japanese;sushi","lat":-15.803511,"lng":-47.8923785},{"id":"5225539396","name":"Nosso Quadrado","tags":"amenity:cafe","lat":-15.8028809,"lng":-47.8931241},{"id":"5225539404","name":"Mel & Mel Produtos Naturais","tags":"shop:convenience","lat":-15.8023649,"lng":-47.8933449},{"id":"5225539406","name":"Wizard","tags":"amenity:school,training:language","lat":-15.8026971,"lng":-47.8933846},{"id":"5225539410","name":"Vitale","tags":"amenity:pharmacy,healthcare:pharmacy","lat":-15.8027131,"lng":-47.8933387},{"id":"5230076442","name":"Colégio Seriös","tags":"amenity:school","lat":-15.7973083,"lng":-47.897349},{"id":"5290672334","name":"Mangai","tags":"amenity:restaurant,cuisine:nordestina,outdoor_seating:no","lat":-15.7865444,"lng":-47.89009},{"id":"5321859461","name":"Sublime Tempero","tags":"amenity:restaurant","lat":-15.7872476,"lng":-47.8863101},{"id":"5351722721","name":"Nippon Restaurante","tags":"amenity:restaurant","lat":-15.8086795,"lng":-47.8860752},{"id":"5351722921","name":"Drogasil","tags":"amenity:pharmacy,brand:Drogasil,brand:wikidata:Q5308185,brand:wikipedia:pt:Drogasil,dispensing:yes,healthcare:pharmacy,wheelchair:yes","lat":-15.8093192,"lng":-47.8853},{"id":"5353490656","name":"TacoPep","tags":"amenity:restaurant","lat":-15.8185214,"lng":-47.8748132},{"id":"5353490657","name":"Drogaria Rosário","tags":"amenity:pharmacy,healthcare:pharmacy","lat":-15.8187213,"lng":-47.8748784},{"id":"5353491826","name":"Leitura","tags":"shop:books","lat":-15.8179748,"lng":-47.8750429},{"id":"5353491828","name":"Grão Espresso","tags":"amenity:cafe","lat":-15.8184198,"lng":-47.8749357},{"id":"5380437123","name":"Caixa Econômica Federal","tags":"amenity:bank,atm:yes,brand:Caixa Econômica Federal,brand:wikidata:Q835283,brand:wikipedia:pt:Caixa Econômica Federal","lat":-15.7963613,"lng":-47.8906442},{"id":"5380437124","name":"Safra","tags":"amenity:bank","lat":-15.7974471,"lng":-47.891008},{"id":"5380437126","name":"Caixa Econômica Federal","tags":"amenity:bank,atm:yes,brand:Caixa Econômica Federal,brand:wikidata:Q835283,brand:wikipedia:pt:Caixa Econômica Federal","lat":-15.8049163,"lng":-47.8973696},{"id":"5380457521","name":"Sicoob","tags":"amenity:bank,brand:Sicoob,brand:wikidata:Q28679754,brand:wikipedia:pt:Sistema de Cooperativas de Crédito do Brasil","lat":-15.7964574,"lng":-47.8906733},{"id":"5381979922","name":"Itaú","tags":"amenity:bank,atm:yes,brand:Itaú Unibanco,brand:wikidata:Q1424293","lat":-15.8054481,"lng":-47.8978402},{"id":"5384665222","name":"Donburi","tags":"addr:street:SBS Quadra 02,amenity:restaurant,cuisine:japanese,delivery:yes,opening_hours:Mo-Sa 10:30-22:30,phone:+55 61 3321-0860,takeaway:yes,website:https://www.donburidelivery.com/","lat":-15.8010278,"lng":-47.8821065},{"id":"5416977721","name":"Melbourne Café & Co.","tags":"addr:street:SHN Quadra 1,amenity:cafe,opening_hours:Mo-Fr 08:15-17:30,outdoor_seating:yes,website:http://www.olamelbourne.com.br/","lat":-15.7902403,"lng":-47.8846678},{"id":"5418809322","name":"Banco24Horas","tags":"amenity:atm,brand:Banco24Horas,brand:wikidata:Q4854069,operator:Banco 24 Horas","lat":-15.8096261,"lng":-47.8844975},{"id":"5437913623","name":"BioMundo","tags":"shop:convenience","lat":-15.8111999,"lng":-47.8977444},{"id":"5441544322","name":"Universidade Corporativa Banco do Brasil","tags":"amenity:university","lat":-15.798931,"lng":-47.8971883},{"id":"5442762376","tags":"amenity:parking,fee:yes,layer:-1,operator:Multipark,parking:underground","lat":-15.7985354,"lng":-47.8970664},{"id":"5448097937","name":"Guiafarma","tags":"amenity:pharmacy,healthcare:pharmacy","lat":-15.784356,"lng":-47.8848819},{"id":"5460278324","name":"Reiko Sushi","tags":"amenity:restaurant","lat":-15.7801077,"lng":-47.8751995},{"id":"5460348921","name":"Drogarias Pacheco","tags":"amenity:pharmacy,healthcare:pharmacy","lat":-15.780135,"lng":-47.8754221},{"id":"5461937240","name":"Colorado","tags":"amenity:pharmacy,healthcare:pharmacy","lat":-15.7798627,"lng":-47.8761607},{"id":"5461937244","name":"Mimo","tags":"shop:pet","lat":-15.7768136,"lng":-47.8788717},{"id":"5461938950","name":"Bluefit","tags":"leisure:fitness_centre","lat":-15.7877211,"lng":-47.8833139},{"id":"5461939620","name":"Nutrivida","tags":"amenity:restaurant,phone:+55 61 3328 1404","lat":-15.7798218,"lng":-47.8759517},{"id":"5461940192","name":"Caparriz","tags":"amenity:restaurant","lat":-15.787951,"lng":-47.8833838},{"id":"5461940621","name":"Tiborna","tags":"addr:housenumber:Loja 25,amenity:bar","lat":-15.7797746,"lng":-47.8761658},{"id":"5461940657","name":"Caixa Econômica Federal","tags":"amenity:bank,brand:Caixa Econômica Federal,brand:wikidata:Q835283,brand:wikipedia:pt:Caixa Econômica Federal","lat":-15.7884221,"lng":-47.8843495},{"id":"5470849151","name":"Itaú","tags":"amenity:bank,branch:Personalitté,brand:Itaú Unibanco,brand:wikidata:Q1424293,brand:wikipedia:pt:Itaú Unibanco","lat":-15.786996,"lng":-47.8894185},{"id":"5481309167","name":"Pink Elephant","tags":"amenity:nightclub","lat":-15.8185329,"lng":-47.8757724},{"id":"5512010321","name":"Outback Pier 21","tags":"amenity:restaurant","lat":-15.818644,"lng":-47.8742782},{"id":"5516193375","name":"Efficace Depilação","tags":"shop:beauty","lat":-15.7797916,"lng":-47.8750951},{"id":"5516193376","name":"Chaminé","tags":"amenity:restaurant","lat":-15.7802082,"lng":-47.8766556},{"id":"5516193379","name":"Tribo de Patas","tags":"shop:pet","lat":-15.7801831,"lng":-47.8762535},{"id":"5516193380","name":"Não + Pelo","tags":"shop:beauty","lat":-15.7799,"lng":-47.8766816},{"id":"5766574433","name":"Quanto","tags":"addr:city:Brasília,addr:street:CLN 103/104,amenity:cafe,internet_access:yes,internet_access:fee:no,opening_hours:Mo-Fr 11:00-21:00, Sa 09:00-21:00,outdoor_seating:yes,smoking:no","lat":-15.7775553,"lng":-47.8826493},{"id":"5766576164","name":"Bulls Burguer","tags":"amenity:restaurant","lat":-15.8143827,"lng":-47.8900176},{"id":"5856749365","name":"Sabor do Milênio","tags":"amenity:restaurant","lat":-15.7977256,"lng":-47.8937606},{"id":"5919498285","tags":"amenity:restaurant,name:en:Eat Olivae","lat":-15.8140209,"lng":-47.8904105},{"id":"6124006703","name":"Metropolitan Mix","tags":"shop:mall","lat":-15.7891689,"lng":-47.886357},{"id":"6150658538","name":"Taioba","tags":"amenity:restaurant","lat":-15.8139974,"lng":-47.8900782},{"id":"6150658540","name":"Tejo","tags":"amenity:restaurant","lat":-15.8138861,"lng":-47.8902022},{"id":"6204328807","name":"Fuji","tags":"amenity:pharmacy,dispensing:yes,healthcare:pharmacy","lat":-15.8191816,"lng":-47.8995972},{"id":"6236570679","name":"Ric Filet","tags":"amenity:restaurant","lat":-15.7953109,"lng":-47.8841452},{"id":"6236570682","name":"Quinzinhos","tags":"amenity:restaurant","lat":-15.7844389,"lng":-47.8886042},{"id":"6236570683","name":"Abrantes","tags":"amenity:restaurant","lat":-15.7839762,"lng":-47.8885522},{"id":"6236570713","name":"Banco24Horas","tags":"amenity:atm,brand:Banco24Horas,brand:wikidata:Q4854069,brand:wikipedia:pt:Banco24Horas","lat":-15.7840757,"lng":-47.8879309},{"id":"6236570811","name":"Biomundo","tags":"shop:supermarket","lat":-15.7952148,"lng":-47.8841045},{"id":"6236570818","name":"Comic House","tags":"shop:books","lat":-15.7842222,"lng":-47.8885281},{"id":"6247734422","name":"Melhor Fatia","tags":"amenity:restaurant","lat":-15.7981779,"lng":-47.8870121},{"id":"6247734423","name":"ABL self service","tags":"amenity:restaurant","lat":-15.7989957,"lng":-47.8867997},{"id":"6268072354","name":"Villa's","tags":"amenity:restaurant","lat":-15.7946129,"lng":-47.8846564},{"id":"6268072907","name":"Farmacentro Manipulação","tags":"amenity:pharmacy,healthcare:pharmacy","lat":-15.7950054,"lng":-47.8847448},{"id":"6268072912","name":"Nova América","tags":"amenity:pharmacy,healthcare:pharmacy","lat":-15.7801792,"lng":-47.8762076},{"id":"6268072918","name":"Medicare","tags":"amenity:pharmacy,healthcare:pharmacy","lat":-15.7801325,"lng":-47.8757912},{"id":"6268073254","name":"Aroma do Sul","tags":"amenity:restaurant","lat":-15.7797023,"lng":-47.8763347},{"id":"6268724085","name":"Bar Responsa","tags":"addr:postcode:70330-515,amenity:bar,phone:+55 61 9 9254 8685","lat":-15.8054982,"lng":-47.885329},{"id":"6414156047","tags":"tourism:museum","lat":-15.8038135,"lng":-47.8843894},{"id":"6431437603","tags":"tourism:attraction","lat":-15.803356,"lng":-47.8851649},{"id":"6445618685","tags":"amenity:bank","lat":-15.8029504,"lng":-47.8832477},{"id":"6450414772","name":"Koni","tags":"amenity:restaurant","lat":-15.8146413,"lng":-47.8947533},{"id":"6450414774","name":"Medical Fit","tags":"amenity:pharmacy,healthcare:pharmacy","lat":-15.8144914,"lng":-47.8945495},{"id":"6450416026","name":"Menu Restô","tags":"amenity:restaurant","lat":-15.7803423,"lng":-47.8759175},{"id":"6450416027","name":"Pizza Swap","tags":"amenity:restaurant","lat":-15.7803331,"lng":-47.8758513},{"id":"6450416155","name":"Nossa Cozinha","tags":"amenity:restaurant","lat":-15.7803307,"lng":-47.8757382},{"id":"6456386661","name":"Fran's Café","tags":"amenity:cafe,brand:Fran's Café,brand:wikidata:Q62075645,cuisine:coffee_shop,outdoor_seating:yes,takeaway:yes","lat":-15.8151596,"lng":-47.8938988},{"id":"6456386663","name":"Sushi Loko","tags":"amenity:restaurant,cuisine:japanese,outdoor_seating:no","lat":-15.8182992,"lng":-47.8957021},{"id":"6456386665","name":"Praça","tags":"leisure:park","lat":-15.8140995,"lng":-47.8941767},{"id":"6574712794","tags":"amenity:restaurant,cuisine:japanese","lat":-15.8011014,"lng":-47.8821434},{"id":"6574712795","tags":"amenity:restaurant","lat":-15.8013126,"lng":-47.882398},{"id":"6587306454","name":"Peixe na Rede","tags":"amenity:restaurant,cuisine:fish,opening_hours:Mo-Fr 11:00-17:00,phone:+55 61 3226-5271","lat":-15.7955016,"lng":-47.8612706},{"id":"6587306455","name":"Restaurante-escola Senac","tags":"amenity:restaurant,cuisine:italian;pasta,phone:+55 61 3224-8248","lat":-15.7955556,"lng":-47.8610768},{"id":"6587306456","name":"Correios","tags":"alt_name:AC Senado,amenity:post_office,brand:Correios,brand:wikidata:Q3375004,brand:wikipedia:en:Correios","lat":-15.7963166,"lng":-47.8637403},{"id":"6587306457","name":"Caixa Econômica Federal","tags":"amenity:bank,atm:yes,brand:Caixa Econômica Federal,brand:wikidata:Q835283,brand:wikipedia:pt:Caixa Econômica Federal","lat":-15.7965559,"lng":-47.864038},{"id":"6587306484","name":"Banco do Brasil","tags":"amenity:bank,atm:yes,brand:Banco do Brasil,brand:wikidata:Q610817,brand:wikipedia:en:Banco do Brasil,drive_through:no","lat":-15.7953667,"lng":-47.8610737},{"id":"6587338785","name":"Instituto Legislativo Brasileiro","tags":"amenity:university","lat":-15.796372,"lng":-47.8618325},{"id":"6591961959","name":"Sterna Café","tags":"amenity:cafe","lat":-15.7808206,"lng":-47.8900077},{"id":"6597496085","name":"iviva bowls","tags":"addr:street:CLN 102,amenity:restaurant,contact:instagram:https://www.instagram.com/ivivabowls,contact:phone:+55 6132534343,cuisine:breakfast,diet:vegan:yes,internet_access:wlan,opening_hours:Mo-Fr 12:00-20:00; Sa-Su 09:00-18:00","lat":-15.7833619,"lng":-47.8836298},{"id":"6601288383","name":"Supermercado praVocê","tags":"shop:supermarket","lat":-15.7810452,"lng":-47.8849483},{"id":"6632603734","name":"Rodoviria do Plano Piloto","tags":"amenity:bus_station,bus:yes,public_transport:station","lat":-15.7933591,"lng":-47.8825794},{"id":"6632634108","name":"Rodoviaria do Plano Piloto","tags":"amenity:bus_station,bus:yes,public_transport:station","lat":-15.7932743,"lng":-47.8826236},{"id":"6662096285","name":"Laboro","tags":"amenity:school","lat":-15.8020658,"lng":-47.8947785},{"id":"6779836007","name":"Sushi San","tags":"amenity:restaurant","lat":-15.811291,"lng":-47.8979906},{"id":"6792658324","name":"Cantina Mineira","tags":"amenity:restaurant,cuisine:brazilian,level:1,wheelchair:no","lat":-15.7907299,"lng":-47.8858233},{"id":"6799742745","tags":"access:yes,amenity:parking,covered:no,fee:no,maxstay:0,operator:Parque da Cidade,operator:type:public,parking:garage_boxes,surface:asphalt","lat":-15.7927703,"lng":-47.896587},{"id":"6960597451","name":"Blend House Burguer","tags":"amenity:restaurant","lat":-15.8183815,"lng":-47.8960208},{"id":"6960603975","name":"Nonô","tags":"amenity:bar","lat":-15.8184486,"lng":-47.8959519},{"id":"6960606867","name":"China Buffet","tags":"amenity:restaurant","lat":-15.8184011,"lng":-47.8956595},{"id":"6960612789","name":"Farmagreen Manipulação","tags":"amenity:pharmacy,healthcare:pharmacy","lat":-15.818732,"lng":-47.8957036},{"id":"6960627050","name":"Drogaria Família","tags":"amenity:pharmacy,healthcare:pharmacy","lat":-15.8190842,"lng":-47.8950688},{"id":"6960633215","name":"Bixu Mania","tags":"shop:pet","lat":-15.818317,"lng":-47.8957309},{"id":"7010145917","name":"Teatro Nacional","tags":"tourism:attraction","lat":-15.7920848,"lng":-47.8811454},{"id":"7252664948","name":"Brasileirinho","tags":"amenity:restaurant","lat":-15.7975328,"lng":-47.8875443},{"id":"7252673322","name":"Banco do Brasil","tags":"amenity:bank,brand:Banco do Brasil,brand:wikidata:Q610817,brand:wikipedia:en:Banco do Brasil","lat":-15.7972504,"lng":-47.8874511},{"id":"7939611356","name":"Proceram Instituto de Odontologia","tags":"addr:city:Brasília,addr:housenumber:Sala 405,addr:postcode:70711070,addr:street:SCN Quadra 1 Bloco G Rossi Esplanada Business,addr:suburb:Asa Norte,amenity:hospital,emergency:no,healthcare:hospital,healthcare:speciality:dentist,operator:Giselli Cristinne,wheelchair:yes","lat":-15.7868494,"lng":-47.8827919},{"id":"8022670065","name":"Caminito Parrilla Asa Norte","tags":"addr:city:Brasília,addr:postcode:70256-190,addr:street:CLN 402/403,addr:suburb:Asa Norte,amenity:restaurant,cuisine:Argentina;parrilla,phone:+556139630820,website:https://www.caminitoparrilla.com.br/","lat":-15.7798113,"lng":-47.8755818},{"id":"8603327848","name":"Central","tags":"email:atendimentoaousuario@metro.df.gov.br,internet_access:no,level:-1,operator:Metrô-DF,phone:+55 61 3353-7373,public_transport:station,railway:station,station:subway,subway:yes,website:https://www.metro.df.gov.br/,wheelchair:yes,wikidata:Q10275643,wikipedia:en:Central station (Brasília Metro)","lat":-15.7932498,"lng":-47.8846166},{"id":"8603327860","name":"Galeria","tags":"operator:Metrô-DF,public_transport:station,railway:station,station:subway,subway:yes,wikidata:Q10275820,wikipedia:en:Galería station","lat":-15.7991899,"lng":-47.885975},{"id":"8603327871","name":"102 Sul","tags":"operator:Metrô-DF,public_transport:station,railway:station,station:subway,subway:yes,wikidata:Q10275533,wikipedia:en:102 Sul station","lat":-15.8057361,"lng":-47.889444},{"id":"8603327881","name":"106 Sul","tags":"operator:Metrô-DF,public_transport:station,railway:station,station:subway,subway:yes,wikidata:Q10275535,wikipedia:en:106 Sul Cine Brasília station","lat":-15.8149857,"lng":-47.8986511},{"id":"9103793091","name":"Seleve","tags":"craft:bakery","lat":-15.7808049,"lng":-47.8896078},{"id":"9103795646","name":"Castália","tags":"craft:bakery","lat":-15.8077404,"lng":-47.8967368},{"id":"9106354157","name":"Rafaela Brandão Doceria;Senhorita Brigadeiro","tags":"addr:city:distrito federal,addr:housenumber:36,addr:postcode:70331710,addr:street:SHIGS Quadra 703, bloco J;SHIGS Quadra 703, Bloco J,addr:suburb:asa sul,amenity:cafe,cuisine:cake;cafetaria","lat":-15.8015199,"lng":-47.896786},{"id":"9368578202","name":"Verona","tags":"amenity:restaurant","lat":-15.8084858,"lng":-47.8858439},{"id":"9559045818","name":"Toro","tags":"amenity:restaurant,survey:date:2022-03-06","lat":-15.8066215,"lng":-47.8937631},{"id":"9559045917","name":"The Plant","tags":"amenity:restaurant,survey:date:2022-03-06","lat":-15.806447,"lng":-47.8936064},{"id":"9559046017","name":"The Healthy","tags":"amenity:restaurant,survey:date:2022-03-06","lat":-15.8066808,"lng":-47.8933134},{"id":"9559046117","name":"DuckBill Cookies & Coffee","tags":"amenity:cafe,brand:DuckBill Cookies & Coffee,brand:wikidata:Q110015928,cuisine:coffee_shop,survey:date:2022-03-06,takeaway:yes","lat":-15.8066905,"lng":-47.893681},{"id":"9559046118","name":"Café da Mata","tags":"amenity:cafe,survey:date:2022-03-06","lat":-15.8069382,"lng":-47.8933825},{"id":"9563487746","name":"Starbucks","tags":"amenity:cafe,brand:Starbucks,brand:wikidata:Q37158,brand:wikipedia:en:Starbucks,cuisine:coffee_shop,official_name:Starbucks Coffee,takeaway:yes","lat":-15.7950461,"lng":-47.8924062},{"id":"9563487747","name":"Bluefit","tags":"brand:Bluefit,brand:wikidata:Q111154874,leisure:fitness_centre","lat":-15.7954874,"lng":-47.8928032},{"id":"9566244917","name":"Drogasil","tags":"amenity:pharmacy,brand:Drogasil,brand:wikidata:Q5308185,healthcare:pharmacy,wheelchair:yes","lat":-15.8195446,"lng":-47.8950205},{"id":"9577464680","name":"Starbucks","tags":"amenity:cafe,brand:Starbucks,brand:wikidata:Q37158,brand:wikipedia:en:Starbucks,cuisine:coffee_shop,official_name:Starbucks Coffee,takeaway:yes","lat":-15.79097,"lng":-47.8829693},{"id":"9917102316","tags":"amenity:pharmacy,dispensing:yes,healthcare:pharmacy","lat":-15.8150271,"lng":-47.8939658}]