[{"id":"2180378279","tags":"amenity:parking","lat":-15.7873612,"lng":-48.05794},{"id":"2678758847","name":"Cervejaria Kaixa Dagua","tags":"addr:street:CNF 1,amenity:bar","lat":-15.8139008,"lng":-48.0677794},{"id":"2678758851","name":"El Franguito","tags":"amenity:bar","lat":-15.8151486,"lng":-48.0689096},{"id":"2678758854","name":"Lions Clube de Taguatinga","tags":"amenity:bar","lat":-15.7977104,"lng":-48.0589447},{"id":"2678758858","name":"Vosso Bar","tags":"addr:street:CNF 2,amenity:bar","lat":-15.8143976,"lng":-48.0676168},{"id":"2691126924","name":"ESPU","tags":"amenity:school","lat":-15.816841,"lng":-48.0662859},{"id":"2691239442","name":"Estância do Sul","tags":"addr:place:Taguatinga Norte,addr:street:QND 13,amenity:restaurant,cuisine:barbecue,phone:+55 61 3562 8630","lat":-15.8127433,"lng":-48.0642169},{"id":"2691239462","name":"Gordeixos","tags":"addr:place:Taguatinga Norte,addr:street:QND 32,amenity:restaurant,cuisine:pizza,phone:+55 61 3354 1221","lat":-15.8071394,"lng":-48.0640488},{"id":"2698480855","name":"Drogaria Viana","tags":"amenity:pharmacy","lat":-15.8115875,"lng":-48.0647818},{"id":"2698480858","name":"Drogaria Virgem da Vitória","tags":"amenity:pharmacy","lat":-15.8172003,"lng":-48.0625556},{"id":"2699103742","name":"Balaio","tags":"amenity:bar","lat":-15.8067755,"lng":-48.0630266},{"id":"2700695069","name":"Ecofarma","tags":"amenity:pharmacy","lat":-15.7986014,"lng":-48.0508509},{"id":"2700695074","name":"Pizza do Rei","tags":"amenity:restaurant,cuisine:pizza","lat":-15.7973038,"lng":-48.0398613},{"id":"2700695075","name":"Mercado Super 10","tags":"shop:supermarket","lat":-15.7987665,"lng":-48.0534261},{"id":"2702790842","name":"Faculdade SENAC Taguatinga","tags":"amenity:university","lat":-15.7961617,"lng":-48.0574913},{"id":"2709744054","name":"Polícia Militar - PCS 067","tags":"amenity:police","lat":-15.8141859,"lng":-48.0679454},{"id":"2709744118","name":"Polícia Militar TaguaParque","tags":"amenity:police","lat":-15.8186979,"lng":-48.0554047},{"id":"2709744133","name":"Posto da Polícia Militar","tags":"amenity:police","lat":-15.8023849,"lng":-48.0551467},{"id":"2709744135","name":"Polícia Militar","tags":"amenity:police","lat":-15.8097496,"lng":-48.0747108},{"id":"2713473850","name":"Polícia Militar - PCS 016","tags":"amenity:police,phone:+55 61 3910 1016","lat":-15.8098866,"lng":-48.0635899},{"id":"2726097176","name":"Polícia Militar - PCS 050","tags":"amenity:police,phone:+55 61 3910 1050","lat":-15.802927,"lng":-48.0696744},{"id":"2731342399","name":"Centro de Saúde 01 de Taguatinga","tags":"amenity:hospital","lat":-15.7954898,"lng":-48.0594312},{"id":"2906500523","name":"Drogaria Rosário","tags":"amenity:pharmacy","lat":-15.8030417,"lng":-48.0690905},{"id":"2906500524","name":"Ideal","tags":"amenity:school","lat":-15.8014585,"lng":-48.0633524},{"id":"3235248121","name":"Spetaria 17","tags":"amenity:bar","lat":-15.8186501,"lng":-48.0656042},{"id":"3660827099","name":"MR. GALLO","tags":"amenity:restaurant","lat":-15.7946075,"lng":-48.0517358},{"id":"4619707971","name":"Potiguar Caldos","tags":"amenity:restaurant","lat":-15.806489,"lng":-48.0609772},{"id":"5307227322","name":"Sara'i","tags":"amenity:pharmacy","lat":-15.8063168,"lng":-48.0607543},{"id":"5320844422","name":"Drogaria Rosário","tags":"amenity:pharmacy","lat":-15.7945835,"lng":-48.05122},{"id":"5320871722","name":"Drogaria Vicente Pires","tags":"amenity:pharmacy","lat":-15.7946575,"lng":-48.0520855},{"id":"5320888321","name":"Drogaria Messias","tags":"amenity:pharmacy","lat":-15.7943238,"lng":-48.0506169},{"id":"5369153621","name":"Instituto de Educação Montesquieu","tags":"amenity:school","lat":-15.7975744,"lng":-48.0458368},{"id":"5499701035","name":"Pra Você","tags":"shop:supermarket","lat":-15.7946018,"lng":-48.0509019},{"id":"6902615038","name":"Vip Mall","tags":"addr:postcode:72007-725,addr:street:Chácara 312 A - Lote 36,shop:mall","lat":-15.7941685,"lng":-48.0521581},{"id":"6902644983","name":"Pão de Queijo Original","tags":"amenity:cafe","lat":-15.7943725,"lng":-48.0514741},{"id":"6902644984","name":"Kimura Sushi","tags":"amenity:restaurant,cuisine:japanese","lat":-15.7943866,"lng":-48.051002},{"id":"6902652939","name":"Sushiloko","tags":"amenity:restaurant,cuisine:japanese","lat":-15.7943543,"lng":-48.0521929},{"id":"6902667111","name":"Drogarias Leandro","tags":"amenity:pharmacy,dispensing:yes,healthcare:pharmacy","lat":-15.794584,"lng":-48.0504683},{"id":"6902860416","name":"Bluefit","tags":"leisure:fitness_centre","lat":-15.7943071,"lng":-48.052568},{"id":"6975422969","name":"Centro de Ensino Fundamental 12 de Taguatinga","tags":"amenity:school","lat":-15.803415,"lng":-48.0727031},{"id":"6975422970","name":"Escola Classe 08 de Taguatinga","tags":"amenity:school","lat":-15.8009925,"lng":-48.0654916},{"id":"6975422971","name":"Escola Classe 16 de Taguatinga","tags":"amenity:school","lat":-15.7959507,"lng":-48.0601024},{"id":"6975422972","name":"Centro Educacional 04 de Taguatinga","tags":"amenity:school","lat":-15.79526,"lng":-48.0578694},{"id":"6975422973","name":"Centro de Educação Infantil 02 de Taguatinga","tags":"amenity:school","lat":-15.8002968,"lng":-48.0575278},{"id":"6975422977","name":"Parque CEMTN","tags":"amenity:school","lat":-15.8191008,"lng":-48.0662154},{"id":"6975443964","name":"Escola Classe 27 de Taguatinga","tags":"amenity:school","lat":-15.8132804,"lng":-48.0683782},{"id":"6975443966","name":"Escola Classe 18 de Taguatinga","tags":"amenity:school","lat":-15.8124604,"lng":-48.0592165},{"id":"6975443967","name":"Centro de Ensino Fundamental 08 de Taguatinga","tags":"amenity:school","lat":-15.8173041,"lng":-48.0583993},{"id":"6975443968","name":"Escola Classe 06 de Taguatinga","tags":"amenity:school","lat":-15.8198697,"lng":-48.0622287},{"id":"6985835164","name":"Ponto Certo","tags":"shop:supermarket","lat":-15.8165018,"lng":-48.0526247},{"id":"6990579601","name":"Escola Classe 02 - Vicente Pires","tags":"amenity:school","lat":-15.8005066,"lng":-48.0489662},{"id":"6990646000","name":"Colégio Sursum Corda","tags":"amenity:school,denomination:catholic,religion:christian","lat":-15.7919926,"lng":-48.0465622},{"id":"6993913222","name":"Estácio Polo EAD","tags":"amenity:university","lat":-15.8046656,"lng":-48.0427985},{"id":"6993929728","name":"Creche Cantinho da Criança","tags":"addr:street:SHVP - Rua 10,amenity:childcare","lat":-15.7973434,"lng":-48.0407668},{"id":"6996136117","name":"Univero Encantado","tags":"amenity:childcare","lat":-15.8142526,"lng":-48.0338604},{"id":"6996136120","name":"Hotelzinho Baby Kids","tags":"amenity:childcare","lat":-15.7946959,"lng":-48.0360732},{"id":"6996136121","name":"Favinho de mel","tags":"amenity:childcare","lat":-15.7946946,"lng":-48.0366526},{"id":"7002877077","name":"Lava Jato do Leo","tags":"amenity:car_wash","lat":-15.7987073,"lng":-48.0540092},{"id":"7544918100","name":"PagPouco","tags":"shop:supermarket","lat":-15.7986875,"lng":-48.0504853},{"id":"8234853717","name":"Studio Darling","tags":"addr:city:Taguatinga,addr:postcode:72125010,addr:street:Qne 01 Lote 16 Loja 02,addr:suburb:Taguatinga Norte,beauty:nails;cosmetics;hair;pedicure,phone:+55 61 3053 6564,shop:beauty","lat":-15.8158956,"lng":-48.0633047},{"id":"8884016380","name":"Fogos Skyshow","tags":"addr:city:TAGUATINGA,addr:housenumber:01,addr:postcode:72120065,addr:street:CND 6 LOTE 09 LOJA,addr:suburb:TAGUATINGA NORTE,opening_hours:Mo-Su 09:00-20:00,payment:cash:yes,payment:credit_cards:yes,payment:visa_electron:yes,phone:+55 61 3964-3729,shop:supermarket,website:www.skyshow.com.br","lat":-15.8073624,"lng":-48.0639646}]