[{"id":"599435122","name":"Supermercado Veneza","tags":"shop:supermarket","lat":-15.7977651,"lng":-48.1244086},{"id":"599435489","name":"Supermercado Serve Mais","tags":"shop:supermarket","lat":-15.7925535,"lng":-48.1261946},{"id":"599810322","name":"Drogaria Messias","tags":"amenity:pharmacy","lat":-15.7967444,"lng":-48.1211847},{"id":"599894603","name":"Mercado Potiguá","tags":"shop:supermarket","lat":-15.7964965,"lng":-48.1212921},{"id":"600471018","name":"Minas","tags":"shop:supermarket","lat":-15.7909428,"lng":-48.1223718},{"id":"602166736","name":"Academia Nova Geração","tags":"leisure:sports_centre,sport:swimming;gymnastics,website:http://novageracao.academiaweb.com.br","lat":-15.7933873,"lng":-48.121736},{"id":"2114163867","name":"Academia Visual","tags":"leisure:sports_centre","lat":-15.7959545,"lng":-48.1201603},{"id":"2580042947","name":"BRB","tags":"amenity:bank","lat":-15.8021842,"lng":-48.12476},{"id":"2580043169","name":"Centro de Ensino WGS","tags":"amenity:school","lat":-15.8060591,"lng":-48.1389611},{"id":"2580043556","name":"Feira do P Norte","tags":"shop:mall","lat":-15.8117305,"lng":-48.126058},{"id":"2580043563","name":"Feira do Periquita - do Rolo","tags":"name:pt:Feira Permanente do Setor O,shop:mall","lat":-15.7946787,"lng":-48.131001},{"id":"2580043786","name":"Polícia Civil 19a DP","tags":"addr:place:Ceilândia,addr:street:EQNP 15 19 - Setor P Norte,amenity:police,phone:+55 61 3379 9100;+55 61 3379 9128","lat":-15.8084339,"lng":-48.1339388},{"id":"2580043805","name":"Polícia Militar - PCS 100","tags":"amenity:police","lat":-15.8010596,"lng":-48.1582907},{"id":"2580043815","name":"Polícia Militar PCS 071","tags":"amenity:police","lat":-15.8085926,"lng":-48.1507469},{"id":"2580043821","name":"Polícia Militar PCS 106","tags":"amenity:police","lat":-15.8189315,"lng":-48.1318167},{"id":"2580043968","name":"Supermercado Caprichoso","tags":"shop:supermarket","lat":-15.8066939,"lng":-48.1294409},{"id":"2580043981","name":"Supermercado Super Giro","tags":"shop:supermarket","lat":-15.8074924,"lng":-48.131529},{"id":"2580043984","name":"Supermercado Tradição","tags":"shop:supermarket","lat":-15.8132781,"lng":-48.1303003},{"id":"2712090081","name":"Polícia Militar - PCS 005","tags":"amenity:police,phone:+55 61 3910 1005","lat":-15.7847117,"lng":-48.1351946},{"id":"2714901495","name":"Polícia Militar - PCS 025","tags":"amenity:police,phone:+55 61 3910 1025","lat":-15.8013669,"lng":-48.1347294},{"id":"2722562137","tags":"shop:convenience","lat":-15.7840985,"lng":-48.1213791},{"id":"3017386063","name":"PCS 092","tags":"amenity:police","lat":-15.7913438,"lng":-48.1237264},{"id":"3138453364","name":"Supermercado Caíque","tags":"shop:supermarket","lat":-15.7873613,"lng":-48.1283667},{"id":"5005760523","name":"Escola Classe 16","tags":"amenity:school,name:pt:Escola Classe 16","lat":-15.7907508,"lng":-48.1213136},{"id":"5005774921","name":"Messias","tags":"amenity:pharmacy,name:pt:Messias","lat":-15.7907959,"lng":-48.122644},{"id":"5866485144","name":"Drogaria Rosário","tags":"amenity:pharmacy,dispensing:yes,healthcare:pharmacy","lat":-15.8048757,"lng":-48.122432},{"id":"5866485145","name":"VidaFit","tags":"leisure:fitness_centre","lat":-15.8049061,"lng":-48.1224179},{"id":"5868739888","tags":"amenity:atm,operator:Banco 24 horas","lat":-15.8066961,"lng":-48.1409439},{"id":"5888766460","name":"Drogaria Sateles","tags":"amenity:pharmacy,dispensing:yes,healthcare:pharmacy","lat":-15.8069964,"lng":-48.1218756},{"id":"5967342826","name":"Escola Classe 16","tags":"amenity:school,name:pt:Escola Classe 16","lat":-15.7920763,"lng":-48.1249792},{"id":"5967342866","name":"Escola Classe 16","tags":"amenity:school,name:pt:Escola Classe 16","lat":-15.7937018,"lng":-48.1294721},{"id":"5967343098","name":"Escola Classe 16","tags":"amenity:school,name:pt:Escola Classe 16","lat":-15.7885351,"lng":-48.1314652},{"id":"5967343144","name":"Escola Classe 16","tags":"amenity:school,name:pt:Escola Classe 16","lat":-15.7869018,"lng":-48.1269556},{"id":"6456409986","name":"CEPI Ipê Amarelo","tags":"amenity:childcare","lat":-15.8069212,"lng":-48.1464072},{"id":"6456409989","name":"Drogaria Ok Pharma","tags":"amenity:pharmacy,dispensing:yes,healthcare:pharmacy","lat":-15.8081012,"lng":-48.1456766},{"id":"6456409993","name":"Distribuidora de bebidas Gata Ki Bebi","tags":"amenity:bar","lat":-15.8080129,"lng":-48.1455112},{"id":"6456409995","name":"Academia Mega Fitness","tags":"leisure:fitness_centre","lat":-15.8078324,"lng":-48.1455502},{"id":"6456409996","name":"Salão Imagem","tags":"shop:beauty","lat":-15.8077439,"lng":-48.1455891},{"id":"6456409997","name":"Fort Atacadista","tags":"shop:supermarket","lat":-15.8086906,"lng":-48.1451184},{"id":"6456410000","name":"Drogaria Mais Economia","tags":"amenity:pharmacy,dispensing:yes,healthcare:pharmacy","lat":-15.8075991,"lng":-48.1458127},{"id":"6456410009","name":"Bar do Salvador","tags":"amenity:bar","lat":-15.8090495,"lng":-48.14673},{"id":"6456410011","name":"Mercado Conquista","tags":"shop:supermarket","lat":-15.8090417,"lng":-48.1468373},{"id":"6465213296","tags":"amenity:police","lat":-15.7946184,"lng":-48.1323425},{"id":"6465213299","tags":"amenity:pharmacy,dispensing:yes,healthcare:pharmacy","lat":-15.7940816,"lng":-48.1304623},{"id":"6465213300","tags":"leisure:fitness_centre","lat":-15.793999,"lng":-48.1304837},{"id":"6465213301","tags":"amenity:car_wash","lat":-15.7938725,"lng":-48.1305588},{"id":"6465213304","tags":"shop:pet","lat":-15.791658,"lng":-48.1316693},{"id":"6465213307","name":"centro de ensino especial 02","tags":"amenity:school","lat":-15.7904114,"lng":-48.1334047},{"id":"6548679300","name":"Restaurante D'Sousa","tags":"amenity:restaurant","lat":-15.7989019,"lng":-48.1288335},{"id":"6548679301","name":"Restaurante Da Hora","tags":"amenity:restaurant","lat":-15.7997178,"lng":-48.1286223},{"id":"6548679302","name":"Antonio's Restaurante","tags":"amenity:restaurant","lat":-15.7994101,"lng":-48.1244418},{"id":"6548679304","name":"Restaurante Predilleto","tags":"amenity:restaurant","lat":-15.797893,"lng":-48.1204116},{"id":"6548679307","name":"Pizza Lounge Brasil","tags":"amenity:restaurant,cuisine:pizza","lat":-15.797999,"lng":-48.1203337},{"id":"6548679308","name":"Chicó Churrasquinhos","tags":"amenity:restaurant,cuisine:steak_house","lat":-15.7967519,"lng":-48.1208934},{"id":"6548679310","name":"Restaurante Self-Service Saborear","tags":"amenity:restaurant","lat":-15.7946557,"lng":-48.1216453},{"id":"6548679312","name":"Akyra Sushi Bar","tags":"amenity:restaurant,cuisine:sushi","lat":-15.7939996,"lng":-48.1214935},{"id":"6548679313","name":"Restaurante Caldo Verde","tags":"amenity:restaurant","lat":-15.7957137,"lng":-48.1258843},{"id":"6548679316","name":"Paladar Restaurante e Churrascaria","tags":"amenity:restaurant","lat":-15.7947934,"lng":-48.1262144},{"id":"6548679317","name":"La Pizza Setor O","tags":"amenity:restaurant,cuisine:pizza","lat":-15.7948631,"lng":-48.1262027},{"id":"6548679318","name":"Araguaia Gourmet Churrascaria e Choperia","tags":"amenity:restaurant,cuisine:steak_house","lat":-15.792736,"lng":-48.127699},{"id":"6548679319","name":"Pizzaria Bom Gosto","tags":"amenity:restaurant,cuisine:pizza","lat":-15.7897287,"lng":-48.1235073},{"id":"8261668362","tags":"shop:supermarket","lat":-15.792864,"lng":-48.127315},{"id":"8534361871","name":"Ceilândia","tags":"alt_name:Terminal Ceilândia,operator:Metrô-DF,public_transport:station,railway:station,station:subway,subway:yes,wikidata:Q10276182,wikipedia:en:Terminal Ceilândia station","lat":-15.8055721,"lng":-48.1213138},{"id":"8999132177","name":"Elite Rede de Ensino - Ceilândia","tags":"addr:city:Ceilândia,addr:street:QNN 29,amenity:school,website:https://ensinoelite.com.br","lat":-15.816343,"lng":-48.1229552}]