[{"id":"2615741812","name":"Faculdade Evangélica de Goianésia","tags":"addr:city:Goianésia,addr:housenumber:1000,addr:postcode:76380-000,addr:street:Avenida Brasil,amenity:university,phone:+55 62 3389-7350,website:http://www.evangelicagoianesia.com.br/,wheelchair:yes","lat":-15.3258821,"lng":-49.1350198},{"id":"2768053752","name":"supermercado itapuã","tags":"addr:city:goianesia go,addr:housenumber:283,addr:street:rua santos domont,shop:supermarket","lat":-15.3179544,"lng":-49.1360441},{"id":"2889248029","name":"Alam","tags":"amenity:bar","lat":-15.304726,"lng":-49.1493342},{"id":"2890299301","name":"Faculdade de Agronomia","tags":"amenity:university","lat":-15.3234276,"lng":-49.1393458},{"id":"2914392214","name":"posto de saude maria beralda","tags":"addr:city:goianesia,addr:housenumber:491,addr:postcode:76380000,addr:street:Avenida Brasil,amenity:hospital,emergency:no","lat":-15.3267545,"lng":-49.1321459},{"id":"3755876403","name":"Escola municipal Antonio ottoni da silva","tags":"amenity:school","lat":-15.3133953,"lng":-49.132746},{"id":"3755877572","name":"Escola municipal senhor saint-clair ottoni da sillva","tags":"amenity:school","lat":-15.3137241,"lng":-49.1336473},{"id":"3755879459","name":"Escola estadual carlos gomes","tags":"amenity:school","lat":-15.3291705,"lng":-49.1329997},{"id":"5300816747","name":"Biblioteca Central","tags":"amenity:library,internet_access:yes,operator:Faculdade Evangélica de Goianésia","lat":-15.3265075,"lng":-49.1351501},{"id":"5300817258","name":"Restaurante Universitário","tags":"amenity:restaurant","lat":-15.326413,"lng":-49.1354093}]