[{"id":"961587981","name":"Escola Estadual Dom Eliseu","tags":"addr:city:Unaí,addr:housenumber:398,addr:street:Rua Santa Luzia,amenity:school,operator:Secretaria de Estado de Educação de Minas Gerais","lat":-16.3554225,"lng":-46.8951496},{"id":"961604705","name":"Biblioteca Municipal Marechal Humberto de Alencar Castelo Branco","tags":"addr:city:Unaí,addr:housenumber:256,addr:street:Rua João Pinheiro,amenity:library","lat":-16.3569204,"lng":-46.9040546},{"id":"961617953","name":"Terminal Rodoviário Aprígio Furtado de Oliveira","tags":"addr:city:Unaí,amenity:bus_station","lat":-16.3605013,"lng":-46.905135},{"id":"961642366","name":"Museu Histórico e Cultural de Unaí “Maria Torres Gonçalves”","tags":"addr:city:Unaí,addr:housenumber:197,addr:street:Rua Doutor Joaquim Brochado,tourism:museum","lat":-16.3551548,"lng":-46.9077319},{"id":"961649885","name":"Escola Estadual Virgilio de Melo Franco","tags":"addr:city:Unaí,addr:housenumber:560,addr:street:Rua Natal Justino da Costa,amenity:school,operator:Secretaria de Estado de Educação de Minas Gerais","lat":-16.358794,"lng":-46.8995914},{"id":"961696700","name":"Escola Estadual Vigário Torres","tags":"addr:city:Unaí,addr:housenumber:280,addr:street:Avenida Governador Valadares,amenity:school,operator:Secretaria de Estado de Educação de Minas Gerais","lat":-16.3564288,"lng":-46.9066161},{"id":"961707590","name":"Escola Estadual Maria Assunes Gonçalves","tags":"addr:city:Unaí,addr:housenumber:20,addr:street:Rua Maria Galdina,amenity:school,operator:Secretaria de Estado de Educação de Minas Gerais","lat":-16.3746073,"lng":-46.9045375},{"id":"1042079946","name":"Aeroporto Municipal Rosival Hormidas Ulhôa","tags":"aeroway:aerodrome","lat":-16.3565006,"lng":-46.9277},{"id":"1228436877","name":"Polícia Civil - 50° Delegacia Regional","tags":"addr:housenumber:154,addr:street:Rua Alba Gonzaga,amenity:police","lat":-16.3615534,"lng":-46.90241},{"id":"1228437361","name":"Delegacia de Polícia Civil Adjunta","tags":"addr:housenumber:54,addr:street:Rua Luiz Alves,amenity:police","lat":-16.3531551,"lng":-46.8974965},{"id":"1228437883","name":"16ª Companhia de Polícia Militar Independente de Meio Ambiente e Trânsito","tags":"addr:housenumber:87,addr:street:Rua Anacleto Ferreira,amenity:police","lat":-16.3732007,"lng":-46.9026356},{"id":"1228438127","name":"28° BPM - Batalhão de Polícia Militar","tags":"addr:housenumber:488,addr:street:Rua Virgílio Justiniano Ribeiro,amenity:police,operator:Polícia Militar de Minas Gerais,operator:short:PMMG,operator:wikidata:Q6852134,website:http://www.pmmg.mg.gov.br","lat":-16.3591625,"lng":-46.9065328},{"id":"1228585870","name":"Hospital Municipal Doutor Joaquim Brochado","tags":"addr:housenumber:1585,addr:street:Rua Virgílio Justiniano Ribeiro,amenity:hospital","lat":-16.368522,"lng":-46.9011825},{"id":"1228586311","name":"Hospital Santa Mônica","tags":"addr:housenumber:325,addr:street:Avenida José Luiz Adjuto,amenity:hospital,website:https://santamonicaunai.com.br/","lat":-16.3577708,"lng":-46.9033822},{"id":"1228587390","name":"Itaú","tags":"addr:housenumber:145,addr:street:Rua Celina Lisboa Frederico,amenity:bank,brand:Itaú Unibanco,brand:wikidata:Q1424293,website:https://www.itau.com.br/","lat":-16.359777,"lng":-46.9026272},{"id":"1228588277","name":"Banco do Brasil","tags":"addr:housenumber:127,addr:street:Rua São José,amenity:bank,website:https://www.bb.com.br/","lat":-16.3607061,"lng":-46.9015172},{"id":"1228588278","name":"Agência do Banco Bradesco","tags":"addr:housenumber:145,addr:street:Rua São José,amenity:bank,website:http://www.bradesco.com.br","lat":-16.3610436,"lng":-46.9013779},{"id":"1238822441","name":"Faculdade de Ciências e Tecnologia de Unaí","tags":"addr:housenumber:422,addr:street:Rua Rio Preto,alt_name:FACTU,amenity:university,website:https://factu.br/","lat":-16.3555372,"lng":-46.9020658},{"id":"1239165763","name":"Caixa Econômica Federal","tags":"addr:housenumber:722,addr:street:Avenida Governador Valadares,amenity:bank,brand:Caixa Econômica Federal,brand:wikidata:Q835283,opening_hours:Mo-Fr 10:00-16:00,website:http://www.caixa.gov.br","lat":-16.3593087,"lng":-46.9046447},{"id":"1378196428","tags":"amenity:parking","lat":-16.3670956,"lng":-46.9000118},{"id":"4362770194","name":"Delegacia da Polícia Civil de Unaí","tags":"addr:housenumber:949,addr:postcode:38610-000,addr:street:Avenida Vereador João Narciso,amenity:police,name:pt:Delegacia da Polícia Civil de Unaí","lat":-16.352901,"lng":-46.8919346},{"id":"5058398212","name":"BR Mania","tags":"description:Loja de conveniência com Padaria, Bebidas, etc.,opening_hours:24/7,operator:Posto Noroeste,shop:convenience","lat":-16.3703424,"lng":-46.8965891},{"id":"5268352330","name":"AABB","tags":"leisure:sports_centre","lat":-16.3674181,"lng":-46.8906001}]