[{"id":"2713473845","name":"Polícia Militar - PCS 014","tags":"amenity:police,phone:+55 61 3910 1014","lat":-15.7702486,"lng":-47.7762789},{"id":"2726097147","name":"Polícia Militar - PCS 041","tags":"amenity:police,phone:+55 61 3910 1041","lat":-15.7563384,"lng":-47.7783745},{"id":"2726097173","name":"Polícia Militar - PCS 049","tags":"amenity:police,phone:+55 61 3910-1049,short_name:PMDF","lat":-15.7644802,"lng":-47.7833748},{"id":"2731342409","name":"Centro de Saúde 1 - Itapoã","tags":"amenity:hospital","lat":-15.745556,"lng":-47.769722},{"id":"2811101616","name":"Farol do Cerrado","tags":"tourism:attraction","lat":-15.7570527,"lng":-47.8103428},{"id":"4351963690","tags":"amenity:bar","lat":-15.7694757,"lng":-47.7809305},{"id":"6074228666","name":"Minerim Grill","tags":"addr:city:Brasília,addr:housenumber:14,addr:postcode:71572-113,addr:street:Avenida Transversal Quadra 21 conjunto M,addr:suburb:Paranoá,amenity:restaurant,cuisine:regional,delivery:yes,phone:+55 61 3369 0960","lat":-15.7690274,"lng":-47.7811136},{"id":"6906899184","name":"Quadra poliesportiva","tags":"addr:city:Paranoá,addr:suburb:Paranoá,building:public,leisure:sports_centre,sport:soccer;basketball;fitness","lat":-15.7736193,"lng":-47.778557},{"id":"6906921685","name":"Compre bem","tags":"addr:city:Brasília,addr:suburb:Paranoá,opening_hours:10:00-22:00,payment:coins:yes,payment:credit_cards:yes,payment:debit_cards:yes,shop:convenience","lat":-15.770871,"lng":-47.782021},{"id":"6906921693","name":"Shirley","tags":"payment:coins:yes,payment:credit_cards:yes,payment:debit_cards:yes,shop:convenience","lat":-15.767148,"lng":-47.7795838},{"id":"6906921694","name":"Reis","tags":"shop:supermarket","lat":-15.7644976,"lng":-47.7804939},{"id":"6970133670","name":"Centro de Educação Infantil 01 do Paranoá","tags":"amenity:school","lat":-15.7716573,"lng":-47.7757332},{"id":"6970133681","name":"Escola Classe 02 do Paranoá","tags":"amenity:school","lat":-15.7635973,"lng":-47.7783993},{"id":"6970133682","name":"Centro Educacional Darcy Ribeiro","tags":"amenity:school","lat":-15.762792,"lng":-47.7832058},{"id":"6970152619","name":"Colégio Esplanada","tags":"amenity:school","lat":-15.7627926,"lng":-47.7797241},{"id":"6970152620","name":"Escola Pica Pau Amarelo","tags":"amenity:school","lat":-15.7675017,"lng":-47.7808144},{"id":"6970152622","name":"Centro de Ensino Fundamental ABC","tags":"amenity:school","lat":-15.7651603,"lng":-47.7808464},{"id":"6970152623","name":"Centro Educacional Carmem Sallés","tags":"amenity:school","lat":-15.7687192,"lng":-47.7852015},{"id":"6992963001","name":"Policia Civil 6ª DP - Paranoá","tags":"amenity:police","lat":-15.7608651,"lng":-47.7820463},{"id":"6992963003","name":"Terminal Rodoviário do Paranoá","tags":"amenity:bus_station,bus:yes,public_transport:station","lat":-15.7603907,"lng":-47.7814055},{"id":"6993019544","name":"Praça do Paranoá","tags":"leisure:park","lat":-15.7759954,"lng":-47.7798466},{"id":"9909596273","name":"Escola Mundo Encantado","tags":"amenity:school","lat":-15.751446,"lng":-47.7721274},{"id":"9912807384","name":"Esquina 23","tags":"shop:mall","lat":-15.7667494,"lng":-47.780553},{"id":"10735544455","name":"Creche Carinho de Mãe","tags":"amenity:childcare","lat":-15.7496193,"lng":-47.7803692}]