[{"id":"4305050789","name":"Itaú","tags":"addr:city:Gurupi,addr:street:Avenida Goiás,addr:suburb:Setor Central,amenity:bank,brand:Itaú Unibanco,brand:wikidata:Q1424293,brand:wikipedia:pt:Itaú Unibanco,phone:+55 46 33312 4600","lat":-11.7294005,"lng":-49.0681668},{"id":"8426740550","name":"BEIRA RIO GOIAS","tags":"shop:supermarket","lat":-11.7212015,"lng":-49.0587718},{"id":"9511091496","tags":"amenity:hospital,healthcare:hospital","lat":-11.7208576,"lng":-49.0761517},{"id":"9511116745","name":"Grupo Educacional Moderno","tags":"addr:city:Gurupi,addr:housenumber:1340,addr:postcode:77405-100,addr:street:Rua Antônio Lisboa da Cruz,addr:suburb:Setor Central,amenity:school,phone:+55 63 3312 5555","lat":-11.7277478,"lng":-49.0667827},{"id":"9511138726","name":"Centro Educacional De Gurupi","tags":"addr:city:Gurupi,addr:housenumber:1843,addr:postcode:77410-050,addr:street:Avenida Ceará,addr:suburb:Setor Central,amenity:school,phone:+55 63 3312 2393","lat":-11.7327428,"lng":-49.0644895},{"id":"9511142960","name":"Instituto Educacional Passo A Passo","tags":"addr:city:Gurupi,addr:housenumber:1990,addr:postcode:77403-170,addr:street:Avenida Roraima,amenity:school","lat":-11.7232122,"lng":-49.084354},{"id":"9511145872","name":"Colegio Bernardo Sayao De Gurupi","tags":"addr:city:Gurupi,addr:housenumber:973,addr:postcode:77405-105,addr:street:Rua Presidente Juscelino Kubitschek,addr:suburb:Setor Central,amenity:school,phone:+55 63 3351 2271","lat":-11.7256967,"lng":-49.0693657},{"id":"9511146730","name":"Instituto Presbiteriano Araguaia","tags":"addr:city:Gurupi,addr:housenumber:1344,addr:postcode:77402-090,addr:street:Rua Presidente Getulio Vargas,addr:suburb:Setor Central,amenity:school,phone:+55 63 3312 3330","lat":-11.7299276,"lng":-49.0677617},{"id":"9511149506","name":"Escola Sagrado Coracao De Maria","tags":"addr:city:Gurupi,addr:housenumber:1660,addr:postcode:77403-050,addr:street:Avenida Paraná,addr:suburb:Setor Central,amenity:school,phone:+55 63 3312 1363","lat":-11.7270939,"lng":-49.0746523},{"id":"9511152347","name":"Instituto Tecnico Profissionalizante De Gurupi Ltda - Intep","tags":"addr:city:Gurupi,addr:housenumber:10,addr:postcode:77403-160,addr:street:Rua Newton Rocha Gomes,addr:suburb:Vila Alagoana,amenity:school","lat":-11.7216548,"lng":-49.0829713},{"id":"9520317489","name":"Escola Infantil Cantinho Feliz","tags":"addr:city:Gurupi,addr:housenumber:1345,addr:postcode:77410-050,addr:street:Avenida Ceará,addr:suburb:Setor Central,amenity:school","lat":-11.7295389,"lng":-49.0603213}]