[{"id":"4066647353","name":"Caixa Econômica Federal","tags":"amenity:bank,brand:Caixa Econômica Federal,brand:wikidata:Q835283,brand:wikipedia:pt:Caixa Econômica Federal","lat":-12.0872451,"lng":-45.7963692},{"id":"4066647354","name":"Correios","tags":"amenity:post_office,operator:Correios,operator:wikidata:Q3375004,operator:wikipedia:en:Correios","lat":-12.0874952,"lng":-45.7962891},{"id":"4067215352","tags":"amenity:school","lat":-12.0874931,"lng":-45.8069849},{"id":"4067286064","name":"Comercial Rio Grandense","tags":"name:pt:Agir luis Comercial Rio Grandense,shop:supermarket","lat":-12.0850124,"lng":-45.7986211},{"id":"4068256102","name":"Casa de Carnes Kerber","tags":"shop:supermarket","lat":-12.093762,"lng":-45.8029886},{"id":"4119589670","name":"Correios","tags":"amenity:post_office,operator:Correios,operator:wikidata:Q3375004,operator:wikipedia:en:Correios","lat":-12.0849825,"lng":-45.7989404},{"id":"4183551470","name":"Bar do Garite","tags":"amenity:bar","lat":-12.0943702,"lng":-45.7957474},{"id":"4446765297","name":"Mercado Caçula","tags":"shop:supermarket","lat":-12.1075892,"lng":-45.8016453},{"id":"4479336036","name":"Farmacia Avenida","tags":"addr:street:Rodovia Milton Santos,amenity:pharmacy,healthcare:pharmacy","lat":-12.0924597,"lng":-45.8005596},{"id":"4822762721","name":"Jam farmacia estrela","tags":"amenity:pharmacy,healthcare:pharmacy,name:pt:Jam farmacia estrela","lat":-12.0894658,"lng":-45.7974418},{"id":"4847677323","name":"Claudiana m","tags":"addr:street:Rua América Dourada,name:pt:Claudiana m,shop:supermarket","lat":-12.1027806,"lng":-45.8038904},{"id":"4847712021","name":"Marilene alves","tags":"addr:street:Rua América Dourada,name:pt:Marilene alves,shop:supermarket","lat":-12.1028438,"lng":-45.8040238},{"id":"4859434624","name":"Fernando frescon","tags":"addr:street:Rua Cafarnaum,amenity:pharmacy,name:pt:Francisco frescon","lat":-12.1069712,"lng":-45.8031084},{"id":"4860193726","name":"Supermercado arilem Compre bem","tags":"addr:street:Rua Ibitiba,name:pt:Supermercado arilem Compre bem,shop:supermarket","lat":-12.0972111,"lng":-45.8011767},{"id":"4860217124","name":"Supermercado Destak","tags":"addr:street:Rua Itabuna,shop:supermarket","lat":-12.1089566,"lng":-45.8028849},{"id":"4860248121","name":"Maria salete mercado salete","tags":"addr:street:rua irece,shop:supermarket","lat":-12.1059849,"lng":-45.8016748},{"id":"4860248122","name":"Hellen patricia igabelza","tags":"addr:street:Rua Cleriston de Andrade,name:pt:Hellen patricia igabelza,shop:supermarket","lat":-12.0884041,"lng":-45.8012125},{"id":"4860249221","name":"Super maraba","tags":"addr:street:Rua Itacaré,name:pt:Super maraba,shop:supermarket","lat":-12.0968663,"lng":-45.7962292},{"id":"4860250321","name":"Olimpica esporte e lazer","tags":"addr:street:Rua Pernambuco,name:pt:Olimpica esporte e lazer,shop:supermarket","lat":-12.0874069,"lng":-45.7965054},{"id":"4860250324","name":"Ivanete gromann supermercado imperial","tags":"addr:street:rua jose anchieta,shop:supermarket","lat":-12.0890989,"lng":-45.808977},{"id":"4860254121","name":"Santiago Magalhães","tags":"addr:street:Rua Castro Alves,amenity:pharmacy,healthcare:pharmacy,name:pt:Santiago Magalhães","lat":-12.0850428,"lng":-45.7981365},{"id":"4874515821","name":"Zenadio rodrigues da silva mercado sao Francisco","tags":"addr:street:Rua Seabra,name:pt:Zenadio rodrigues da silva mercado sao Francisco,shop:supermarket","lat":-12.110978,"lng":-45.8016425},{"id":"4888392321","name":"Agrosul","tags":"amenity:bus_station,bus:yes,name:pt:Agrosul,public_transport:station","lat":-12.0921996,"lng":-45.8048301},{"id":"4896737323","name":"Maurício silva supermacdo vitor","tags":"addr:street:Rua América Dourada,name:pt:Maurício silva supermacdo vitor,shop:supermarket","lat":-12.1025429,"lng":-45.8015886},{"id":"4901830221","name":"Adauto mercado shalon","tags":"addr:street:Rua Ibipitanga,name:pt:Adauto mercado shalon,shop:supermarket","lat":-12.0936458,"lng":-45.794976},{"id":"4902230622","name":"Colina representações","tags":"addr:street:Rua Pernambuco,name:pt:Colina representações,shop:supermarket","lat":-12.0888577,"lng":-45.7962537},{"id":"4915080621","name":"Antonia das crassas casa de carnes beira rio","tags":"addr:street:Rua Cravolandia,name:pt:Antonia das crassas casa de carnes beira rio,shop:supermarket","lat":-12.116331,"lng":-45.798593},{"id":"4929179723","name":"Drogabel","tags":"addr:street:Rua Jose Cardoso de Lima,amenity:pharmacy,healthcare:pharmacy","lat":-12.0889951,"lng":-45.7937005},{"id":"4929200225","name":"Drogaria São Paulo","tags":"addr:street:Rua Jose Cardoso de Lima,amenity:pharmacy,brand:Drogaria São Paulo,brand:wikidata:Q5308184,brand:wikipedia:en:Grupo DPSP,healthcare:pharmacy,name:pt:Drogaria sao paulo","lat":-12.0889504,"lng":-45.795459},{"id":"4944520922","name":"Ana Luhisa","tags":"addr:housenumber:538,addr:street:Rua Castro Alves,name:pt:Ana luhisa,shop:supermarket","lat":-12.0862578,"lng":-45.8059359},{"id":"4952525121","name":"G calvalcante silva mercado silva","tags":"addr:housenumber:1041,addr:street:Rua Cafarnaum,name:pt:G calvalcante silva mercado silva,shop:supermarket","lat":-12.1064769,"lng":-45.7998067},{"id":"4979845122","name":"Marindia cecchetti lahm uni pet","tags":"addr:street:Rua Rondonia,name:pt:Marindia cecchetti lahm uni pet,shop:supermarket","lat":-12.0852407,"lng":-45.7941503},{"id":"4989201821","name":"Zanini e rauber alimentos bom supermercado","tags":"addr:street:Rua Ibitiba,name:pt:Zanini e rauber alimentos bom supermercado,shop:supermarket","lat":-12.1014441,"lng":-45.8007584},{"id":"4989201822","name":"Silvino costa de araujo mercado florais","tags":"addr:street:Rua Ibitiara,name:pt:Silvino costa de araujo mercado florais,shop:supermarket","lat":-12.0987403,"lng":-45.7924229},{"id":"4994500228","name":"Sestari silva com prod limp limpa mais","tags":"addr:street:Rua Paulo Afonso,name:pt:Sestari silva com prod limp limpa mais,shop:supermarket","lat":-12.0956823,"lng":-45.7990764},{"id":"8978623594","name":"Lava-Rápido Sumaré","tags":"amenity:car_wash","lat":-12.0867182,"lng":-45.7968993}]