[{"id":"2623605661","name":"Rodoviaria Municipal de Ji-Paraná","tags":"amenity:bus_station,bus:yes,public_transport:station","lat":-10.8775006,"lng":-61.9558676},{"id":"4493283392","name":"Hospital JCR","tags":"amenity:hospital,healthcare:hospital,name:pt:Hospital JCR","lat":-10.8774308,"lng":-61.948126},{"id":"4493304194","name":"Supermercado Jeedá","tags":"name:pt:Supermercado Jeedá,shop:supermarket","lat":-10.8777856,"lng":-61.9473502},{"id":"4493314690","name":"IEE Marechal Rondon","tags":"amenity:school,name:pt:IEE Marechal Rondon","lat":-10.8776803,"lng":-61.9462747},{"id":"4493324593","name":"HSBC","tags":"amenity:bank,brand:HSBC,brand:wikidata:Q190464,brand:wikipedia:en:HSBC,name:pt:HSBC","lat":-10.8823303,"lng":-61.9449178},{"id":"4493324690","name":"Colégio Adventista","tags":"amenity:school,name:pt:Colégio Adventista","lat":-10.8767819,"lng":-61.9466256},{"id":"4493353290","name":"Caixa Econômica Federal","tags":"amenity:bank,brand:Caixa Econômica Federal,brand:wikidata:Q835283,brand:wikipedia:pt:Caixa Econômica Federal,name:pt:Caixa Econômica","lat":-10.8812492,"lng":-61.9453371},{"id":"4493353389","name":"Bradesco","tags":"amenity:bank,brand:Bradesco,brand:wikidata:Q806181,brand:wikipedia:en:Banco Bradesco,name:pt:Bradesco","lat":-10.8824109,"lng":-61.9447892},{"id":"4493353391","name":"Papo de Boleiro","tags":"amenity:bar,name:pt:Papo de Boleiro","lat":-10.8797406,"lng":-61.945521},{"id":"4493353489","name":"Banco do Brasil","tags":"amenity:bank,brand:Banco do Brasil,brand:wikidata:Q610817,brand:wikipedia:en:Banco do Brasil,name:pt:Banco do Brasil","lat":-10.8809194,"lng":-61.9462224},{"id":"4493353589","name":"Center Chopp","tags":"amenity:restaurant","lat":-10.8798306,"lng":-61.9455763},{"id":"4493359389","name":"Itaú","tags":"amenity:bank,brand:Itaú Unibanco,brand:wikidata:Q1424293,brand:wikipedia:pt:Itaú Unibanco,name:pt:Itau","lat":-10.8813616,"lng":-61.9451487},{"id":"4493361693","name":"Escola José Francisco","tags":"amenity:school,name:pt:Escola José Francisco","lat":-10.8693034,"lng":-61.947418},{"id":"4493361694","name":"Clube AABB","tags":"leisure:sports_centre","lat":-10.8830032,"lng":-61.9272881},{"id":"4493362689","name":"Irmãos Gonçalves","tags":"name:pt:Irmãos Gonçalves,shop:supermarket","lat":-10.8756777,"lng":-61.9556682},{"id":"4498332390","name":"Saint Germain Futebol Idoor","tags":"name:pt:Saint Germain Futebol Idoor,tourism:attraction","lat":-10.8650576,"lng":-61.9617477},{"id":"4498351090","name":"Lanchonete Beira Rio","tags":"amenity:restaurant,name:pt:Lanchonete Beira Rio","lat":-10.8803932,"lng":-61.9417467},{"id":"5376704800","name":"Praça dos Migrantes","tags":"description:Parque municipal recreativo multi-lazer,landuse:recreation_ground,leisure:park,opening_hours:24/7","lat":-10.8764538,"lng":-61.962684},{"id":"6187903300","name":"Supermercado Bom Dia","tags":"shop:supermarket","lat":-10.8869482,"lng":-61.9252753}]