[{"id":"2125714487","name":"Porto da Balsa BR230","tags":"amenity:ferry_terminal,ferry:yes,public_transport:station","lat":-7.494892,"lng":-63.0218648},{"id":"5672883021","name":"Banco do Brasil","tags":"addr:street:Avenida 5 de Setembro,amenity:bank,atm:yes,drive_through:no","lat":-7.5113609,"lng":-63.0249528},{"id":"5807291216","name":"Escola Estadual Senador Álvaro Maia Botelho","tags":"addr:city:HUMAITÁ AM,addr:postcode:69800000,addr:street:Rua 19 de Novembro,addr:suburb:CENTRO,amenity:school","lat":-7.5062627,"lng":-63.0239864},{"id":"6846627411","name":"Estádio Municipal","tags":"leisure:stadium","lat":-7.5110083,"lng":-63.0239129},{"id":"7191827889","tags":"amenity:restaurant","lat":-7.5146182,"lng":-63.036633}]