[{"id":"2358749591","name":"Instituto Nokia de Tecnologia (INdT)","tags":"addr:city:Manaus,addr:housenumber:7200,addr:street:Avenida Torquato Tapajós,addr:suburb:Colônia Terra Nova,amenity:school","lat":-3.0144389,"lng":-60.0293754},{"id":"3010874147","name":"C. E. Raio de Sol","tags":"amenity:school","lat":-3.0136005,"lng":-60.0449591},{"id":"3010874150","name":"E. M. Escitor Lima Barreto","tags":"amenity:school","lat":-3.0127273,"lng":-60.0449295},{"id":"3010874153","name":"CETI Prof. Garcitylzo do L. Silva","tags":"amenity:school","lat":-3.0139059,"lng":-60.0427114},{"id":"3010915297","name":"E. M. Profa Ana Cristina A. de Melo","tags":"amenity:school","lat":-3.0022915,"lng":-60.0458194},{"id":"3010915298","name":"Escola Municipal Pres. Manuel F. de C. Sales","tags":"amenity:school","lat":-3.0021043,"lng":-60.0425343},{"id":"3010929650","name":"E. Horizonte do Saber","tags":"amenity:school","lat":-2.9964044,"lng":-60.0428321},{"id":"3010959620","name":"C. E. Maria Eduarda","tags":"amenity:school","lat":-3.0016624,"lng":-60.0363811},{"id":"3010959623","name":"E. M. João Aparecido A. dos Santos","tags":"amenity:school","lat":-3.0007034,"lng":-60.0376152},{"id":"4699716177","name":"Estacionamento interno infraero","tags":"amenity:parking","lat":-3.0311098,"lng":-60.0442645},{"id":"5377849019","tags":"shop:convenience","lat":-3.0164522,"lng":-60.0295284},{"id":"5377849020","tags":"shop:convenience","lat":-3.0115734,"lng":-60.0326721},{"id":"5377850322","tags":"shop:convenience","lat":-2.9971482,"lng":-60.0316736},{"id":"5401104023","tags":"shop:convenience","lat":-3.0052091,"lng":-60.0389736},{"id":"5401108677","tags":"shop:convenience","lat":-3.0009801,"lng":-60.0435827}]