[{"id":"206147977","name":"Encontro das Águas","tags":"name:en:Meeting of the waters,name:fr:Rencontre des eaux,tourism:attraction,wikidata:Q656597,wikipedia:pt:Encontro das Águas","lat":-3.1188509,"lng":-59.8927349},{"id":"3013328942","name":"E. M. São Luiz","tags":"amenity:school","lat":-3.0847391,"lng":-59.8876519},{"id":"3013328944","name":"CMEI Tancredo Neves","tags":"amenity:school","lat":-3.0859417,"lng":-59.8879684},{"id":"3013328961","name":"E. M. N. S. das Graças","tags":"amenity:school","lat":-3.086855,"lng":-59.8830251},{"id":"3013328968","name":"E. M. Lili Benchimol","tags":"amenity:school","lat":-3.0871523,"lng":-59.8836017},{"id":"3013345801","name":"E. E. Gilberto Mestrinho","tags":"amenity:school","lat":-3.0866622,"lng":-59.8909054},{"id":"3013345802","name":"Arte de Crescer","tags":"amenity:school","lat":-3.0867559,"lng":-59.8900658},{"id":"3013345808","name":"Luz do Saber","tags":"amenity:school","lat":-3.0875942,"lng":-59.8910636},{"id":"3013375233","name":"Educandário Espírita Sano Agostinho","tags":"addr:street:Rua Nova República,amenity:school","lat":-3.0824036,"lng":-59.8955402},{"id":"3013375239","name":"E. E. Manuel A. de Souza","tags":"amenity:school","lat":-3.0929214,"lng":-59.8968787},{"id":"3013375241","name":"E. M. Violeta de M. Areosa","tags":"amenity:school","lat":-3.0838231,"lng":-59.891423},{"id":"3013375244","name":"CMEI Mª Emília Mestrinho","tags":"amenity:school","lat":-3.0941453,"lng":-59.8955268},{"id":"3013375248","name":"E. M. Padre João D'vries","tags":"amenity:school","lat":-3.0840615,"lng":-59.8957763}]