[{"id":"2614129011","name":"AV 401 Sul (AVSO 40)","tags":"leisure:park","lat":-10.2030018,"lng":-48.335344},{"id":"3818121150","name":"Banco do Brasil","tags":"amenity:bank,brand:wikidata:Q610817,brand:wikipedia:pt:Banco do Brasil,drive_through:no,website:https://www.bb.com.br/","lat":-10.2086712,"lng":-48.3326016},{"id":"3818149747","name":"Banco Itaú","tags":"amenity:bank,drive_through:no,website:https://www.itau.com.br/,wikidata:Q13582383,wikipedia:pt:Itaú","lat":-10.2224901,"lng":-48.3327384},{"id":"4327526451","name":"Banco Bradesco","tags":"addr:housenumber:11,addr:street:Avenida Teotônio Segurado,amenity:bank,brand:wikidata:Q806181,brand:wikipedia:pt:Bradesco","lat":-10.2075099,"lng":-48.3327591},{"id":"5022662121","name":"Lava Jato Pioneiro","tags":"addr:street:Alameda 05,amenity:car_wash,name:pt:Lava Jato Pioneiro,opening_hours:Mo-Su 08:00-18:00,phone:+55 63 9 9212 9099","lat":-10.2014694,"lng":-48.3176419},{"id":"5058763294","name":"Farmácia Droga Sul","tags":"amenity:pharmacy,opening_hours:Mo-Su 08:00-22:00,phone:+55 63 3216-1204","lat":-10.2172505,"lng":-48.3361745},{"id":"5067664576","name":"Polícia Militar - Quartel do Comando Geral","tags":"amenity:police","lat":-10.1991207,"lng":-48.3266205},{"id":"5144254221","name":"Lavajato Jetcar","tags":"amenity:car_wash","lat":-10.222741,"lng":-48.3298257},{"id":"5144254227","name":"Cantina e Pizzaria Boamassa","tags":"amenity:restaurant,cuisine:italian,opening_hours:Tu-Sa 18:00-24:00; Su 11:00-15:00,18:00-23:00,phone:+55 63 3225-1713,website:http://www.cantinaboamassa.com.br/","lat":-10.2180055,"lng":-48.3308369},{"id":"5227359702","name":"Fogão a Lenha","tags":"addr:housenumber:4-A,addr:street:Avenida Teotônio Segurado,amenity:restaurant,cuisine:regional;pizza,opening_hours:Tu-Su 11:00-14:30,19:00-23:00,phone:+55 63 3215-5868,website:http://www.fogaoalenhapalmas.com.br/","lat":-10.2096831,"lng":-48.3327922},{"id":"6124014507","name":"Posto Gasolina","tags":"amenity:cafe","lat":-10.2271059,"lng":-48.3176465},{"id":"6409713136","name":"Relógio de Flores","tags":"addr:city:Palmas,addr:housenumber:s/n,addr:postcode:77021-632,addr:street:402 Sul, Av. LO 9,addr:suburb:Plano Diretor Sul,tourism:attraction","lat":-10.204333,"lng":-48.3301393},{"id":"6414682528","name":"Casa Suçuapara","tags":"addr:city:Palmas,addr:housenumber:s/n,addr:postcode:77021-638,addr:street:Área Verde 308 Sul, Av. NS 4,addr:suburb:Plano Diretor Sul,tourism:museum","lat":-10.2092764,"lng":-48.3242447},{"id":"6416875679","name":"Biblioteca Jaime Câmara","tags":"amenity:library,operator:Prefeitura de Palmas","lat":-10.1995729,"lng":-48.3316335},{"id":"6439257369","name":"Reifetório do Campus","tags":"amenity:restaurant,cuisine:chicken;burger,opening_hours:sunrise-sunset,outdoor_seating:yes,wheelchair:yes","lat":-10.2004195,"lng":-48.3125005},{"id":"6439257370","tags":"access:permissive,amenity:parking,capacity:50,fee:no,operator:Instituto Fedrral de Educaão, Ciência e Tecnologia do Tocantins,parking:surface,surface:concrete","lat":-10.1984449,"lng":-48.3119613},{"id":"8707300778","name":"Hospital Estadual de Combate ao Covid-19 - Palmas - T0","tags":"addr:city:Palmas,addr:postcode:77016008,addr:street:Rua NS-A,addr:suburb:Plano Diretor Sul,amenity:hospital,healthcare:hospital,healthcare:speciality:covid19","lat":-10.2152734,"lng":-48.3354394},{"id":"9571975382","name":"Centro De Ensino Integrado Das Americas - Escola Maple Bear De Palmas","tags":"addr:city:Palmas,addr:postcode:77022-002,addr:street:Avenida Teotônio Segurado,amenity:school","lat":-10.2204049,"lng":-48.3326165},{"id":"9571979781","name":"Colegio Dom Bosco Original","tags":"addr:city:Palmas,addr:housenumber:65,addr:postcode:77022-354,addr:street:Alameda 22,amenity:school","lat":-10.2297307,"lng":-48.3255623},{"id":"9571988104","name":"Colegio Palmas","tags":"addr:city:Palmas,addr:postcode:77022-002,addr:street:Avenida Teotônio Segurado,amenity:school,phone:+55 63 3214 5001","lat":-10.2188528,"lng":-48.3325683},{"id":"9572011853","name":"Colegio Coc Palmas","tags":"addr:city:Palmas,addr:postcode:77020-454,addr:street:Rua NS-B,amenity:school,phone:+55 63 3026 6760","lat":-10.1962512,"lng":-48.3317824}]