[{"id":"2613428838","name":"Católica do Tocantins","tags":"amenity:university","lat":-10.270776,"lng":-48.3315664},{"id":"4296695695","name":"Rodoshopping","tags":"shop:mall","lat":-10.2572603,"lng":-48.3163817},{"id":"5022666521","name":"Almoxarifado Municipal","tags":"addr:street:Alameda 04,amenity:pharmacy,name:pt:Almoxarifado Municipal,opening_hours:Mo-Fr 08:00-18:00","lat":-10.2405839,"lng":-48.3171662},{"id":"5127195447","name":"Atacado Marvi","tags":"contact:phone:+55 63 3217-7299,shop:supermarket","lat":-10.2455611,"lng":-48.3325133},{"id":"5230462907","name":"Mix Supermercado","tags":"shop:supermarket","lat":-10.2426775,"lng":-48.3373252},{"id":"6331534397","tags":"amenity:restaurant","lat":-10.2480728,"lng":-48.3116509},{"id":"6409093603","name":"CEULP/ULBRA","tags":"addr:city:Palmas,addr:housenumber:s/n,addr:postcode:77019-900,addr:street:1501 Sul, Av. Joaquim Teotônio Segurado,addr:suburb:Plano Diretor Sul,amenity:university,website:https://ulbra-to.br/","lat":-10.277573,"lng":-48.3350622},{"id":"6414762110","name":"Biblioteca Martinho Lutero","tags":"addr:city:Palmas,addr:housenumber:s/n,addr:postcode:77019-900,addr:street:1501 Sul, Av. Joaquim Teotônio Segurado,addr:suburb:Plano Diretor Sul,amenity:library,operator:CEULP/ULBRA","lat":-10.278127,"lng":-48.3339656},{"id":"7057240501","name":"Assaí Atacadista","tags":"addr:city:Palmas,addr:postcode:77061-900,addr:street:Avenida Teotônio Segurado,brand:Assaí Atacadista,brand:wikidata:Q28679415,brand:wikipedia:pt:Assaí Atacadista,contact:phone:+55 063 3228 2901; +55 063 3228 2902,official_name:Sendas Distribuidora S/A,opening_hours:Mo-Sa 07:00-22:00; Su 08:00-18:00; PH 08:00-18:00,operator:GPA,phone:+55 063 3228 2900,reg_name:Assaí Palmas,shop:supermarket,website:https://www.assai.com.br/,wheelchair:yes","lat":-10.2739087,"lng":-48.331368},{"id":"9213190776","name":"EI ! PIZZA","tags":"addr:city:Palmas,addr:housenumber:3,addr:postcode:77023-528,addr:street:Avenida LO-23,addr:suburb:1006 SUL,amenity:restaurant,cuisine:pizza,opening_hours:19:00-01:00,opening_hours:covid19:open,phone:+5563991251551","lat":-10.242861,"lng":-48.3229292},{"id":"9571927163","name":"Colegio Criativo Palmas","tags":"addr:city:Palmas,addr:housenumber:02,addr:postcode:77024-526,addr:street:Alameda 24,amenity:school","lat":-10.2494081,"lng":-48.3198734},{"id":"9571974107","name":"Pequeninos Sociedade Educacional","tags":"addr:city:Palmas,addr:housenumber:01,addr:postcode:77023-410,addr:street:Alameda 19,amenity:school,phone:+55 63 3217 3216","lat":-10.2420546,"lng":-48.323843}]