[{"id":"4787319621","name":"Lanchonete Ponctual","tags":"amenity:restaurant,name:pt:Lanchonete Ponctual","lat":-9.8298686,"lng":-45.3399771},{"id":"4787319821","name":"Farmácia da praça","tags":"amenity:pharmacy,healthcare:pharmacy","lat":-9.8300585,"lng":-45.3398223},{"id":"4790837921","name":"Primavera","tags":"amenity:restaurant,name:pt:Primavera","lat":-9.8299575,"lng":-45.3400919},{"id":"9448001385","name":"Escola De Educacao Infantil Creche Tia Ana","tags":"amenity:school","lat":-9.8344933,"lng":-45.3352989},{"id":"9448038085","name":"Escola Municipal Marechal Deodoro","tags":"amenity:school","lat":-9.8325984,"lng":-45.3355001},{"id":"9448040624","name":"Escola Municipal Infantil Sao Raimundo Nonato","tags":"amenity:school","lat":-9.8290702,"lng":-45.3427099},{"id":"9448065704","name":"Ginasio Divina Pastora","tags":"addr:city:Gilbués,addr:postcode:64930-000,addr:street:Rua Fortunato Mascarenhas,addr:suburb:Centro,amenity:school,phone:+55 89 3578 1607","lat":-9.8333727,"lng":-45.3424095}]