[{"id":"1875150727","name":"Ponto Max","tags":"shop:supermarket","lat":-7.5289008,"lng":-46.0403245},{"id":"1876235594","name":"Centro de Ensino Médio Dom Daniel Comboni","tags":"amenity:school","lat":-7.5299532,"lng":-46.0344099},{"id":"6918432778","name":"Escola Municipal Professor Joca Rego","tags":"addr:city:Balsas,addr:postcode:65800-000,addr:street:Rua Praça do Nazaré,addr:suburb:Nazaré,amenity:school","lat":-7.5373399,"lng":-46.042435},{"id":"6926668215","tags":"amenity:hospital,healthcare:hospital","lat":-7.5276335,"lng":-46.0522179},{"id":"6926668216","tags":"amenity:school","lat":-7.5276692,"lng":-46.0527102},{"id":"6984548641","tags":"amenity:school","lat":-7.5387426,"lng":-46.0327122},{"id":"6984548643","name":"EM Monsenhor Clovis Vidigal","tags":"addr:city:Balsas,addr:postcode:65800-000,addr:street:Avenida Sete de Setembro,addr:suburb:Trizidela,amenity:school,phone:+55 99 3541 3760","lat":-7.5359636,"lng":-46.0356933},{"id":"6984548644","tags":"amenity:school","lat":-7.5380835,"lng":-46.0348103},{"id":"6984548645","name":"Delegacia","tags":"amenity:police","lat":-7.5407741,"lng":-46.0403205},{"id":"9032714736","name":"Escola Educar Dom Bosco","tags":"addr:city:Balsas,addr:postcode:65800-000,addr:street:Rua Antônio Jacobina,addr:suburb:Centro,amenity:school,phone:+55 99 3541 2368","lat":-7.5321628,"lng":-46.0415004},{"id":"9038896644","name":"Em João Botelho Filho","tags":"amenity:school","lat":-7.5219825,"lng":-46.0260428},{"id":"9039011775","name":"Creche São Sebastião","tags":"addr:city:Balsas,addr:postcode:65800-000,addr:street:Rua Izidoro Tourinho,addr:suburb:Cajueiro,amenity:school","lat":-7.5256494,"lng":-46.0329066},{"id":"9040867562","name":"Em Agostinho Neves","tags":"amenity:school","lat":-7.5437761,"lng":-46.0467146},{"id":"9099094499","name":"Ce Santa Maria Madalena Postel","tags":"amenity:school","lat":-7.5438041,"lng":-46.0294037},{"id":"9137938274","name":"Complexo Educacional Doce Infancia","tags":"amenity:school","lat":-7.5273943,"lng":-46.0398192},{"id":"9137970436","name":"Apae - Esc Especial Santo Antônio De Balsas","tags":"amenity:school","lat":-7.5299521,"lng":-46.0349436},{"id":"9137972069","name":"Ce Aprender Pensando","tags":"addr:city:Balsas,addr:housenumber:800,addr:postcode:65800-000,addr:street:Rua Doutor Justo Pedrosa,addr:suburb:Centro,amenity:school","lat":-7.5317593,"lng":-46.0373084},{"id":"9137973145","name":"Creche Nossa Senhora Das Gracas","tags":"addr:city:Balsas,addr:street:Avenida Dom Diogo Parodi,amenity:school","lat":-7.5320227,"lng":-46.0308484},{"id":"9137994272","name":"Colegio Eiga","tags":"addr:city:Balsas,addr:housenumber:32,addr:postcode:65800-000,addr:street:Rua Presidente Juscelino Kubitscheck,addr:suburb:Cajueiro,amenity:school","lat":-7.5278458,"lng":-46.0346301},{"id":"9138002835","name":"Centro De Ensino Didacio Santos","tags":"addr:city:Balsas,addr:housenumber:35,addr:postcode:65800-000,addr:street:Avenida Coronel Fonseca,addr:suburb:Centro,amenity:school,phone:+55 99 3541 3569","lat":-7.5281787,"lng":-46.0368719},{"id":"9138007814","name":"Ce Castelinho Do Saber","tags":"amenity:school","lat":-7.5323573,"lng":-46.0410035},{"id":"9138010635","name":"Em Professor Carlomagno Pereira Lima","tags":"amenity:school","lat":-7.5418556,"lng":-46.037144},{"id":"9138135462","name":"Centro De Ensino José Pereira De Sousa","tags":"amenity:school","lat":-7.5402815,"lng":-46.0403973},{"id":"9139872907","name":"Centro Educacional Sonho De Crianca","tags":"amenity:school","lat":-7.5363649,"lng":-46.0496008},{"id":"9139879133","name":"Centro De Ensino Hora De Aprender","tags":"amenity:school","lat":-7.5279328,"lng":-46.0463681},{"id":"9139892724","name":"Escola Betel Monte Da Sabedoria","tags":"addr:street:Rua Vinte,amenity:school","lat":-7.5380286,"lng":-46.0494966},{"id":"9139897980","name":"Centro De Ensino Aquarela","tags":"addr:city:Balsas,addr:postcode:65800-000,addr:street:Rua Seis,addr:suburb:Bacaba,amenity:school","lat":-7.5395507,"lng":-46.0449412},{"id":"9139898020","name":"Centro De Ensino Professor Luis Rego","tags":"amenity:school","lat":-7.5350889,"lng":-46.0476992},{"id":"9139927293","name":"Escola Municipal Elias Alfredo Cury","tags":"amenity:school","lat":-7.5189583,"lng":-46.040547},{"id":"9139935865","name":"Ce Caminho Do Futuro","tags":"amenity:school","lat":-7.5163504,"lng":-46.0377892},{"id":"9139946949","name":"Esc Infantil Brincando E Aprendendo","tags":"amenity:school","lat":-7.5216631,"lng":-46.0408806},{"id":"9139947441","name":"Creche São Pedro","tags":"addr:city:Balsas,addr:postcode:65800-000,addr:street:Avenida Tito Coelho,addr:suburb:Bacaba,amenity:school","lat":-7.5430408,"lng":-46.0448931},{"id":"9144768104","name":"Escolinha Construindo O Saber","tags":"amenity:school","lat":-7.5165254,"lng":-46.0499165}]