[{"id":"5293775907","name":"Mercado Peixoto","tags":"addr:city:Grajaú,addr:postcode:65940000,addr:street:Rua da Mangueira,addr:suburb:Rodoviaria,shop:supermarket","lat":-5.8150104,"lng":-46.1320414},{"id":"5293784958","name":"Zuqui Bar e Restaurante","tags":"addr:city:Grajaú,addr:postcode:65940000,addr:suburb:Rodoviaria,amenity:restaurant,cuisine:regional,outdoor_seating:yes,smoking:yes,takeaway:yes","lat":-5.8166017,"lng":-46.1317709},{"id":"5293796220","name":"Mercearia Mello","tags":"addr:city:Grajaú,addr:postcode:65940000,addr:street:Avenida Professor Hilton Nunes,addr:suburb:Rodoviaria,shop:supermarket","lat":-5.8149983,"lng":-46.1344833},{"id":"5308231624","name":"Banco do Brasil","tags":"addr:street:Rua 7 de Setembro,amenity:bank,brand:Banco do Brasil,brand:wikidata:Q610817,brand:wikipedia:en:Banco do Brasil","lat":-5.8181472,"lng":-46.1420219},{"id":"5308244722","name":"Bradesco","tags":"amenity:bank,brand:Bradesco,brand:wikidata:Q806181,brand:wikipedia:en:Banco Bradesco","lat":-5.81868,"lng":-46.1419444},{"id":"9033200353","name":"Escola Evangelica Dinalva Barros","tags":"amenity:school","lat":-5.8155095,"lng":-46.136693},{"id":"9040528827","name":"Em Professora Marly Araujo","tags":"addr:city:Grajaú,addr:postcode:65940-000,addr:street:Rua Major Gustavo Santos,addr:suburb:Aeroporto,amenity:school","lat":-5.8083593,"lng":-46.11955},{"id":"9040866201","name":"Escola Municipal Frei Benjamim De Borno","tags":"amenity:school","lat":-5.8215333,"lng":-46.1356755},{"id":"9041901978","name":"Em Paulo Ferraz De Souza","tags":"addr:city:Grajaú,addr:postcode:65940-000,addr:street:Rua Doutor João Batista Nava,addr:suburb:Fátima,amenity:school,phone:+55 99 3532 7024","lat":-5.8079724,"lng":-46.122428},{"id":"9056759022","name":"Pre Escola Balao Magico","tags":"addr:city:Grajaú,addr:postcode:65940-000,addr:street:Rua Mercia Lima de Arruda,addr:suburb:Vila Viana,amenity:school","lat":-5.8212958,"lng":-46.1350022},{"id":"9155528270","name":"Pre Escola Dos Anjos","tags":"addr:city:Grajaú,addr:postcode:65940-000,addr:street:Rua Santa Luzia,addr:suburb:Aeroporto,amenity:school","lat":-5.8149782,"lng":-46.1223498},{"id":"9156319051","name":"Em Professora Maria Eliza Cunha Lima","tags":"addr:city:Grajaú,addr:postcode:65940-000,addr:street:Rua marly Sarney,addr:suburb:Rodoviária,amenity:school","lat":-5.811404,"lng":-46.138334},{"id":"9170422673","name":"Em Portal Do Saber","tags":"amenity:school","lat":-5.8094747,"lng":-46.1236436},{"id":"9170444952","name":"Pre Escola Nossa Senhora De Fatima","tags":"amenity:school","lat":-5.8146711,"lng":-46.1356474},{"id":"9170449900","name":"Escola Visao Junior","tags":"amenity:school","lat":-5.8169378,"lng":-46.1379014},{"id":"9170454571","name":"Em Prof Osvaldo Barros","tags":"amenity:school","lat":-5.8138027,"lng":-46.1349037},{"id":"9170454572","name":"Creche E Pre - Escola Menino Deus","tags":"amenity:school","lat":-5.8128251,"lng":-46.1326946},{"id":"9170454575","name":"Em Paulo Freire","tags":"amenity:school","lat":-5.8173616,"lng":-46.1338791},{"id":"9170597307","tags":"amenity:school","lat":-5.8085105,"lng":-46.1241735},{"id":"9170608638","name":"Pre Escola Tia Zuzu","tags":"amenity:school","lat":-5.8044809,"lng":-46.1224514},{"id":"9171599046","name":"Em Bom Samaritano","tags":"amenity:school","lat":-5.8090403,"lng":-46.1140561},{"id":"9171610633","name":"Pre Escola Semeando O Saber","tags":"amenity:school","lat":-5.8081335,"lng":-46.1131898}]