[{"id":"9056766639","name":"Pre- Escala Zary Muratary","tags":"amenity:school","lat":-5.8398487,"lng":-45.9693865},{"id":"9099100252","name":"Pre-Escola Indigena Itayhaw","tags":"amenity:school","lat":-5.8438578,"lng":-45.9709127},{"id":"9152394683","name":"Pre Escola Indigena Cacique Rosalina","tags":"amenity:school","lat":-5.8284492,"lng":-45.9741489},{"id":"9152420855","name":"Em Indigena Upuahu","tags":"amenity:school","lat":-5.8303253,"lng":-45.9751906},{"id":"9152450895","name":"Em Indigena Zariz Vildelina Lopes - Arymy","tags":"amenity:school","lat":-5.8023488,"lng":-45.970199},{"id":"9152452923","name":"Pre Escola Indigena Tamarina","tags":"amenity:school","lat":-5.8292693,"lng":-45.9773988}]