[{"id":"3636010204","name":"Oriximiná","tags":"amenity:ferry_terminal,ferry:yes,public_transport:station","lat":-1.7704393,"lng":-55.8685386},{"id":"10691425346","name":"milla cosméticos","tags":"addr:city:oriximina,addr:postcode:68270-000,addr:street:Avenida Independência,addr:suburb:sao jose do operario,shop:beauty","lat":-1.776397,"lng":-55.8546732},{"id":"10691446294","name":"escola  municipal de ensino fundamental professora joana bandeira monteiro","tags":"addr:city:oriximina,addr:housenumber:2772,addr:postcode:68270-000,addr:street:Avenida Sete de Setembro,addr:suburb:santa terezinha,amenity:school","lat":-1.7755267,"lng":-55.8595047},{"id":"10691466784","name":"E.M.E.F Laura vanderley Diniz","tags":"amenity:school","lat":-1.7721672,"lng":-55.8638821},{"id":"10691485751","name":"Escola municipal de ensino Santa Maria Goretti","tags":"amenity:school","lat":-1.7716694,"lng":-55.8630446}]