[{"id":"5896788285","name":"Praça","tags":"leisure:park","lat":-2.451527,"lng":-54.0985354},{"id":"5896788286","name":"Comecial Prata","tags":"shop:supermarket","lat":-2.4536612,"lng":-54.0975397},{"id":"5896788287","name":"Escola São Francisco de Assis","tags":"amenity:school","lat":-2.4538966,"lng":-54.0987208},{"id":"5896788288","name":"Mercantil 5 Irmãos","tags":"shop:supermarket","lat":-2.4518006,"lng":-54.09835},{"id":"5896788290","name":"Mercantil C&D","tags":"shop:supermarket","lat":-2.4524684,"lng":-54.0991151},{"id":"5901813749","name":"Mercantil andrade","tags":"shop:supermarket","lat":-2.4547937,"lng":-54.0981629},{"id":"5901813750","name":"Escola Professor Manuel Alvarenga","tags":"amenity:school","lat":-2.4515692,"lng":-54.0977357},{"id":"5901813751","name":"Super  VM","tags":"shop:supermarket","lat":-2.4511885,"lng":-54.0993993},{"id":"5902270214","tags":"amenity:grave_yard,religion:christian","lat":-2.4569787,"lng":-54.0988138}]