[{"id":"5259093627","name":"Praça cívica de santana","tags":"tourism:attraction","lat":-0.0419621,"lng":-51.1744882},{"id":"9298158917","name":"Pilates Eliana Freitas","tags":"internet_access:wlan,leisure:fitness_centre","lat":-0.0274815,"lng":-51.1787003},{"id":"10677469714","name":"Extrafarma","tags":"amenity:pharmacy,healthcare:pharmacy","lat":-0.0438268,"lng":-51.1667365},{"id":"10677469804","name":"Pague Menos","tags":"amenity:pharmacy,healthcare:pharmacy","lat":-0.0418097,"lng":-51.1729051},{"id":"10732112712","name":"Farmácia Mais Saúde","tags":"amenity:pharmacy,healthcare:pharmacy","lat":-0.026207,"lng":-51.1774493},{"id":"10732112713","name":"Farmácia Anastácia","tags":"amenity:pharmacy,healthcare:pharmacy","lat":-0.0268449,"lng":-51.172752}]