[{"id":"1042072602","name":"Aeródromo Haras Bela Vista","tags":"aeroway:aerodrome","lat":-5.541667,"lng":-47.5024986},{"id":"1773214141","name":"Atacadão","tags":"brand:Atacadão,brand:wikidata:Q2868739,brand:wikipedia:en:Atacadão,shop:supermarket","lat":-5.5486499,"lng":-47.4617417},{"id":"1801254249","name":"São Miguel do Tocantins","tags":"amenity:ferry_terminal,ferry:yes,public_transport:station","lat":-5.5395787,"lng":-47.4959304},{"id":"8607677550","name":"Supermercado Irmão Sousa","tags":"addr:housenumber:3665,opening_hours:Mo-Sa 07:00-20:00; Su 07:00-12:00,shop:supermarket","lat":-5.5437682,"lng":-47.4733755},{"id":"8796667112","name":"Mercantio FC","tags":"addr:street:Rua Godofredo Viana,opening_hours:Mo-Sa 07:30-22:00, 07:30-18:00,shop:supermarket","lat":-5.5439123,"lng":-47.4741356},{"id":"9035335474","name":"EM Fraternidade","tags":"addr:city:Imperatriz,addr:housenumber:3519,addr:postcode:65901-500,addr:street:Rua Coriolando Milhomem,addr:suburb:São Salvador,amenity:school","lat":-5.5419912,"lng":-47.4715845},{"id":"9038922204","name":"EM São Sebastião","tags":"addr:city:Imperatriz,addr:housenumber:10,addr:postcode:65900-772,addr:street:Rua Um,addr:suburb:Caema,amenity:school","lat":-5.5398808,"lng":-47.485768},{"id":"9165802550","name":"Col Frei Paulo De Graymoor","tags":"amenity:school","lat":-5.543289,"lng":-47.4712022},{"id":"9165825656","name":"Escolinha Alianca","tags":"amenity:school","lat":-5.5480784,"lng":-47.4716313},{"id":"9165826794","name":"Em Santa Laura","tags":"amenity:school","lat":-5.5418292,"lng":-47.4780699},{"id":"9165830206","name":"Escola Municipal Tiradentes Ii","tags":"amenity:school","lat":-5.5487914,"lng":-47.4747437},{"id":"9165850690","name":"Em Tomazia Carvalho","tags":"amenity:school","lat":-5.5423325,"lng":-47.4799581},{"id":"9165851457","name":"Escola Municipal Tiradentes Ii","tags":"amenity:school","lat":-5.5465314,"lng":-47.4775273},{"id":"9165855195","name":"Creche Parque Anhanguera","tags":"amenity:school","lat":-5.5551954,"lng":-47.4693822},{"id":"9165856250","name":"Escolinha Alianca","tags":"amenity:school","lat":-5.5485871,"lng":-47.4712653},{"id":"9165858716","name":"Esc Municipalizada Frei Paulo De Graymoor","tags":"amenity:school","lat":-5.5433317,"lng":-47.4710422},{"id":"9165860480","name":"Colegio Frei Gil","tags":"amenity:school","lat":-5.5392614,"lng":-47.4733997},{"id":"9165861037","name":"Em Santos Dumont","tags":"amenity:school","lat":-5.5429589,"lng":-47.4803849},{"id":"9165864599","name":"Em Sto Inacio De Loyola","tags":"amenity:school","lat":-5.5392216,"lng":-47.4776171},{"id":"9545923395","name":"Escola Municipal Turma Da Monica","tags":"amenity:school","lat":-5.5412744,"lng":-47.5038864},{"id":"9611959808","name":"Pizzaria Maverick","tags":"addr:street:Rua Marechal Castelo Branco,amenity:restaurant,description:Pizzaa de vários sabores","lat":-5.5392599,"lng":-47.4763794}]