[{"id":"9020106421","name":"Centro Educacional Santa Clara","tags":"amenity:school","lat":-4.9404639,"lng":-47.5064927},{"id":"9020111699","name":"EM Gastão Vieira","tags":"addr:city:Açailândia,addr:postcode:65930-000,addr:street:Rua Vinte e Um de Abril,amenity:school","lat":-4.9453818,"lng":-47.5051055},{"id":"9020154077","name":"EM Tânia Leite Santos","tags":"addr:city:Açailândia,addr:housenumber:557,addr:postcode:65930-000,addr:street:Rua João Pessoa,addr:suburb:Jacu,amenity:school","lat":-4.9452106,"lng":-47.5060717},{"id":"9020239240","name":"EM Monteiro Lobato","tags":"addr:city:Açailândia,addr:postcode:65930-000,addr:street:Rua Nove de Julho,addr:suburb:Jacu,amenity:school,phone:+55 99 9 9120 9942","lat":-4.944274,"lng":-47.5076482},{"id":"9020875242","name":"EM Educação Infantil Pimpolho","tags":"addr:city:Açailândia,addr:housenumber:25,addr:postcode:65930-000,addr:street:Rua Pedro Maranhão,addr:suburb:Vila Maranhão,amenity:school,phone:+55 99 3538 0584","lat":-4.9415233,"lng":-47.5059038},{"id":"9020875521","name":"EM Kiola Sarney","tags":"addr:city:Açailândia,addr:postcode:65930-000,addr:street:Rua Lamante Júnior,addr:suburb:Vila Maranhão,amenity:school","lat":-4.9394483,"lng":-47.5083373},{"id":"9021251225","name":"Centro de Ensino Professora Norma Suely Mendes","tags":"addr:city:Açailândia,addr:housenumber:1218,addr:postcode:65930-000,addr:street:Rua Vinte e Um de Abril,addr:suburb:Jacu,amenity:school,phone:+55 99 3538 2425","lat":-4.9447569,"lng":-47.504923},{"id":"10286086809","tags":"addr:postcode:65930000,addr:street:avenida 2,amenity:restaurant,internet_access:wlan,opening_hours:Mo-Su 09:00-18:00","lat":-4.9353699,"lng":-47.5097403}]