[{"id":"6806053218","name":"Banco do Brasil","tags":"addr:city:Olho d'Água das Cunhãs,addr:postcode:65706000,addr:street:Avenida Zezico Costa,addr:suburb:Centro,amenity:bank,atm:yes,brand:Banco do Brasil,brand:wikidata:Q610817,brand:wikipedia:en:Banco do Brasil,drive_through:no,opening_hours:Mo-Fr 08:00-17:00","lat":-4.1400715,"lng":-45.1187473},{"id":"6806053225","name":"Hospital Geral de Olho d'Água das Cunhãs","tags":"addr:city:Olho d'Água das Cunhãs,addr:postcode:65706000,amenity:hospital,emergency:yes,healthcare:hospital,healthcare:speciality:general,wheelchair:yes","lat":-4.1387297,"lng":-45.1250957},{"id":"7774231606","name":"Supermercado Olho d'Água","tags":"addr:city:Olho d'Água das Cunhãs,addr:postcode:65706000,addr:street:Rua Presidente Vargas,addr:suburb:Centro,operator:Francisco \\Gordão\\,shop:supermarket","lat":-4.1400651,"lng":-45.1217478},{"id":"7774231612","tags":"shop:supermarket","lat":-4.1396119,"lng":-45.1222315},{"id":"9041971118","name":"Jardim De Infancia Manoel Campos Sousa","tags":"addr:city:Olho d'Água das Cunhãs,addr:postcode:65706-000,addr:street:Rua São Francisco,amenity:school","lat":-4.1344443,"lng":-45.1219077},{"id":"9041990258","name":"Escola Municipal Antônio Lisboa De Castro","tags":"amenity:school","lat":-4.1480477,"lng":-45.1149367},{"id":"9098967778","name":"Escola Municipal Batista","tags":"addr:city:Olho d'Água das Cunhãs,addr:postcode:65706-000,addr:street:Avenida Salomão Alves da Costa,addr:suburb:Centro,amenity:school","lat":-4.1371824,"lng":-45.1180212},{"id":"9219513793","name":"Escola Municipal Vitorino Cabral","tags":"amenity:school","lat":-4.1428637,"lng":-45.1230184},{"id":"9219514188","name":"Escola Municipal Rui Barbosa","tags":"amenity:school","lat":-4.1339085,"lng":-45.1135663},{"id":"9219696068","name":"Colegio Dr Mattos Serrao","tags":"amenity:school","lat":-4.1369385,"lng":-45.1166182},{"id":"9219697554","name":"Escola Municipal Frei Estevao","tags":"amenity:school","lat":-4.1412863,"lng":-45.1202991}]