[{"id":"370206141","name":"Tasca Mercado","tags":"amenity:cafe","lat":-1.4541628,"lng":-48.4860811},{"id":"491465042","name":"Alemão Lanches","tags":"amenity:restaurant,crossing:uncontrolled,name:pt:Alemão Lanches","lat":-1.4512557,"lng":-48.4872807},{"id":"603948618","name":"Lojas Americanas Nazaré","tags":"shop:convenience","lat":-1.4520621,"lng":-48.4821945},{"id":"621053911","tags":"amenity:school","lat":-1.4609289,"lng":-48.4862538},{"id":"621053912","name":"Panificadora Sagres","tags":"addr:city:Belém,addr:housenumber:1717,addr:postcode:66033-442,addr:street:Rua dos Caripunas,addr:suburb:Batista Campos,amenity:cafe,outdoor_seating:yes,source:addr:survey,wheelchair:no","lat":-1.462334,"lng":-48.4873482},{"id":"621054033","name":"Big Ben","tags":"addr:housenumber:1760,addr:postcode:66033-110,addr:street:Rua dos Pariquis,addr:suburb:Batista Campos,amenity:pharmacy","lat":-1.4619586,"lng":-48.4885886},{"id":"627001218","name":"JC Refeições","tags":"amenity:restaurant","lat":-1.4562119,"lng":-48.4896726},{"id":"627001226","name":"Kahori Sushi","tags":"addr:housenumber:880,addr:postcode:66033-770,addr:street:Avenida Serzedelo Corrêa,addr:suburb:Batista Campos,amenity:restaurant,source:addr:Cadastro Técnico Multifinalitário de Belém","lat":-1.4604073,"lng":-48.4885365},{"id":"767884272","tags":"amenity:restaurant","lat":-1.4538735,"lng":-48.4948592},{"id":"1393201626","name":"Território Lounge Bar","tags":"addr:housenumber:1321,addr:postcode:66035-170,addr:street:Travessa Benjamin Constant,amenity:bar,contact:facebook:http://www.facebook.com/pages/Territorio-Restaurante/193024827411453?sk=info","lat":-1.4534035,"lng":-48.4885232},{"id":"1699830905","name":"Colegio Ideal","tags":"amenity:school","lat":-1.4633879,"lng":-48.4911498},{"id":"2024725276","tags":"amenity:atm,operator:Itaú Unibanco 30 Horas","lat":-1.4534791,"lng":-48.4940545},{"id":"2024725430","name":"Banco da Amazônia","tags":"amenity:bank,atm:yes,short_name:BASA","lat":-1.4532382,"lng":-48.4945356},{"id":"2632563609","name":"Colégio Marista Nossa Senhora de Nazaré","tags":"amenity:school","lat":-1.452593,"lng":-48.4852194},{"id":"2632568114","name":"Museu Paraense Emílio Goeldi","tags":"tourism:museum,wikidata:Q3328425,wikipedia:pt:Museu Paraense Emílio Goeldi","lat":-1.4533059,"lng":-48.476567},{"id":"2653211399","name":"Açaí Biruta","tags":"amenity:bar","lat":-1.4576311,"lng":-48.5058809},{"id":"2795594683","name":"Los Piratas Algodoal Bar","tags":"amenity:bar","lat":-1.4601537,"lng":-48.505669},{"id":"2795594685","name":"Studio Pub","tags":"amenity:bar","lat":-1.4572349,"lng":-48.4931884},{"id":"2930424074","name":"Banco do Brasil","tags":"amenity:bank,seamark:building:function:bank,seamark:type:building","lat":-1.4504118,"lng":-48.4973033},{"id":"2930426351","tags":"amenity:post_office,seamark:building:function:post_office,seamark:type:building","lat":-1.4517806,"lng":-48.49648},{"id":"3582226497","name":"Manjar das Garças","tags":"amenity:restaurant","lat":-1.4647215,"lng":-48.505937},{"id":"3601734669","name":"Biblioteca Pública Arthur Vianna","tags":"amenity:library","lat":-1.4564771,"lng":-48.4863589},{"id":"3601734671","name":"Churrascaria Tucuruvi","tags":"addr:street:Travessa Benjamin Constant,addr:suburb:Batista Campos,amenity:restaurant,cuisine:gaucho;barbecue","lat":-1.4581073,"lng":-48.4875068},{"id":"3601734672","name":"Colégio Moderno","tags":"amenity:school","lat":-1.4554851,"lng":-48.4859208},{"id":"3601734673","name":"Domino's Pizza","tags":"amenity:restaurant,cuisine:pizza","lat":-1.4542961,"lng":-48.4860355},{"id":"3601734674","name":"The Burger Spot","tags":"amenity:restaurant,cuisine:burger","lat":-1.4540242,"lng":-48.4860962},{"id":"3601734676","name":"La Pizzeria n'Amazônia","tags":"amenity:restaurant,cuisine:pizza;italian","lat":-1.4557817,"lng":-48.5044744},{"id":"3601734677","name":"Panificadora Suprema","tags":"amenity:cafe","lat":-1.452553,"lng":-48.4728704},{"id":"3601734678","name":"PizzaH!","tags":"amenity:restaurant,cuisine:pizza","lat":-1.4554213,"lng":-48.4855143},{"id":"3601734679","name":"Páprika","tags":"addr:housenumber:302,addr:postcode:66020-470,addr:street:Rua Padre Champagnat,amenity:restaurant,contact:facebook:PaprikaBelem,contact:instagram:paprikabelem,contact:phone:+55 91 98462-9229,cuisine:italian,outdoor_seating:yes","lat":-1.4559692,"lng":-48.5055536},{"id":"3601734681","name":"Spoleto","tags":"amenity:restaurant,cuisine:italian","lat":-1.4542405,"lng":-48.4860526},{"id":"3608200635","name":"Café com Arte","tags":"amenity:bar","lat":-1.4542416,"lng":-48.4870891},{"id":"3608200637","name":"Divino Sabor","tags":"amenity:restaurant,cuisine:brazilian","lat":-1.4539743,"lng":-48.4861076},{"id":"3608200640","name":"Panificadora Camões","tags":"amenity:cafe,shop:bakery","lat":-1.4545136,"lng":-48.4870246},{"id":"3608200641","name":"Spazio Verdi","tags":"amenity:restaurant,cuisine:brazilian","lat":-1.4544907,"lng":-48.484165},{"id":"3608200643","name":"Drogasil","tags":"addr:street:Avenida Conselheiro Furtado,addr:suburb:Batista Campos,amenity:pharmacy,brand:Drogasil,brand:wikidata:Q5308185,brand:wikipedia:pt:Drogasil,dispensing:yes,drive_through:no,healthcare:pharmacy","lat":-1.45885,"lng":-48.4910643},{"id":"3608431324","name":"Beto Grill","tags":"addr:housenumber:581,addr:postcode:66035-080,addr:street:Travessa Doutor Moraes,amenity:restaurant","lat":-1.4579762,"lng":-48.4880105},{"id":"3608431325","name":"Big Ben","tags":"amenity:pharmacy","lat":-1.4542856,"lng":-48.4925061},{"id":"3608431326","name":"Café da Fox","tags":"amenity:cafe","lat":-1.4576119,"lng":-48.4889091},{"id":"3608431328","name":"Colégio Santa Rosa","tags":"addr:housenumber:1549,addr:postcode:66025-230,addr:street:Travessa Padre Eutíquio,addr:suburb:Batista Campos,amenity:school,denomination:roman_catholic,fee:yes,religion:christian,source:addr:Cadastro Técnico Multifinalitário de Belém","lat":-1.4597837,"lng":-48.491063},{"id":"3608431330","name":"Escola Amazonas de Figueiredo","tags":"addr:city:Belém,addr:street:Rua dos Timbiras,addr:suburb:Batista Campos,amenity:school,official_name:Escola Estadual de Ensino Fundamental Amazonas de Figueiredo,operator:Secretaria de Estado de Educação","lat":-1.463558,"lng":-48.4861507},{"id":"3608431331","name":"Extrafarma","tags":"addr:housenumber:1981,addr:postcode:66033-720,addr:street:Travessa Padre Eutíquio,addr:suburb:Batista Campos,amenity:pharmacy,source:addr:Cadastro Técnico Multifinalitário de Belém","lat":-1.4618917,"lng":-48.4887748},{"id":"3608431332","name":"Farmácia do Trabalhador","tags":"amenity:pharmacy","lat":-1.4541644,"lng":-48.4925692},{"id":"3608431336","name":"La Traviata","tags":"amenity:restaurant,cuisine:italian","lat":-1.4502719,"lng":-48.486149},{"id":"3608431338","name":"Miyagi Sushi Bar","tags":"amenity:restaurant,cuisine:sushi","lat":-1.45586,"lng":-48.4857532},{"id":"3608431340","name":"Pague Menos","tags":"addr:housenumber:1826,addr:postcode:66033-718,addr:street:Rua dos Mundurucus,addr:suburb:Batista Campos,amenity:pharmacy,source:addr:Cadastro Técnico Multifinalitário de Belém","lat":-1.4601305,"lng":-48.4888226},{"id":"3608431341","name":"Drogasil","tags":"addr:city:Belém,addr:housenumber:1075,addr:postcode:66033-770,addr:street:Avenida Serzedelo Corrêa,addr:suburb:Batista Campos,amenity:pharmacy,brand:Drogasil,brand:wikidata:Q5308185,brand:wikipedia:pt:Drogasil,dispensing:yes,drive_through:no,healthcare:pharmacy,wheelchair:yes","lat":-1.4619774,"lng":-48.4871179},{"id":"3608431342","name":"Pet Stop","tags":"shop:pet","lat":-1.4577968,"lng":-48.4884737},{"id":"3608431343","name":"Privilège Restô","tags":"amenity:restaurant","lat":-1.4589448,"lng":-48.4891147},{"id":"3608431345","name":"Livraria SBS","tags":"books:language,shop:books","lat":-1.457488,"lng":-48.4881013},{"id":"3608431346","name":"Sansei Temakeria","tags":"addr:suburb:Batista Campos,amenity:restaurant,cuisine:sushi","lat":-1.4613677,"lng":-48.488317},{"id":"3608431349","name":"Y. Yamada","tags":"shop:supermarket","lat":-1.4540456,"lng":-48.4923436},{"id":"3608431353","tags":"amenity:atm,operator:Banco 24 Horas","lat":-1.4535777,"lng":-48.4939006},{"id":"3608431368","tags":"shop:pet","lat":-1.457284,"lng":-48.4884237},{"id":"3608431370","name":"Tapioquinha de Mosqueiro","tags":"addr:suburb:Batista Campos,amenity:cafe,cuisine:brazilian;paraense","lat":-1.4615134,"lng":-48.4884439},{"id":"3645422449","name":"La Lucha","tags":"amenity:restaurant,cuisine:burger","lat":-1.4558686,"lng":-48.4918061},{"id":"3655818167","name":"Shopping das Fábricas","tags":"shop:mall","lat":-1.4556019,"lng":-48.49713},{"id":"3675773633","name":"Hospital Naval de Belém","tags":"amenity:hospital","lat":-1.464653,"lng":-48.5034473},{"id":"3695555233","name":"Líder","tags":"shop:supermarket","lat":-1.4573138,"lng":-48.4992371},{"id":"4081421611","name":"Bradesco","tags":"addr:housenumber:2375,addr:postcode:66033-726,addr:street:Travessa Padre Eutíquio,addr:suburb:Batista Campos,amenity:bank,atm:yes,bic:BBDEBRSPBLM,brand:Bradesco,brand:wikidata:Q806181,brand:wikipedia:en:Banco Bradesco,operator:Banco Bradesco S.A.","lat":-1.4643782,"lng":-48.4853909},{"id":"4091048492","name":"Centro de Hemodiálise Monteiro Leite","tags":"addr:housenumber:1770,addr:postcode:66033-718,addr:street:Rua dos Mundurucus,addr:suburb:Batista Campos,amenity:hospital,source:addr:Cadastro Técnico Multifinalitário de Belém","lat":-1.4605482,"lng":-48.4891595},{"id":"4091048505","name":"Itaú","tags":"addr:housenumber:1644,addr:postcode:66033-722,addr:street:Travessa Padre Eutíquio,addr:suburb:Batista Campos,amenity:bank,atm:yes,brand:Itaú,brand:wikidata:Q2423252,brand:wikipedia:en:Itaú Corpbanca,operator:Itaú Unibanco Holding S.A.,source:addr:Cadastro Técnico Multifinalitário de Belém","lat":-1.460896,"lng":-48.4903847},{"id":"4091048506","name":"Star Pet","tags":"addr:housenumber:1722,addr:postcode:66033-718,addr:street:Rua dos Mundurucus,addr:suburb:Batista Campos,shop:pet,source:addr:Cadastro Técnico Multifinalitário de Belém","lat":-1.4608245,"lng":-48.4893823},{"id":"4097890153","name":"Santander","tags":"addr:housenumber:1350,addr:postcode:66035-045,addr:street:Travessa Padre Eutíquio,addr:suburb:Batista Campos,amenity:bank,brand:Santander,contact:fax:+55 91 3213-2800,contact:phone:+55 91 3213-2800,operator:Banco Santander (Brasil) S.A.,source:addr:Cadastro Técnico Multifinalitário de Belém","lat":-1.4592229,"lng":-48.4926317},{"id":"4228792637","name":"Fonoteca Satyro de Melo","tags":"amenity:library,collection:records","lat":-1.4565397,"lng":-48.4864612},{"id":"4235051744","name":"Lá no Ernani","tags":"amenity:restaurant","lat":-1.4618194,"lng":-48.5008726},{"id":"4235051754","name":"Menezes Grill","tags":"addr:street:Rua de Óbidos,amenity:restaurant","lat":-1.4622781,"lng":-48.5017999},{"id":"4235051755","name":"Academia Power Fitness","tags":"addr:street:Rua de Óbidos,leisure:sports_centre","lat":-1.4623183,"lng":-48.5014485},{"id":"4241001629","name":"Banpará","tags":"addr:street:Avenida Bernardo Sayão,amenity:bank,atm:no,brand:Banpará","lat":-1.4708856,"lng":-48.4997501},{"id":"4241001631","name":"Big Ben","tags":"amenity:pharmacy","lat":-1.4679836,"lng":-48.4883983},{"id":"4248890670","name":"Caixa Econômica Federal","tags":"addr:housenumber:2021,addr:postcode:66033-720,addr:street:Travessa Padre Eutíquio,addr:suburb:Batista Campos,amenity:bank,atm:yes,brand:Caixa Econômica Federal,brand:wikidata:Q835283,brand:wikipedia:pt:Caixa Econômica Federal,operator:Caixa Econômica Federal","lat":-1.4625096,"lng":-48.4878673},{"id":"4274982598","tags":"amenity:atm","lat":-1.4614916,"lng":-48.4892678},{"id":"4279215275","name":"Memorial de Navegação da Amazônia","tags":"charge:R$ 5,00,fee:We-Su,PH,tourism:museum","lat":-1.464723,"lng":-48.5058163},{"id":"4279215276","name":"Museu Histórico do Estado do Pará","tags":"charge:R$ 2,00,contact:phone:+55 91 4009-8801,fee:yes,opening_hours:Tu-Fr 10:00-18:00; PH,Su,Sa 09:00-13:00,tourism:museum","lat":-1.4561391,"lng":-48.5030617},{"id":"4374586000","name":"Centro Integrado de Educação Mundo da Abelinha","tags":"addr:housenumber:2140,addr:postcode:66033-720,addr:street:Travessa Padre Eutíquio,addr:suburb:Batista Campos,amenity:school,contact:phone:+55 91 3223-3527;+55 91 3038-9964,education:school,education_fee:only,education_level:preschool:yes,education_level:primary:yes,fee:yes,short_name:CIEMA","lat":-1.4635988,"lng":-48.486866},{"id":"4375122589","name":"Extrafarma","tags":"amenity:pharmacy","lat":-1.4545892,"lng":-48.485758},{"id":"4378265799","name":"Body Fight","tags":"addr:housenumber:2135,addr:postcode:66033-720,addr:street:Travessa Padre Eutíquio,addr:suburb:Batista Campos,leisure:fitness_centre","lat":-1.463185,"lng":-48.4869852},{"id":"4378265800","name":"Centro Educacional A Corujinha","tags":"addr:housenumber:2086,addr:postcode:66033-720,addr:street:Travessa Padre Eutíquio,addr:suburb:Batista Campos,amenity:school,contact:phone:+55 91 3222-0803,education:school,education_fee:only,education_level:preschool:yes,education_level:primary:yes,fee:yes","lat":-1.4634005,"lng":-48.4871294},{"id":"4392536354","name":"Acqua Sport","tags":"addr:street:Travessa Benjamin Constant,addr:suburb:Nazaré,leisure:fitness_centre","lat":-1.4513356,"lng":-48.4900534},{"id":"4392536372","name":"Porto Seguro","tags":"amenity:restaurant","lat":-1.4553825,"lng":-48.4937101},{"id":"4392536373","name":"Restaurante da Tia Ray","tags":"amenity:restaurant","lat":-1.4570822,"lng":-48.4976989},{"id":"4392536374","name":"Santander Select","tags":"amenity:bank,brand:Santander","lat":-1.4527002,"lng":-48.4888114},{"id":"4392536375","name":"Sobrancelhas Design","tags":"addr:housenumber:1035,addr:street:Travessa Benjamin Constant,addr:suburb:Nazaré,shop:beauty","lat":-1.4514033,"lng":-48.4899937},{"id":"4392536379","name":"Unopar","tags":"amenity:university","lat":-1.4528775,"lng":-48.4882632},{"id":"4474916189","name":"Caixa Econômica Federal","tags":"amenity:bank,name:pt:Caixa Econômica Federal","lat":-1.4531264,"lng":-48.4823273},{"id":"4785236522","name":"Restaurante Albatroz","tags":"amenity:restaurant,name:pt:Restaurante Albatroz","lat":-1.4536274,"lng":-48.4910448},{"id":"4785240621","name":"Churrascaria Albatroz","tags":"amenity:restaurant,name:pt:Churrascaria Albatroz","lat":-1.4534653,"lng":-48.4909643},{"id":"4833425223","tags":"addr:housenumber:166,addr:street:Travessa Padre Prudêncio,amenity:restaurant,cuisine:indian,diet:vegan:yes,diet:vegetarian:only,internet_access:wlan,name:en:Govinda,website:http://www.restaurantegovinda.com.br","lat":-1.4518955,"lng":-48.4984116},{"id":"4905044031","name":"Restaurante Avenida","tags":"amenity:restaurant","lat":-1.4523424,"lng":-48.48313},{"id":"4905044032","name":"Extrafarma","tags":"amenity:pharmacy","lat":-1.4523518,"lng":-48.4829704},{"id":"4964212328","name":"Iacitatá","tags":"amenity:restaurant,cuisine:regional","lat":-1.4558667,"lng":-48.5055847},{"id":"4968742521","name":"Bistrô Belém","tags":"amenity:restaurant,opening_hours:Mo-Sa 11:00-15:00","lat":-1.4569767,"lng":-48.4933495},{"id":"4969369821","name":"Companhia esportiva","tags":"addr:housenumber:2499,addr:street:Avenida Conselheiro Furtado,leisure:fitness_centre,name:en:Sport Company,name:pt:Companhia esportiva","lat":-1.4563412,"lng":-48.4766623},{"id":"4969372321","name":"Extrafarma","tags":"addr:street:Avenida Conselheiro Furtado,amenity:pharmacy,name:en:Extrafarma,name:pt:Extrafarma","lat":-1.4563265,"lng":-48.4773343},{"id":"5102117921","name":"Cozinha de Bistrô","tags":"addr:housenumber:278,addr:street:Rua Ferreira Cantão,amenity:restaurant,cuisine:brazilian,name:pt:Cozinha de Bistrô","lat":-1.4551503,"lng":-48.494423},{"id":"5258189842","name":"Extrafarma","tags":"amenity:pharmacy,healthcare:pharmacy","lat":-1.4581676,"lng":-48.4772339},{"id":"5258207391","name":"Big Ben","tags":"amenity:pharmacy,healthcare:pharmacy","lat":-1.4569646,"lng":-48.4906836},{"id":"5646055732","name":"Comidas Tipicas Dos Anjos","tags":"addr:street:Rua Tiradentes,amenity:restaurant,cuisine:brazilian","lat":-1.4508489,"lng":-48.494226},{"id":"5649767921","name":"Drogerias MAXI Popular","tags":"amenity:pharmacy","lat":-1.4551567,"lng":-48.4812877},{"id":"5816593254","name":"churrascaria boi d’ouro","tags":"amenity:restaurant","lat":-1.4577635,"lng":-48.4973468},{"id":"5859910485","name":"Urubu-rei","tags":"attraction:animal,species:Sarcoramphus papa,tourism:attraction","lat":-1.4542448,"lng":-48.4765103},{"id":"5859910486","name":"Gavião real","tags":"attraction:animal,species:Harpia harpyja,tourism:attraction","lat":-1.4542301,"lng":-48.476399},{"id":"5859910487","name":"Macaco-coatá-da-testa-branca","tags":"attraction:animal,genus:Ateles,tourism:attraction","lat":-1.454403,"lng":-48.4764111},{"id":"5859910488","name":"Aves de poleiro","tags":"attraction:animal,tourism:attraction","lat":-1.4536536,"lng":-48.4761845},{"id":"5859910489","name":"Araras","tags":"attraction:animal,genus:Ara,tourism:attraction","lat":-1.4536509,"lng":-48.4763105},{"id":"5859910490","name":"Gavião-pega-pinto","tags":"attraction:animal,species:Rupornis magnirostris,tourism:attraction","lat":-1.4535397,"lng":-48.4762582},{"id":"5859910512","name":"Aviário","tags":"attraction:animal,tourism:attraction","lat":-1.4538561,"lng":-48.4762006},{"id":"5859910513","name":"Aves aquáticas","tags":"attraction:animal,tourism:attraction","lat":-1.4538601,"lng":-48.4764674},{"id":"5904950285","name":"Tacacá do Renato","tags":"amenity:restaurant","lat":-1.4600274,"lng":-48.488616},{"id":"6219676786","name":"Casa da Palha, o Armarinho do Artesão","tags":"tourism:attraction","lat":-1.4537077,"lng":-48.5017543},{"id":"6219676788","name":"Bar La Galera","tags":"amenity:bar","lat":-1.4621382,"lng":-48.5048164},{"id":"6219695686","name":"Museo do Cirio","tags":"name:pt:Museo do Círio de Nazareth,tourism:museum","lat":-1.4532897,"lng":-48.4818653},{"id":"6219695785","name":"Biblioteca Arxivo Publico","tags":"amenity:library","lat":-1.4524604,"lng":-48.5001305},{"id":"6219695787","name":"Casa Freitas, Antigo Banco","tags":"tourism:attraction","lat":-1.4529461,"lng":-48.5016782},{"id":"6575469489","name":"Cintra arte café","tags":"amenity:cafe","lat":-1.459019,"lng":-48.5023512},{"id":"7154932385","name":"Boteco do Arsenal","tags":"amenity:bar","lat":-1.4629062,"lng":-48.503517},{"id":"8391234917","name":"Ponto das Ervas Medicinais","tags":"amenity:pharmacy","lat":-1.4521881,"lng":-48.5026454},{"id":"8861090328","name":"The Driver Pariquis","tags":"addr:city:Belém,addr:housenumber:2747,addr:postcode:66040-045,addr:street:Rua dos Pariquis,addr:suburb:Cremação,amenity:car_wash,opening_hours:Mo-Sa 08:00-18:00","lat":-1.459509,"lng":-48.4799083},{"id":"9625315117","tags":"amenity:atm,operator:Bradesco","lat":-1.4534575,"lng":-48.4828508},{"id":"9823323072","name":"Restaurant Cantina Italiana","tags":"amenity:restaurant,cuisine:italian","lat":-1.4541537,"lng":-48.4883256},{"id":"10175853545","name":"Curso de Matemática Leopoldo Moura","tags":"addr:city:Belém,addr:housenumber:1836,addr:postcode:66040-140,addr:street:Avenida Generalíssimo Deodoro,addr:suburb:Cremação,amenity:school","lat":-1.4575917,"lng":-48.4828703}]