[{"id":"450195603","name":"Balsa Soure Salvaterra","tags":"amenity:ferry_terminal,ferry:yes,public_transport:station","lat":-0.732128,"lng":-48.5202723},{"id":"450196531","name":"Balsa Salvaterra Soure","tags":"amenity:ferry_terminal,ferry:yes,public_transport:station","lat":-0.7316574,"lng":-48.5268035},{"id":"5165683426","name":"Bradesco","tags":"amenity:bank,brand:Bradesco,brand:wikidata:Q806181,brand:wikipedia:en:Banco Bradesco","lat":-0.7278893,"lng":-48.5211348},{"id":"5165683430","tags":"shop:supermarket","lat":-0.7275442,"lng":-48.5203332},{"id":"5165683432","name":"Droga Soure","tags":"amenity:pharmacy,dispensing:yes,healthcare:pharmacy","lat":-0.7266736,"lng":-48.520008},{"id":"5896509685","name":"Carimbó Café e Restaurante","tags":"amenity:restaurant","lat":-0.7273282,"lng":-48.5201375},{"id":"6505585594","name":"Super Gênios","tags":"amenity:school,name:en:Robotics","lat":-0.7313936,"lng":-48.5163162},{"id":"9111040309","name":"Posto  Caldeirão","tags":"amenity:hospital,healthcare:hospital","lat":-0.7266119,"lng":-48.539091},{"id":"9718470383","name":"Porto da Rabeta","tags":"amenity:ferry_terminal,ferry:yes,public_transport:station","lat":-0.7284549,"lng":-48.5222971}]