[{"id":"3913746165","name":"Banco Itaú","tags":"amenity:bank","lat":-1.3893409,"lng":-48.4137546},{"id":"3913746166","name":"Bradesco","tags":"amenity:bank,brand:Bradesco,brand:wikidata:Q806181,brand:wikipedia:en:Banco Bradesco,website:https://banco.bradesco/","lat":-1.3866399,"lng":-48.4082215},{"id":"4424390133","name":"Banco do Brasil","tags":"amenity:bank","lat":-1.3791904,"lng":-48.3957466},{"id":"4424390135","tags":"amenity:atm","lat":-1.3703755,"lng":-48.4201854},{"id":"4424408242","name":"Banco 24 Horas","tags":"amenity:atm","lat":-1.3733288,"lng":-48.3845954},{"id":"4424409194","name":"Banco do Brasil","tags":"amenity:bank","lat":-1.3797763,"lng":-48.3964159},{"id":"4570139295","name":"Escola Benedito Maia","tags":"amenity:school,name:en:Benedito Maia School,name:pt:Escola Benedito Maia","lat":-1.3764522,"lng":-48.412432},{"id":"4570218191","name":"A.S. Combat Academia","tags":"leisure:fitness_centre,name:en:A.S Combat fight Gym,name:pt:A.S. Combat Academia","lat":-1.3753284,"lng":-48.4111805},{"id":"4570219190","tags":"amenity:pharmacy,healthcare:pharmacy,name:en:Drugstore","lat":-1.3764113,"lng":-48.4138173},{"id":"4570224089","name":"Quadra esportiva","tags":"leisure:fitness_centre,name:en:Sport square,name:pt:Quadra esportiva","lat":-1.3757826,"lng":-48.4129444},{"id":"4574352589","name":"Escola Maria Araújo de Figueiredo","tags":"amenity:school,name:en:Maria Araújo de Figueiredo School,name:pt:Escola Maria Araújo de Figueiredo","lat":-1.3652717,"lng":-48.4014342},{"id":"4674628511","tags":"leisure:fitness_centre","lat":-1.3655812,"lng":-48.4277175},{"id":"4863246786","name":"Extrafarma Mário Covas","tags":"amenity:pharmacy,healthcare:pharmacy","lat":-1.3691472,"lng":-48.4211299},{"id":"4921163194","name":"Dom Nato","tags":"amenity:cafe","lat":-1.3766803,"lng":-48.3911571},{"id":"4967110848","name":"Toca dos Bichos","tags":"shop:pet","lat":-1.3696401,"lng":-48.4212},{"id":"5256411656","name":"Farmácia do Trabalhador","tags":"addr:city:Ananindeua,addr:street:Rodovia Mário Covas,addr:suburb:Coqueiro,amenity:pharmacy,healthcare:pharmacy","lat":-1.3765747,"lng":-48.413845},{"id":"6388370166","name":"Batistão","tags":"amenity:restaurant,cuisine:burger;sandwich","lat":-1.3732518,"lng":-48.4099855},{"id":"7450882285","name":"Café Tapiocaria Tacacaria","tags":"amenity:restaurant","lat":-1.3709697,"lng":-48.4042642},{"id":"7450882387","name":"Galeto & Cia","tags":"amenity:restaurant","lat":-1.3631469,"lng":-48.4010451},{"id":"7455233085","tags":"shop:supermarket","lat":-1.3650313,"lng":-48.4059315},{"id":"7490435985","name":"Mercadinho São José","tags":"addr:housenumber:02,addr:street:Rua Nova República,shop:convenience","lat":-1.3696848,"lng":-48.4025549},{"id":"7792654385","name":"Campo de Volley Ball","tags":"leisure:fitness_centre","lat":-1.3644029,"lng":-48.4053388},{"id":"8387413517","tags":"name:en:Playground and Open-Air Exercise Park,tourism:attraction","lat":-1.3656914,"lng":-48.4161997},{"id":"9808863869","name":"Dani Moreira Estética","tags":"addr:street:Travessa SN Três,shop:beauty","lat":-1.3639932,"lng":-48.4059679},{"id":"9808944982","name":"Mercadinho são Domingos","tags":"addr:housenumber:01,addr:street:Travessa WE 28,opening_hours:Mo-Su 09:00-21:00,shop:convenience","lat":-1.3623937,"lng":-48.4059774},{"id":"9808949251","name":"Panificadora Tradicional","tags":"addr:housenumber:02,addr:street:Travessa WE 28,amenity:restaurant,cuisine:coffee_shop","lat":-1.3627904,"lng":-48.4042486},{"id":"9808962926","name":"Konisan","tags":"addr:housenumber:02,addr:street:Travessa WE 28,amenity:restaurant,cuisine:japanese","lat":-1.3628457,"lng":-48.4057902},{"id":"9808985628","name":"Churrascaria Sol","tags":"addr:housenumber:02,addr:street:Travessa WE 29,amenity:restaurant,cuisine:regional","lat":-1.3623744,"lng":-48.4043956},{"id":"9808985630","name":"Drogasil","tags":"addr:street:Avenida Doutor Nonato Sanova,amenity:hospital,healthcare:pharmacy","lat":-1.3643462,"lng":-48.4042147},{"id":"9808985633","tags":"addr:housenumber:1521,addr:street:Travessa WE 28,amenity:restaurant,cuisine:pizza","lat":-1.3626552,"lng":-48.4046058},{"id":"9809027094","name":"Famiglia da Pizza","tags":"amenity:restaurant,cuisine:pizza","lat":-1.3700364,"lng":-48.4093431},{"id":"9823323041","name":"Studio Amanda Cabral Sobrancelhas e Cilios","tags":"addr:housenumber:162,shop:beauty","lat":-1.3707188,"lng":-48.4053829},{"id":"9823323050","name":"Escola Estadual de Ensino Fundamental e Médio Dr.Agostinho Monteiro","tags":"amenity:school","lat":-1.3688928,"lng":-48.4080461}]