[{"id":"449386949","name":"Vitória Pizzaria","tags":"amenity:restaurant,cuisine:italian","lat":-1.2973402,"lng":-48.4838235},{"id":"450621898","name":"Balsa Icoaraci-Camará","tags":"amenity:ferry_terminal,ferry:yes,public_transport:station","lat":-1.301097,"lng":-48.4902009},{"id":"495969564","name":"Trapiche do Outeiro","tags":"addr:street:Estrada Principal do Outeiro,addr:suburb:Brasilia,amenity:ferry_terminal,ferry:yes,public_transport:station","lat":-1.286931,"lng":-48.4790035},{"id":"5015584922","tags":"addr:housenumber:EMED SAÚDE 792,addr:street:Rua Manoel Barata,amenity:hospital,healthcare:hospital","lat":-1.301627,"lng":-48.4876506},{"id":"5148635821","name":"Pm box","tags":"amenity:police","lat":-1.2997411,"lng":-48.4748328},{"id":"5536816521","name":"Bradesco","tags":"addr:housenumber:500,addr:postcode:66810-100,addr:street:Rua Manoel Barata,amenity:bank,brand:Bradesco,brand:wikidata:Q806181,name:en:Bradesco Bank,opening_hours:Mo-Fr 10:00-16:00,phone:+55 91 3297 8240,website:http://www.bradesco.com.br/","lat":-1.298769,"lng":-48.4877385},{"id":"5536816522","name":"Extrafarma","tags":"addr:housenumber:455,addr:postcode:66810-100,addr:street:Rua Doutor Lopo de Castro,amenity:pharmacy,brand:Extrafarma,brand:wikidata:Q20055480,healthcare:pharmacy,opening_hours:Mo-Su 07:00-21:00,phone:+55 91 3219 1089,website:https://www.extrafarma.com.br//","lat":-1.2984625,"lng":-48.4876033},{"id":"5536816523","name":"correios","tags":"addr:housenumber:659,addr:postcode:66810-970,addr:street:Rua Manoel Barata,amenity:post_office,opening_hours:Mo-Fr 09:00-17:00,operator:Correios,operator:wikidata:Q3375004,phone:+55 91 3227 2331,website:http://www.correios.com.br/","lat":-1.3002691,"lng":-48.4874564},{"id":"5536816621","name":"Banco do Brasil","tags":"addr:housenumber:380,addr:postcode:66810-100,addr:street:Rua Manoel Barata,amenity:bank,brand:Banco do Brasil,brand:wikidata:Q610817,opening_hours:Mo-Sa 10:00-16:00,phone:+55 91 3073 1183","lat":-1.2975334,"lng":-48.4880837},{"id":"5536816721","name":"Itaú","tags":"addr:housenumber:395,addr:postcode:66810-100,addr:street:Rua Manoel Barata,amenity:bank,brand:Itaú Unibanco,brand:wikidata:Q1424293,name:en:Itaú Bank,opening_hours:Mo-Fr 10:00-16:00,website:https://www.itau.com.br/","lat":-1.2974323,"lng":-48.4875956},{"id":"5905388658","name":"Farma Líder","tags":"addr:street:Rua 15 de Agosto,addr:suburb:Cruzeiro,amenity:pharmacy,healthcare:pharmacy,operator:Líder","lat":-1.299863,"lng":-48.4836796},{"id":"6094279358","tags":"amenity:bus_station,bus:yes,public_transport:station","lat":-1.2948339,"lng":-48.4839337},{"id":"6270340490","name":"Banco da Amazônia","tags":"addr:housenumber:660,addr:postcode:68810-100,addr:street:Rua Manoel Barata,amenity:bank,name:en:Amazônia Bank,opening_hours:Mo-Fr 10:00-16:00,phone:+55 91 3227 2516,website:http://www.bancoamazonia.com.br","lat":-1.3004686,"lng":-48.4876134},{"id":"6370247385","name":"Escola Madre Celeste","tags":"addr:postcode:66810-100,addr:street:Rua Manoel Barata,amenity:school,website:http://madreceleste.com.br","lat":-1.3005523,"lng":-48.4875737},{"id":"9388517813","name":"Studio Daylane Ribeiro","tags":"addr:city:Belém,addr:housenumber:756,addr:postcode:66812-420,addr:street:Travessa Andradas,addr:suburb:Ponta Grossa Icoaraci,beauty:hair;nails;cosmetics;eyebrow,internet_access:wlan,opening_hours:Mo-Fr 09:00-18:00,operator:Day Ribeiro,payment:cash:yes,payment:credit_cards:yes,phone:+55 91 9 8467 9203,shop:beauty","lat":-1.3087183,"lng":-48.4820304},{"id":"10258075184","tags":"amenity:ferry_terminal,ferry:yes,public_transport:station","lat":-1.297934,"lng":-48.4904186}]