[{"id":"8560745773","name":"escolinha arco-iris","tags":"amenity:school","lat":-1.67544,"lng":-47.7710546},{"id":"8560745774","tags":"amenity:pharmacy,dispensing:yes,healthcare:pharmacy","lat":-1.6767973,"lng":-47.7720644},{"id":"8560745776","tags":"amenity:pharmacy,dispensing:yes,healthcare:pharmacy","lat":-1.6770225,"lng":-47.7721891},{"id":"8560745780","name":"mercado sao raimundo","tags":"shop:supermarket","lat":-1.6770768,"lng":-47.7717969},{"id":"8560745781","tags":"amenity:pharmacy,dispensing:yes,healthcare:pharmacy","lat":-1.677666,"lng":-47.7717908},{"id":"8560745811","name":"Bradesco","tags":"amenity:bank,brand:Bradesco,brand:wikidata:Q806181,brand:wikipedia:en:Banco Bradesco","lat":-1.674702,"lng":-47.7749793},{"id":"8560785668","name":"Orla municipal","tags":"leisure:park","lat":-1.6742664,"lng":-47.7728275},{"id":"8560785679","tags":"amenity:pharmacy,dispensing:yes,healthcare:pharmacy","lat":-1.6750224,"lng":-47.7731091},{"id":"8560785681","tags":"leisure:park","lat":-1.6742463,"lng":-47.771369},{"id":"8560785683","name":"mercado Marcos","tags":"shop:supermarket","lat":-1.6782518,"lng":-47.7708983},{"id":"8560984479","name":"praça matriz","tags":"leisure:park","lat":-1.6745873,"lng":-47.7756916},{"id":"8560984498","name":"mercado stª terezinha","tags":"shop:supermarket","lat":-1.6750649,"lng":-47.7736088},{"id":"8560984499","name":"Correios","tags":"amenity:post_office,brand:Correios,brand:wikidata:Q3375004,brand:wikipedia:en:Correios","lat":-1.6761663,"lng":-47.7727971},{"id":"8590430052","tags":"leisure:fitness_centre","lat":-1.6756924,"lng":-47.77195}]