[{"id":"9101760740","name":"Unidade Escolar Professora Fulvia Simao Maia","tags":"amenity:school","lat":-1.4109581,"lng":-45.7742907},{"id":"9342272284","name":"Unidade Escolar Jose Teixeira Da Cruz","tags":"amenity:school","lat":-1.419914,"lng":-45.7557057},{"id":"9342300680","name":"UE Iraci Texeira Jorge","tags":"amenity:school","lat":-1.448787,"lng":-45.7563172},{"id":"9342302566","name":"Ceef E Eja Iolanda Costa E Silva","tags":"amenity:school","lat":-1.4153235,"lng":-45.7710399},{"id":"9342305289","name":"Unidade Escolar Coronel Riod Ayoub Jorge","tags":"amenity:school","lat":-1.4105398,"lng":-45.7714958},{"id":"9342313359","name":"Pre Escola Francisca Pereira De Jesus","tags":"amenity:school","lat":-1.4180129,"lng":-45.7709567},{"id":"9342315668","name":"Unidade Integrada Vereador Natal Do Nascimento Silva","tags":"amenity:school","lat":-1.4112987,"lng":-45.7778607},{"id":"10117634930","name":"Complexo Educacional de Ensino Fundamental e Médio Benedita Jorge","tags":"addr:city:Godofredo Viana,addr:postcode:65285-000,addr:street:Avenida Teófilo Viana,addr:suburb:Centro - Zona Urbana,amenity:school,phone:+55 98 33951131","lat":-1.4165644,"lng":-45.7729059},{"id":"10117634931","name":"Pré- Escola Professora Francisca Pereira Borges","tags":"addr:city:Godofredo Viana,addr:postcode:65285-000,addr:street:Travessa Valvim Chaves Santos,addr:suburb:Aviação - Zona Urbana,amenity:school,phone:+55 99 8103 2812","lat":-1.4185562,"lng":-45.7694259}]