[{"id":"3248556886","name":"Lagoa Verde","tags":"natural:bay,tourism:attraction","lat":-23.1389647,"lng":-44.3226672},{"id":"3312462093","tags":"amenity:restaurant","lat":-23.1534344,"lng":-44.3242657},{"id":"4776828962","name":"Bistro da Praia","tags":"amenity:restaurant,cuisine:arab,internet_access:wlan,name:pt:Bistro da Praia,opening_hours:Mo-Su 09:00-19:00","lat":-23.1436258,"lng":-44.3198211},{"id":"5622393122","tags":"amenity:restaurant","lat":-23.1564497,"lng":-44.3339095},{"id":"5622393426","name":"Kiosk da praia","tags":"amenity:bar,name:en:Kiosksa praia","lat":-23.1557442,"lng":-44.3283905},{"id":"7101305143","name":"Mercado da Pedra","tags":"amenity:bar","lat":-23.1503231,"lng":-44.3222337},{"id":"7106707110","name":"Flutuante Lagoa Verde","tags":"amenity:restaurant","lat":-23.1388164,"lng":-44.3234585},{"id":"7106719763","name":"Bem Natural","tags":"amenity:restaurant","lat":-23.1557482,"lng":-44.3316139},{"id":"7106736028","name":"Bar da Tartaruga","tags":"amenity:bar","lat":-23.1554906,"lng":-44.3298271},{"id":"7182487486","tags":"shop:convenience","lat":-23.138745,"lng":-44.3120283},{"id":"7182487685","tags":"shop:convenience","lat":-23.1467165,"lng":-44.3203947}]