[{"id":"1811469296","name":"Preço Ótimo","tags":"shop:supermarket","lat":-22.9979001,"lng":-44.240038},{"id":"4244608907","tags":"amenity:restaurant","lat":-22.9976158,"lng":-44.240457},{"id":"4244609049","tags":"amenity:restaurant","lat":-22.9977113,"lng":-44.2406068},{"id":"4392913915","tags":"amenity:police","lat":-22.9917992,"lng":-44.2431367},{"id":"4406917851","name":"Terminal Rodoviário Cornelis Verolme","tags":"amenity:bus_station","lat":-22.9963416,"lng":-44.2397084},{"id":"4411740599","name":"Biblioteca Raul Pompéia","tags":"amenity:library","lat":-22.9976681,"lng":-44.2399867},{"id":"4418043231","name":"Polícia Rodoviária Federal","tags":"amenity:police,opening_hours:24/7,operator:Polícia Rodoviária Federal,operator:wikidata:Q1158853,operator:wikipedia:pt:Polícia Rodoviária Federal,phone:+55 21 3503 2332,police:traffic_police","lat":-22.9895662,"lng":-44.241837},{"id":"8840427531","name":"Bistrô 420","tags":"addr:city:Angra dos Reis,addr:housenumber:420,addr:postcode:23914160,addr:street:Rua Doce Angra,addr:suburb:Jacuecanga,amenity:cafe,cuisine:cafetaria;bistro,internet_access:wlan,opening_hours:06:30-20:00,outdoor_seating:yes,phone:24999123420","lat":-22.9913236,"lng":-44.2387078},{"id":"9607705474","name":"Restaurante De Maria","tags":"amenity:restaurant","lat":-22.9972684,"lng":-44.2379793},{"id":"9607705476","tags":"access:private,amenity:parking","lat":-22.9970878,"lng":-44.241216},{"id":"9607705477","tags":"amenity:atm,brand:Itaú,opening_hours:Mo-Sa 10:00-15:00","lat":-22.9988183,"lng":-44.2420742},{"id":"9607705478","tags":"amenity:atm,brand:Hsbc","lat":-22.9989036,"lng":-44.2421314}]