[{"id":"2786947916","name":"Caixa Econômica Federal","tags":"addr:city:Barra Mansa,addr:housenumber:45,addr:street:Rua Andrade Figueira,amenity:bank,atm:yes,opening_hours:11:00-16:00","lat":-22.5455591,"lng":-44.1706709},{"id":"4285929547","name":"Centro educacional Amanhecer","tags":"addr:city:Barra Mansa,addr:street:Rua Eduardo Junqueira,amenity:school","lat":-22.5446419,"lng":-44.1693486},{"id":"4285931116","name":"Supermercado Beira Rio","tags":"addr:street:Avenida Argemiro de Paula Coutinho,operator:Comércio Varejista de Alimentos,shop:supermarket","lat":-22.544342,"lng":-44.1694717},{"id":"4285931767","name":"Supermercado Royal","tags":"addr:street:Avenida Joaquim Leite,operator:Comércio Varejista de Alimentos,shop:supermarket","lat":-22.5455201,"lng":-44.1691788},{"id":"4285933546","name":"Banco do Brasil","tags":"addr:street:Avenida Joaquim Leite,amenity:bank","lat":-22.5452988,"lng":-44.1692053},{"id":"4285935953","name":"Casas Bahia","tags":"addr:street:Avenida Joaquim Leite,opening_hours:09:00-19:00,shop:convenience","lat":-22.5451241,"lng":-44.170247},{"id":"4285939660","name":"Banco Itaú","tags":"addr:street:Rua Monsenhor Costa,amenity:bank,atm:yes","lat":-22.5450326,"lng":-44.1714374},{"id":"4285939814","name":"Banco Santander","tags":"addr:street:Avenida Joaquim Leite,amenity:bank,atm:yes,drive_through:no","lat":-22.5449755,"lng":-44.1711461},{"id":"4285943039","name":"Banco Bradesco","tags":"addr:street:Avenida Joaquim Leite,amenity:bank","lat":-22.5458932,"lng":-44.1683788},{"id":"4285951072","name":"Banco Itaú","tags":"addr:street:Avenida Joaquim Leite,amenity:bank,drive_through:no","lat":-22.5448931,"lng":-44.172909},{"id":"4286900161","name":"Associação Atlética Goiabal","tags":"leisure:sports_centre,sport:soccer","lat":-22.5811309,"lng":-44.1759242},{"id":"4286974308","name":"Colégio Estadual São Pedro","tags":"addr:city:Barra Mansa,addr:street:Rua Benedito Antônio da Silva,addr:suburb:São Pedro,amenity:school","lat":-22.5741463,"lng":-44.1771749},{"id":"4286993367","name":"Mercado São Pedro","tags":"addr:city:Barra Mansa,addr:street:Rua Dailton Fernandes de Carvalho,addr:suburb:São Pedro,shop:supermarket","lat":-22.5738432,"lng":-44.1762476},{"id":"4299185452","name":"Asilo das Orfãs","tags":"amenity:school","lat":-22.546758,"lng":-44.170881},{"id":"4299189053","name":"Galeria Irmãos Sales","tags":"addr:city:Barra Mansa,addr:street:Rua Doutor Mário Ramos,shop:mall","lat":-22.5461373,"lng":-44.1702161},{"id":"4299192064","name":"Banco Itaú","tags":"amenity:atm","lat":-22.5446498,"lng":-44.1733791},{"id":"4317626304","name":"Colégio Verbo Divino","tags":"addr:city:Barra Mansa,addr:street:Rua Doutor Abelardo de Oliveira,addr:suburb:Verbo Divino,amenity:school","lat":-22.5447186,"lng":-44.1766681},{"id":"4320099528","name":"Casa Do Chopp","tags":"amenity:restaurant,internet_access:wlan","lat":-22.5460564,"lng":-44.1700268},{"id":"4344264254","name":"Polícia Militar","tags":"addr:city:Barra Mansa,addr:street:Rodovia Engenheiro Alexandre Drable,amenity:police","lat":-22.5527672,"lng":-44.1865733},{"id":"4346660547","name":"Sho & House","tags":"addr:city:Barra Mansa,addr:street:Avenida Joaquim Leite,shop:mall","lat":-22.5450126,"lng":-44.1725106},{"id":"4346667186","name":"Best Training Academia","tags":"addr:city:Barra Mansa,addr:street:Avenida Argemiro de Paula Coutinho,addr:suburb:Centro,leisure:sports_centre,sport:fitness","lat":-22.5447731,"lng":-44.1677859},{"id":"4346668401","tags":"addr:city:Barra Mansa,addr:street:Rua São Sebastião,amenity:parking","lat":-22.5455502,"lng":-44.1732643},{"id":"4346669740","name":"Shopping Figorelli","tags":"addr:city:Barra Mansa,addr:street:Avenida Joaquim Leite,shop:mall","lat":-22.5448714,"lng":-44.1732134},{"id":"4346671191","tags":"addr:city:Barra Mansa,addr:street:Rua Vereador Pinho de Carvalho,addr:suburb:Centro,amenity:parking","lat":-22.5477973,"lng":-44.1708846},{"id":"4346680542","name":"BM Fitness Academia","tags":"addr:city:Barra Mansa,addr:street:Rua José Maria da Cruz,leisure:sports_centre","lat":-22.5475927,"lng":-44.1702104},{"id":"4346681125","name":"Sabor e Lenha","tags":"addr:city:Barra Mansa,addr:street:Rua Doutor Mário Ramos,amenity:restaurant","lat":-22.5474876,"lng":-44.1705455},{"id":"4346682037","name":"Exxy Pharma Drogaria","tags":"addr:city:Barra Mansa,addr:street:Avenida Joaquim Leite,amenity:pharmacy","lat":-22.5453466,"lng":-44.1699421},{"id":"4346682038","name":"Retiro Drogarias","tags":"addr:city:Barra Mansa,addr:street:Avenida Joaquim Leite,amenity:pharmacy","lat":-22.545204,"lng":-44.1696734},{"id":"4346684284","name":"Sicredi","tags":"addr:street:Rua Francisco Vilela de Andrade Neto,amenity:bank,brand:Sicredi,brand:wikidata:Q3483060,brand:wikipedia:pt:Sistema de Crédito Cooperativo","lat":-22.5466695,"lng":-44.1672455},{"id":"4346684530","name":"Moderna Drogaria","tags":"addr:city:Barra Mansa,addr:street:Avenida Joaquim Leite,amenity:pharmacy","lat":-22.5447739,"lng":-44.1727258},{"id":"4346684652","name":"Droga Raia","tags":"addr:city:Barra Mansa,addr:street:Avenida Joaquim Leite,amenity:pharmacy","lat":-22.5448278,"lng":-44.1732278},{"id":"4474250432","name":"Estcionamento","tags":"addr:city:Barra Mansa,addr:street:Avenida Domingos Mariano,addr:suburb:Centro,amenity:parking,fee:yes,supervised:yes,surface:paved","lat":-22.5443078,"lng":-44.1743471},{"id":"4474378560","tags":"amenity:parking","lat":-22.545711,"lng":-44.1681447},{"id":"4841571766","tags":"addr:city:Barra Mansa,addr:street:Rua José Marcelino de Camargo,amenity:parking,supervised:yes,surface:paved","lat":-22.5441169,"lng":-44.173922},{"id":"4987423121","name":"TECNOMEDI BARRA MANSA","tags":"addr:housenumber:68,addr:street:Rua Orozimbo Ribeiro,name:pt:TECNOMEDI BARRA MANSA,opening_hours:Mo-Fr 08:30-18:30; Sa 08:30-13:00,phone:2433238631,shop:convenience","lat":-22.5444974,"lng":-44.1720267},{"id":"5267669821","name":"Casa do Café","tags":"addr:city:Barra Mansa,addr:housenumber:S/N,addr:postcode:27345-100,addr:street:Rodovia Presidente Dutra,amenity:cafe","lat":-22.5458222,"lng":-44.1840413},{"id":"6037139232","name":"Estacionamento Riviera","tags":"addr:city:Barra Mansa,addr:street:Rua Doutor Mário Ramos,addr:suburb:Centro,amenity:parking,capacity:100,parking:surface","lat":-22.5471417,"lng":-44.1703044},{"id":"6048570560","name":"Bar da Fátima","tags":"addr:city:Barra Mansa,addr:street:Rua Francisco Vilela de Andrade Neto,addr:suburb:Estamparia,amenity:restaurant","lat":-22.5471588,"lng":-44.1663932},{"id":"6210169882","name":"Drogaria Goiabal","tags":"addr:city:Barra Mansa,addr:street:Rodovia Presidente Getúlio Vargas - RJ-155,amenity:pharmacy,dispensing:yes,healthcare:pharmacy","lat":-22.5763135,"lng":-44.1730798},{"id":"6271438763","name":"Polícia Militar","tags":"addr:city:Barra Mansa,addr:housenumber:1715,addr:postcode:27340-100,addr:street:Rodovia Presidente Getúlio Vargas - RJ-155,addr:suburb:Santa Clara,amenity:police,opening_hours:24/7,operator:Polícia Militar do Estado do Rio de Janeiro,phone:+55 24 3328-5956,website:www.pmerj.rj.gov.br","lat":-22.5766351,"lng":-44.1722629},{"id":"6318072981","tags":"addr:city:Barra Mansa,addr:street:Rua Monsenhor Costa,addr:suburb:centro,amenity:bank,operator:Banco Itaú","lat":-22.5454002,"lng":-44.1712929},{"id":"6513647158","name":"café capital","tags":"amenity:cafe","lat":-22.5450193,"lng":-44.1709363},{"id":"6513647178","tags":"amenity:parking","lat":-22.5464113,"lng":-44.170111},{"id":"6513647180","tags":"leisure:fitness_centre","lat":-22.5476378,"lng":-44.1711493},{"id":"6513703826","name":"Sicoob","tags":"amenity:bank,brand:Sicoob,brand:wikidata:Q28679754,brand:wikipedia:pt:Sistema de Cooperativas de Crédito do Brasil","lat":-22.5465443,"lng":-44.1669888},{"id":"6684664947","name":"Correios","tags":"amenity:post_office,brand:Correios,brand:wikidata:Q3375004,brand:wikipedia:en:Correios","lat":-22.5456234,"lng":-44.1737033},{"id":"7020936241","name":"Rodoviária Shopping","tags":"shop:mall","lat":-22.5456482,"lng":-44.1688059},{"id":"8828359193","tags":"amenity:bank","lat":-22.5468467,"lng":-44.1669341}]