[{"id":"614482632","name":"Capela Mayrink","tags":"amenity:place_of_worship,denomination:catholic,name:en:Mayrink Chapel,religion:christian,tourism:attraction,wikidata:Q64563604","lat":-22.9568275,"lng":-43.2780827},{"id":"823940970","name":"Escola Municipal Menezes Vieira","tags":"IPP:BAIRRO:Alto Da Boa Vista,IPP:CHAVE:10862,IPP:CODATIVIDA:0,IPP:CODBAIRRO:034,IPP:COD_INEP:33067171,IPP:COD_SMA:010862,IPP:CRE:02,IPP:DESIGNACAO:0208018,IPP:ENDNOVO:http://webapp.sme.rio.rj.gov.br/jcartela/publico/pesquisa.do?idSetor=10862&cmd=load,addr:city:Rio de Janeiro,addr:country:BR,addr:housenumber:154,addr:street:Rua Boa Vista,amenity:school,phone:+55-21-24925343","lat":-22.965085,"lng":-43.2773688},{"id":"823941604","name":"Escola Municipal Mário Faccini","tags":"IPP:BAIRRO:Alto da Boa Vista,IPP:CHAVE:10865,IPP:CODATIVIDA:0,IPP:CODBAIRRO:034,IPP:COD_INEP:33067163,IPP:COD_SMA:010865,IPP:CRE:02,IPP:DESIGNACAO:0208021,IPP:ENDNOVO:http://webapp.sme.rio.rj.gov.br/jcartela/publico/pesquisa.do?idSetor=10865&cmd=load,addr:city:Rio de Janeiro,addr:country:BR,addr:housenumber:711,addr:street:Avenida Edson Passos,amenity:school,phone:+55-21-22382645","lat":-22.9493477,"lng":-43.2611468},{"id":"823942176","name":"Escola Municipal Marc Ferrez","tags":"IPP:BAIRRO:Alto Da Boa Vista,IPP:CHAVE:10867,IPP:CODATIVIDA:0,IPP:CODBAIRRO:034,IPP:COD_INEP:33067147,IPP:COD_SMA:010867,IPP:CRE:02,IPP:DESIGNACAO:0208023,IPP:ENDNOVO:http://webapp.sme.rio.rj.gov.br/jcartela/publico/pesquisa.do?idSetor=10867&cmd=load,addr:city:Rio de Janeiro,addr:country:BR,addr:street:Rua Jornalista Guima,amenity:school,phone:+55-21-24925362","lat":-22.9657765,"lng":-43.2786885},{"id":"823951509","name":"Classe em Cooperação Dr. Marcelo Candia","tags":"IPP:BAIRRO:Tijuca,IPP:CHAVE:10859,IPP:CODATIVIDA:0,IPP:CODBAIRRO:033,IPP:COD_INEP:33067015,IPP:COD_SMA:010859,IPP:CRE:02,IPP:DESIGNACAO:0208015,IPP:ENDNOVO:http://webapp.sme.rio.rj.gov.br/jcartela/publico/pesquisa.do?idSetor=10859&cmd=load,IPP:FLG_VALIDA:S,addr:city:Rio de Janeiro,addr:country:BR,addr:street:Estrada Independência,amenity:school,phone:+55-21-25728041","lat":-22.9395362,"lng":-43.2546645},{"id":"823951535","name":"Escola Municipal Araújo Porto Alegre","tags":"IPP:BAIRRO:Alto da Boa Vista,IPP:CHAVE:10861,IPP:CODATIVIDA:0,IPP:CODBAIRRO:034,IPP:COD_INEP:33066973,IPP:COD_SMA:010861,IPP:CRE:02,IPP:DESIGNACAO:0208017,IPP:ENDNOVO:http://webapp.sme.rio.rj.gov.br/jcartela/publico/pesquisa.do?idSetor=10861&cmd=load,addr:city:Rio de Janeiro,addr:country:BR,addr:housenumber:181,addr:street:Estrada Velha da Tijuca,amenity:school,phone:+55-21-22389531","lat":-22.9479846,"lng":-43.2581374},{"id":"837056592","name":"Escola Municipal Borel","tags":"IPP:BAIRRO:Tijuca,IPP:CHAVE:11562,IPP:CODATIVIDA:0,IPP:CODBAIRRO:033,IPP:COD_INEP:33066434,IPP:COD_SMA:011562,IPP:CRE:02,IPP:DESIGNACAO:0208024,IPP:ENDNOVO:http://webapp.sme.rio.rj.gov.br/jcartela/publico/pesquisa.do?idSetor=11562&cmd=load,IPP:FLG_VALIDA:S,addr:city:Rio de Janeiro,addr:country:BR,addr:street:Rua São Miguel,amenity:school,phone:+55-21-22083346","lat":-22.9409979,"lng":-43.2535621},{"id":"1166379756","name":"Museu do Açude","tags":"tourism:museum,wikidata:Q10333880","lat":-22.9636012,"lng":-43.282866},{"id":"1166381005","name":"Colégio Santa Marcelina","tags":"amenity:school","lat":-22.9641841,"lng":-43.2790009},{"id":"1398072914","name":"Terminal Professor Carlos Manes Bandeira","tags":"amenity:bus_station","lat":-22.9463098,"lng":-43.25678},{"id":"2190715298","tags":"amenity:parking,capacity:5,covered:no","lat":-22.9657613,"lng":-43.2459439},{"id":"2384824083","tags":"amenity:restaurant","lat":-22.961526,"lng":-43.2735296},{"id":"2384826120","tags":"amenity:restaurant","lat":-22.9589102,"lng":-43.2777768},{"id":"2384858418","name":"Recanto do Tai Chi Chuan","tags":"description:Area frequentemente utilizada para Tai Chi Chuan mas é espaço de uso comum,tourism:attraction","lat":-22.953748,"lng":-43.2818789},{"id":"2384896571","tags":"amenity:parking","lat":-22.9499315,"lng":-43.2859438},{"id":"3270528601","name":"Mesa do Imperador","tags":"historic:yes,tourism:attraction","lat":-22.9703724,"lng":-43.2578824},{"id":"9441342248","name":"Cascatinha Taunay","tags":"tourism:attraction,waterway:waterfall","lat":-22.9585381,"lng":-43.2774796},{"id":"9445005363","tags":"amenity:parking","lat":-22.9540505,"lng":-43.2826004},{"id":"9466064995","name":"Recanto dos pintores","tags":"tourism:attraction","lat":-22.9560201,"lng":-43.2811288},{"id":"9466064996","name":"Lago das Fadas","tags":"tourism:attraction,wikidata:Q67205467","lat":-22.9522079,"lng":-43.2837098},{"id":"9466064997","name":"Restaurante A Floresta","tags":"amenity:restaurant","lat":-22.9497438,"lng":-43.2856165},{"id":"9466065006","name":"Jardim dos Manacás","tags":"tourism:attraction","lat":-22.9553834,"lng":-43.285059}]