[{"id":"823941825","name":"Creche Municipal Tia Malu","tags":"IPP:BAIRRO:Taquara,IPP:CHAVE:18773,IPP:CODATIVIDA:0,IPP:CODBAIRRO:122,IPP:COD_INEP:33104840,IPP:COD_SMA:018773,IPP:CRE:07,IPP:DESIGNACAO:0716610,IPP:ENDERECO:ESTRADA DO RIO GRANDE4470,IPP:ENDNOVO:http://webapp.sme.rio.rj.gov.br/jcartela/publico/pesquisa.do?idSetor=18773&cmd=load,IPP:FLG_VALIDA:N,IPP:OBS:Estr.Rio Grande,4470-caminho Maria da Graça,57/fundos.Perto da r.TancredoNeves,amenity:school","lat":-22.9184307,"lng":-43.4101113},{"id":"823942332","name":"Ciep Pablo Neruda","tags":"IPP:BAIRRO:Taquara,IPP:CHAVE:11682,IPP:CODATIVIDA:0,IPP:CODBAIRRO:122,IPP:COD_INEP:33076944,IPP:COD_SMA:011682,IPP:CRE:07,IPP:DESIGNACAO:0716207,IPP:ENDERECO:Estr. do Mapua, S/Nº Rua Três,IPP:ENDNOVO:http://webapp.sme.rio.rj.gov.br/jcartela/publico/pesquisa.do?idSetor=11682&cmd=load,IPP:FLG_VALIDA:S,IPP:TELEFONES:2446-7090,amenity:school","lat":-22.9268931,"lng":-43.3879231},{"id":"823942575","name":"Classe em Cooperação Juliano Moreira","tags":"IPP:BAIRRO:Jacarepaguá,IPP:CHAVE:11441,IPP:CODATIVIDA:0,IPP:CODBAIRRO:115,IPP:COD_INEP:33078041,IPP:COD_SMA:011441,IPP:CRE:07,IPP:DESIGNACAO:0716004,IPP:ENDERECO:Estr. Rodrigues Caldas, 3.400,IPP:ENDNOVO:http://webapp.sme.rio.rj.gov.br/jcartela/publico/pesquisa.do?idSetor=11441&cmd=load,IPP:FLG_VALIDA:S,IPP:TELEFONES:2446-5366,amenity:school","lat":-22.93336,"lng":-43.3942467},{"id":"823943445","name":"Escola Municipal Francis Hime","tags":"IPP:BAIRRO:Jacarepaguá,IPP:CHAVE:11438,IPP:CODATIVIDA:0,IPP:CODBAIRRO:115,IPP:COD_INEP:33077894,IPP:COD_SMA:011438,IPP:CRE:07,IPP:DESIGNACAO:0716001,IPP:ENDERECO:Estr. Pau da Fome, 196  ,IPP:ENDNOVO:http://webapp.sme.rio.rj.gov.br/jcartela/publico/pesquisa.do?idSetor=11438&cmd=load,IPP:FLG_VALIDA:S,IPP:OBS:As informações estão corretas segundo a diretora,IPP:TELEFONES:2446-4548,amenity:school","lat":-22.9188433,"lng":-43.416292},{"id":"823943457","name":"Escola Municipal Denise Maria Torres","tags":"IPP:BAIRRO:Jacarepagua,IPP:CHAVE:11446,IPP:CODATIVIDA:0,IPP:CODBAIRRO:115,IPP:COD_INEP:33077819,IPP:COD_SMA:011446,IPP:CRE:07,IPP:DESIGNACAO:0716009,IPP:ENDERECO:Rua das Pastorinhas, S/Nº  ,IPP:ENDNOVO:http://webapp.sme.rio.rj.gov.br/jcartela/publico/pesquisa.do?idSetor=11446&cmd=load,IPP:FLG_VALIDA:S,IPP:OBS:Segundo a diretora as informações estão corretas,IPP:TELEFONES:2446-4020,amenity:school","lat":-22.9208859,"lng":-43.4082396},{"id":"1546278410","name":"Panificação Flor da Taquara Ltda","tags":"addr:housename:Padaria,addr:housenumber:800,addr:street:Estrada do Guerenguê,phone:+55 21 2427-2581,shop:supermarket","lat":-22.9302652,"lng":-43.3793014},{"id":"1551632011","name":"Farmácia (Rede Bandeirantes de Drogarias)","tags":"amenity:pharmacy","lat":-22.9303738,"lng":-43.37921},{"id":"1581979459","name":"Colégio Santa Mônica","tags":"amenity:school","lat":-22.9283408,"lng":-43.3748266},{"id":"2283567519","name":"Rede Smart","tags":"shop:supermarket","lat":-22.9187429,"lng":-43.4067173},{"id":"2283567521","name":"Mega Farma","tags":"amenity:pharmacy,dispensing:yes","lat":-22.9187758,"lng":-43.4068943},{"id":"2332497623","tags":"amenity:atm,operator:Banco 24 Horas","lat":-22.9193679,"lng":-43.3864451},{"id":"2780625672","tags":"amenity:bus_station","lat":-22.9229199,"lng":-43.3757335},{"id":"2933676195","tags":"amenity:police","lat":-22.9198391,"lng":-43.3985867},{"id":"2936286844","name":"Mister Pet","tags":"addr:city:Rio de Janeiro,addr:country:BR,addr:housename:Loja A,addr:housenumber:983,addr:postcode:22720-400,addr:street:Avenida dos Mananciais,amenity:veterinary,phone:+55 21 2456-2411; +55 21 2440-2451,shop:pet","lat":-22.9173734,"lng":-43.3875276},{"id":"2936376869","tags":"amenity:car_wash","lat":-22.9172403,"lng":-43.3773751},{"id":"2936448297","name":"Droga Raia","tags":"amenity:pharmacy,brand:Droga Raia,brand:wikidata:Q10357101,brand:wikipedia:pt:RaiaDrogasil,healthcare:pharmacy","lat":-22.9166589,"lng":-43.3771094},{"id":"2954320338","name":"Azimut","tags":"addr:city:Rio de Janeiro,addr:country:BR,addr:housenumber:2691,addr:postcode:22720-010,addr:street:Estrada do Rio Grande,amenity:restaurant,phone:+55 21 2440-1900; +55 21 3596-9200","lat":-22.9191279,"lng":-43.3944997},{"id":"2954320339","name":"CNA","tags":"addr:city:Rio de Janeiro,addr:country:BR,addr:housenumber:1691,addr:postcode:22720-010,addr:street:Estrada do Rio Grande,amenity:school,email:taquara@cna.com.br,fax:+55 21 2440-0345,phone:+55 21 2440-0345; +55 21 2440-4571,website:https://www.cna.com.br/","lat":-22.9194992,"lng":-43.3870067},{"id":"2954320342","name":"D-Vino","tags":"addr:city:Rio de Janeiro,addr:country:BR,addr:housenumber:54,addr:postcode:22720-000,addr:street:Rua Salinópolis,amenity:restaurant,email:restaurantedvino@gmail.com,phone:+5521 3251-8433;+5521 3251-8433,start_date:2011-10-19","lat":-22.91858,"lng":-43.3862686},{"id":"2954320343","name":"Drogaria Padrão","tags":"amenity:pharmacy,dispensing:no,phone:+55 21 2436-5000,website:http://www.maxcenter.com.br","lat":-22.9158711,"lng":-43.3780412},{"id":"2954320344","name":"Drogarias Mundial","tags":"addr:city:Rio de Janeiro,addr:country:BR,addr:housenumber:124,addr:postcode:22720-000,addr:street:Rua Salinópolis,amenity:pharmacy,healthcare:pharmacy","lat":-22.917911,"lng":-43.386428},{"id":"2954320345","name":"Esbórnia Chopp Bar","tags":"addr:city:Rio de Janeiro,addr:country:BR,addr:housename:Loja C,addr:housenumber:148,addr:postcode:22720-000,addr:street:Rua Salinópolis,amenity:bar,email:esborniabar@gmail.com,opening_hours:Tu-Su 16:00-24:00,phone:+55 21 3486-4902,website:https://facebook.com/esborniabar","lat":-22.9177201,"lng":-43.3864826},{"id":"2954320358","name":"Papo Sadio","tags":"addr:city:Rio de Janeiro,addr:country:BR,addr:housenumber:177,addr:postcode:22720-380,addr:street:Rua Relvado,amenity:bar,phone:21 2456-7024","lat":-22.9186283,"lng":-43.3873469},{"id":"2954320359","name":"Pizzaria Mananciais","tags":"addr:city:Rio de Janeiro,addr:country:BR,addr:housenumber:1096,addr:postcode:22720-410,addr:street:Avenida dos Mananciais,amenity:restaurant,cuisine:pizza","lat":-22.9171711,"lng":-43.38857},{"id":"2954320362","name":"Sushilândia","tags":"addr:city:Rio de Janeiro,addr:country:BR,addr:housenumber:2691,addr:postcode:22720-010,addr:street:Estrada do Rio Grande,amenity:restaurant,cuisine:japanese,phone:+55 21 2440-1900; +55 21 3596-9200","lat":-22.9191501,"lng":-43.3944016},{"id":"2954320365","name":"Banco24Horas","tags":"amenity:atm,brand:Banco24Horas,brand:wikidata:Q4854069,brand:wikipedia:pt:Banco24Horas,operator:Banco 24 Horas","lat":-22.9138942,"lng":-43.374299},{"id":"2954320366","name":"Banco24Horas","tags":"amenity:atm,brand:Banco24Horas,brand:wikidata:Q4854069,brand:wikipedia:pt:Banco24Horas,operator:Banco 24 Horas","lat":-22.914229,"lng":-43.3875269},{"id":"2954320403","tags":"amenity:atm,operator:Banco 24 Horas","lat":-22.9158418,"lng":-43.3780219},{"id":"2954322444","name":"Point do Frango","tags":"addr:city:Rio de Janeiro,addr:country:BR,addr:housenumber:887,addr:postcode:22720-400,addr:street:Avenida dos Mananciais,amenity:bar","lat":-22.9172932,"lng":-43.3866048},{"id":"2954322451","name":"WW Piscinas & Rações","tags":"addr:city:Rio de Janeiro,addr:country:BR,addr:housenumber:82,addr:postcode:22720-380,addr:street:Rua Relvado,amenity:veterinary,phone:+55 21 2440-2106,shop:pet","lat":-22.9182448,"lng":-43.3861838},{"id":"2955384324","name":"Burburinho Snooker Bar","tags":"addr:city:Rio de Janeiro,addr:country:BR,addr:housenumber:872,addr:postcode:22720-410,addr:street:Avenida dos Mananciais,amenity:bar,phone:+55 21 3546-1452","lat":-22.9169876,"lng":-43.3865058},{"id":"2955384327","name":"Casa do Vinho","tags":"addr:city:Rio de Janeiro,addr:country:BR,addr:housenumber:11,addr:postcode:22720-380,addr:street:Rua Relvado,amenity:bar,phone:+55 21 2456-7054","lat":-22.9183724,"lng":-43.3857106},{"id":"2955384328","name":"Chamego Zen","tags":"addr:city:Rio de Janeiro,addr:country:BR,addr:housenumber:100,addr:postcode:22720-389,addr:street:Rua Januário Barbosa,amenity:restaurant","lat":-22.918112,"lng":-43.387935},{"id":"2955384330","name":"Creche Berçário Jence Baby","tags":"addr:city:Rio de Janeiro,addr:country:BR,addr:housenumber:270,addr:postcode:22720-390,addr:street:Rua Januário Barbosa,amenity:school,email:jencebaby@yahoo.com.br,phone:+55 21 2440-0246","lat":-22.9166563,"lng":-43.388051},{"id":"2955387058","name":"SEJA - Sociedade de Ensino Jacarepaguá","tags":"addr:city:Rio de Janeiro,addr:country:BR,addr:housenumber:120,addr:postcode:22720-389,addr:street:Rua Januário Barbosa,addr:suburb:Taquara,amenity:school,phone:+55 21 2456-7083","lat":-22.9183156,"lng":-43.387917},{"id":"2955387167","name":"Sociedade Educacional Mundo Infantil","tags":"addr:city:Rio de Janeiro,addr:country:BR,addr:housenumber:28,addr:postcode:22720-250,addr:street:Rua Lucaia,alt_name:SEMI; S.E.M.I.,amenity:school,phone:+55 21 2456-6937","lat":-22.9174009,"lng":-43.3862977},{"id":"2955387215","name":"Restaurante Sabor da Praça","tags":"addr:city:Rio de Janeiro,addr:country:BR,addr:housenumber:63,addr:postcode:22720-380,addr:street:Rua Relvado,amenity:restaurant,phone:+55 21 2440-1549; +55 21 2440-4559","lat":-22.9183567,"lng":-43.3856223},{"id":"2955387251","name":"Mega Expressa Drogaria","tags":"addr:city:Rio de Janeiro,addr:country:BR,addr:housenumber:916,addr:postcode:22720-410,addr:street:Avenida dos Mananciais,amenity:pharmacy,healthcare:pharmacy,phone:+55 21 3413-9191; +55 21 2440-7625","lat":-22.9170152,"lng":-43.3870904},{"id":"2955387259","tags":"addr:city:Rio de Janeiro,addr:country:BR,addr:housename:Loja B,addr:housenumber:983,addr:postcode:22720-400,addr:street:Avenida dos Mananciais,amenity:restaurant,phone:+55 21 2456-2391","lat":-22.9174261,"lng":-43.3875215},{"id":"2955387264","name":"Jardim Escola Nosso Cantinho Encantado","tags":"addr:city:Rio de Janeiro,addr:country:BR,addr:housenumber:1115,addr:postcode:22720-400,addr:street:Avenida dos Mananciais,amenity:school,phone:+55 21 2435-7826","lat":-22.9174474,"lng":-43.3887719},{"id":"2955387265","name":"Lava Jato Mananciais","tags":"addr:city:Rio de Janeiro,addr:country:BR,addr:housename:Loja A,addr:housenumber:268,addr:postcode:22720-410,addr:street:Avenida dos Mananciais,amenity:car_wash","lat":-22.9164914,"lng":-43.3805865},{"id":"2955387272","name":"Skina dos Mananciais","tags":"addr:city:Rio de Janeiro,addr:country:BR,addr:housenumber:527,addr:postcode:22720-400,addr:street:Avenida dos Mananciais,amenity:restaurant","lat":-22.9170163,"lng":-43.3818235},{"id":"2955387274","name":"Sushi da Praça","tags":"addr:city:Rio de Janeiro,addr:country:BR,addr:housenumber:67,addr:postcode:22720-380,addr:street:Rua Relvado,amenity:restaurant,cuisine:japanese,internet_access:yes,opening_hours:18:00-01:00,phone:+55 21 3264-2374; +55 21 3298-2374","lat":-22.9183903,"lng":-43.3858122},{"id":"2955387276","name":"Taberna do Chopp","tags":"addr:city:Rio de Janeiro,addr:country:BR,addr:housename:Loja B,addr:housenumber:148,addr:postcode:22720-000,addr:street:Rua Salinópolis,amenity:bar,phone:+5521 2440-6615","lat":-22.9177353,"lng":-43.3864783},{"id":"2955387328","tags":"amenity:car_wash","lat":-22.9170888,"lng":-43.3877935},{"id":"2962122254","name":"Kumon","tags":"addr:city:Rio de Janeiro,addr:country:BR,addr:housename:Sala 301,addr:housenumber:124,addr:postcode:22720-000,addr:street:Rua Salinópolis,amenity:school","lat":-22.9178787,"lng":-43.3864372},{"id":"2962122416","tags":"amenity:police","lat":-22.9164488,"lng":-43.3779274},{"id":"2966929733","name":"Igreja Presbiteriana da Taquara","tags":"addr:city:Rio de Janeiro,addr:street:Rua Ariperana,amenity:place_of_worship,building:church,denomination:presbyterian,religion:christian","lat":-22.9156753,"lng":-43.3760362},{"id":"2966929734","name":"Drogarias Mep","tags":"amenity:pharmacy","lat":-22.9158062,"lng":-43.3770554},{"id":"2966929773","name":"Caixa Econômica Federal","tags":"addr:city:Rio de Janeiro,addr:street:Estrada do Tindiba,amenity:bank","lat":-22.9174303,"lng":-43.3770926},{"id":"2968360613","name":"Curves","tags":"addr:city:Rio de Janeiro,addr:country:BR,addr:housenumber:611,addr:postcode:22720-010,addr:street:Estrada do Rio Grande,brand:Curves,brand:wikidata:Q5196080,brand:wikipedia:en:Curves International,leisure:fitness_centre,opening_hours:Mo-Fr 07:00-20:45; Sa 08:00-11:30,phone:+55 21 2427-3891; +55 21 3396-3132; +55 21 3449-3134,website:http://www.curves.com.br","lat":-22.9188645,"lng":-43.3787201},{"id":"2968360619","name":"Mais Depil","tags":"addr:city:Rio de Janeiro,addr:country:BR,addr:housename:Loja B,addr:housenumber:835,addr:postcode:22720-400,addr:street:Avenida dos Mananciais,opening_hours:Tu-Sa 09:00-18:00,phone:+55 21 3456-3988; +55 21 99845-2600,shop:beauty,website:http://www.maisdepil.com.br/","lat":-22.9172431,"lng":-43.3860366},{"id":"2968360624","name":"Restaurante e Pizzaria Amo","tags":"amenity:restaurant","lat":-22.9153555,"lng":-43.3870583},{"id":"2968360625","name":"Rota do Sabor","tags":"addr:city:Rio de Janeiro,addr:country:BR,addr:housenumber:186,addr:postcode:22720-011,addr:street:Estrada do Rio Grande,amenity:restaurant,phone:+55 21 2445-1068","lat":-22.9223562,"lng":-43.3763232},{"id":"2968360627","name":"Vila Italiana Express","tags":"addr:city:Rio de Janeiro,addr:country:BR,addr:housenumber:835,addr:postcode:22720-400,addr:street:Avenida dos Mananciais,amenity:restaurant,cuisine:pizza","lat":-22.9172395,"lng":-43.3859988},{"id":"2970318083","name":"Esbórnia Chopp Bar","tags":"addr:city:Rio de Janeiro,addr:country:BR,addr:housename:Loja A,addr:housenumber:148,addr:postcode:22720-000,addr:street:Rua Salinópolis,amenity:bar,email:esborniabar@gmail.com,opening_hours:Tu-Su 16:00-24:00,phone:+55 21 3486-4902,website:https://facebook.com/esborniabar","lat":-22.9177506,"lng":-43.3864739},{"id":"2970318085","name":"Farmácia Popular","tags":"addr:city:Rio de Janeiro,addr:housenumber:2733,addr:postcode:22730-261,addr:street:Estrada do Tindiba,amenity:pharmacy,healthcare:pharmacy,operator:Governo do Estado do Rio de Janeiro,phone:0800 888 9697,website:https://www.saude.rj.gov.br/farmacia-popular.html","lat":-22.91889,"lng":-43.3760443},{"id":"2971562627","name":"Ennes Farma","tags":"addr:city:Rio de Janeiro,addr:country:BR,addr:housename:Loja A,addr:housenumber:1621,addr:postcode:22720-010,addr:street:Estrada do Rio Grande,amenity:pharmacy,healthcare:pharmacy,phone:+55 21 2440-4050","lat":-22.9193632,"lng":-43.3864253},{"id":"2971562628","name":"Espaço Ellas","tags":"addr:city:Rio de Janeiro,addr:country:BR,addr:housename:Loja A,addr:housenumber:1665,addr:postcode:22720-010,addr:street:Estrada do Rio Grande,contact:email:davy.alberto@yahoo.com.br,contact:phone:+55 21 2475-4525; +55 21 2456-1858,contact:website:http://espacoellas.wix.com/espacoellas,opening_hours:Tu-Sa 10:00-20:00,shop:beauty","lat":-22.9194491,"lng":-43.3867927},{"id":"2979986456","tags":"amenity:atm,operator:Itaú","lat":-22.9158992,"lng":-43.3780584},{"id":"2979986457","tags":"amenity:atm,operator:Banco 24 Horas","lat":-22.9185569,"lng":-43.3848739},{"id":"3002222533","name":"Assembléia de Deus","tags":"addr:city:Rio de Janeiro,addr:street:Rua Ariperana,amenity:place_of_worship,building:church,denomination:evangelical,religion:christian","lat":-22.9153303,"lng":-43.3755498},{"id":"4306072042","name":"32ª DP","tags":"amenity:police,building:public","lat":-22.9264271,"lng":-43.3750673},{"id":"4306186259","name":"Supermarket","tags":"shop:supermarket","lat":-22.9285071,"lng":-43.3941385},{"id":"4363817462","tags":"amenity:parking","lat":-22.9276453,"lng":-43.3748384},{"id":"4363826139","name":"Drogaria Venâncio","tags":"addr:housenumber:316,addr:street:Estrada dos Bandeirantes,amenity:pharmacy","lat":-22.9260852,"lng":-43.3740556},{"id":"4980328888","name":"Rancho das morangas","tags":"amenity:restaurant,cuisine:rã","lat":-22.8985754,"lng":-43.3896014},{"id":"6120190885","name":"Supermarket","tags":"addr:street:Estrada do Guerenguê,opening_hours:Mo-Su 06:00-22:00,shop:supermarket","lat":-22.9305907,"lng":-43.3788794},{"id":"6784014553","name":"Pastelaria Carioca","tags":"amenity:restaurant","lat":-22.9260604,"lng":-43.3873801},{"id":"7573404567","name":"Hospital Municipal Alvaro Ramos","tags":"addr:suburb:Jacarepaguá,amenity:hospital,email:hmaramos@rio.rj.gov.br,opening_hours:Mo-Fr 08:00-17:00; Sa 08:00-12:00,phone:+55 21 33920008,start_date:2002-03-13","lat":-22.9335724,"lng":-43.3941771}]