[{"id":"823908910","name":"Benjamin do Monte","tags":"IPP:CODESTFERR:5,IPP:FONTE:http://www.supervia.com.br/,IPP:RAMAL:Santa Cruz,addr:city:Rio de Janeiro,addr:country:BR,addr:postcode:23070-000,addr:street:Rua Campo Grande,opening_hours:Mo-Fr 03:50-23:50; Sa 04:45-21:35; Su 05:15-21:35; PH 05:15-21:35,operator:SuperVia,public_transport:station,railway:station,start_date:1971-12-10,train:yes,wheelchair:no,wikidata:Q10275599","lat":-22.9062859,"lng":-43.5810156},{"id":"823909050","name":"Campo Grande","tags":"IPP:CODESTFERR:9,IPP:FONTE:http://www.supervia.com.br/,IPP:RAMAL:Santa Cruz,addr:city:Rio de Janeiro,addr:country:BR,addr:postcode:23085-360,addr:street:Rua Campo Grande,opening_hours:Mo-Fr 03:50-23:50; Sa 04:50-20:00; Su 05:15-21:30; PH 05:15-21:30,operator:SuperVia,public_transport:station,railway:station,start_date:1878-12-02,train:yes,wheelchair:no,wikidata:Q10275623","lat":-22.9022205,"lng":-43.5599824},{"id":"823939971","name":"Escola Municipal Atenas","tags":"IPP:BAIRRO:Inhoaíba,IPP:CHAVE:11089,IPP:CODATIVIDA:0,IPP:CODBAIRRO:146,IPP:COD_INEP:33082634,IPP:COD_SMA:011089,IPP:CRE:09,IPP:DESIGNACAO:0918004,IPP:ENDNOVO:http://webapp.sme.rio.rj.gov.br/jcartela/publico/pesquisa.do?idSetor=11089&cmd=load,IPP:FLG_VALIDA:S,addr:street:Rua Gentil de Ouro,amenity:school,phone:+55-21-24133809","lat":-22.897063,"lng":-43.5925427},{"id":"823940123","name":"Escola Municipal João Proença","tags":"IPP:BAIRRO:Campo Grande,IPP:CHAVE:11102,IPP:CODATIVIDA:0,IPP:CODBAIRRO:144,IPP:COD_INEP:33082456,IPP:COD_SMA:011102,IPP:CRE:09,IPP:DESIGNACAO:0918019,IPP:ENDNOVO:http://webapp.sme.rio.rj.gov.br/jcartela/publico/pesquisa.do?idSetor=11102&cmd=load,IPP:FLG_VALIDA:S,addr:street:Rua Costa Nunes,amenity:school,phone:+55-21-24135625","lat":-22.9175045,"lng":-43.5583989},{"id":"823940126","name":"Escola Municipal Iva Gomes Ribeiro","tags":"IPP:BAIRRO:Inhoaíba,IPP:CHAVE:11088,IPP:CODATIVIDA:0,IPP:CODBAIRRO:146,IPP:COD_INEP:33082979,IPP:COD_SMA:011088,IPP:CRE:09,IPP:DESIGNACAO:0918003,IPP:ENDNOVO:http://webapp.sme.rio.rj.gov.br/jcartela/publico/pesquisa.do?idSetor=11088&cmd=load,IPP:FLG_VALIDA:S,addr:street:Rua Pedro Autran,amenity:school,phone:+55-21-33946195","lat":-22.914281,"lng":-43.5850805},{"id":"823941870","name":"Escola Municipal Raymundo Corrêa","tags":"IPP:BAIRRO:Campo Grande,IPP:CHAVE:11113,IPP:CODATIVIDA:0,IPP:CODBAIRRO:144,IPP:COD_INEP:33083355,IPP:COD_SMA:011113,IPP:CRE:09,IPP:DESIGNACAO:0918030,IPP:ENDERECO:Estr. do Monteiro, 1.346 - Monteiro,IPP:ENDNOVO:http://webapp.sme.rio.rj.gov.br/jcartela/publico/pesquisa.do?idSetor=11113&cmd=load,IPP:FLG_VALIDA:S,IPP:TELEFONES:3316-3197,amenity:school","lat":-22.9320826,"lng":-43.5748407},{"id":"823942219","name":"Escola Municipal Almirante Saldanha da Gama","tags":"IPP:BAIRRO:Campo Grande,IPP:CHAVE:11111,IPP:CODATIVIDA:0,IPP:CODBAIRRO:144,IPP:COD_INEP:33082588,IPP:COD_SMA:011111,IPP:CRE:09,IPP:DESIGNACAO:0918028,IPP:ENDERECO:Avenida Cesário de Melo, 4.180 Centro,IPP:ENDNOVO:http://webapp.sme.rio.rj.gov.br/jcartela/publico/pesquisa.do?idSetor=11111&cmd=load,IPP:FLG_VALIDA:S,IPP:TELEFONES:2413-4775,amenity:school","lat":-22.9066214,"lng":-43.5718282},{"id":"823942322","name":"Escola Municipal George Washington","tags":"IPP:BAIRRO:Campo Grande,IPP:CHAVE:11114,IPP:CODATIVIDA:0,IPP:CODBAIRRO:144,IPP:COD_INEP:33082936,IPP:COD_SMA:011114,IPP:CRE:09,IPP:DESIGNACAO:0918031,IPP:ENDERECO:Rua Alvorada, S/Nº,IPP:ENDNOVO:http://webapp.sme.rio.rj.gov.br/jcartela/publico/pesquisa.do?idSetor=11114&cmd=load,IPP:FLG_VALIDA:S,IPP:TELEFONES:2413-4205,amenity:school","lat":-22.9115939,"lng":-43.5755856},{"id":"823942331","name":"Escola Municipal Miguel de Larreinaga","tags":"IPP:BAIRRO:Campo Grande,IPP:CHAVE:11108,IPP:CODATIVIDA:0,IPP:CODBAIRRO:144,IPP:COD_INEP:33083100,IPP:COD_SMA:011108,IPP:CRE:09,IPP:DESIGNACAO:0918025,IPP:ENDERECO:Rua Seabra, S/Nº - Monteiro,IPP:ENDNOVO:http://webapp.sme.rio.rj.gov.br/jcartela/publico/pesquisa.do?idSetor=11108&cmd=load,IPP:FLG_VALIDA:S,IPP:TELEFONES:2413-4085,amenity:school","lat":-22.925149,"lng":-43.5662758},{"id":"823942799","name":"Escola Municipal Joari","tags":"IPP:BAIRRO:Campo Grande,IPP:CHAVE:11735,IPP:CODATIVIDA:0,IPP:CODBAIRRO:144,IPP:COD_INEP:33081689,IPP:COD_SMA:011735,IPP:CRE:09,IPP:DESIGNACAO:0918090,IPP:ENDERECO:Rua Berizal, S/Nº - Centro,IPP:ENDNOVO:http://webapp.sme.rio.rj.gov.br/jcartela/publico/pesquisa.do?idSetor=11735&cmd=load,IPP:FLG_VALIDA:S,IPP:TELEFONES:3384-1705,amenity:school","lat":-22.9138625,"lng":-43.5523586},{"id":"823943599","name":"Ciep Clementina de Jesus","tags":"IPP:BAIRRO:Campo Grande,IPP:CHAVE:11725,IPP:CODATIVIDA:0,IPP:CODBAIRRO:144,IPP:COD_INEP:33081794,IPP:COD_SMA:011725,IPP:CRE:09,IPP:DESIGNACAO:0918203,IPP:ENDERECO:Avenida Alhambra, S/Nº - Monteiro,IPP:ENDNOVO:http://webapp.sme.rio.rj.gov.br/jcartela/publico/pesquisa.do?idSetor=11725&cmd=load,IPP:FLG_VALIDA:S,IPP:TELEFONES:2411-0530,amenity:school","lat":-22.9253057,"lng":-43.5666913},{"id":"823943673","name":"Escola Municipal Professor Paulo Silva","tags":"IPP:BAIRRO:Inhoaíba,IPP:CHAVE:11119,IPP:CODATIVIDA:0,IPP:CODBAIRRO:146,IPP:COD_INEP:33083290,IPP:COD_SMA:011119,IPP:CRE:09,IPP:DESIGNACAO:0918036,IPP:ENDERECO:Rua Jario Corrêa, S/Nº - Benjamin Dumont ,IPP:ENDNOVO:http://webapp.sme.rio.rj.gov.br/jcartela/publico/pesquisa.do?idSetor=11119&cmd=load,IPP:FLG_VALIDA:S,IPP:TELEFONES:3394-5725,amenity:school","lat":-22.908599,"lng":-43.5847775},{"id":"823944115","name":"Creche Municipal Criando o Futuro","tags":"IPP:BAIRRO:Inhoaíba,IPP:CHAVE:39753,IPP:CODATIVIDA:0,IPP:CODBAIRRO:146,IPP:COD_INEP:33147396,IPP:COD_SMA:039753,IPP:CRE:09,IPP:DESIGNACAO:0918617,IPP:ENDERECO:Avenida Cesário de Melo, 6006,IPP:ENDNOVO:http://webapp.sme.rio.rj.gov.br/jcartela/publico/pesquisa.do?idSetor=39753&cmd=load,IPP:FLG_VALIDA:S,amenity:school","lat":-22.9111663,"lng":-43.5902457},{"id":"823945014","name":"Escola Municipal Halfeld","tags":"IPP:BAIRRO:Campo Grande,IPP:CHAVE:11142,IPP:CODATIVIDA:0,IPP:CODBAIRRO:144,IPP:COD_INEP:33082952,IPP:COD_SMA:011142,IPP:CRE:09,IPP:DESIGNACAO:0918059,IPP:ENDERECO:Avenida André Vesalio, S/Nº,IPP:ENDNOVO:http://webapp.sme.rio.rj.gov.br/jcartela/publico/pesquisa.do?idSetor=11142&cmd=load,IPP:FLG_VALIDA:S,IPP:TELEFONES:2413-4750,amenity:school","lat":-22.89782,"lng":-43.5689031},{"id":"823945047","name":"Escola Municipal Pugilista Virgulino Isaias de Oliveira","tags":"IPP:BAIRRO:Campo Grande,IPP:CHAVE:11121,IPP:CODATIVIDA:0,IPP:CODBAIRRO:144,IPP:COD_INEP:33083339,IPP:COD_SMA:011121,IPP:CRE:09,IPP:DESIGNACAO:0918038,IPP:ENDERECO:Rua Acreuna, S/Nº Loteamento Joari, 66,IPP:ENDNOVO:http://webapp.sme.rio.rj.gov.br/jcartela/publico/pesquisa.do?idSetor=11121&cmd=load,IPP:FLG_VALIDA:S,IPP:TELEFONES:3384-1713,amenity:school","lat":-22.9103856,"lng":-43.5517115},{"id":"823945060","name":"Creche Municipal Emilio Ibrahim Lázaro Jubram Dib","tags":"IPP:BAIRRO:Campo Grande,IPP:CHAVE:39750,IPP:CODATIVIDA:0,IPP:CODBAIRRO:144,IPP:COD_INEP:33158150,IPP:COD_SMA:039750,IPP:CRE:09,IPP:DESIGNACAO:0918620,IPP:ENDERECO:Rua Beira Rio, s/n,IPP:ENDNOVO:http://webapp.sme.rio.rj.gov.br/jcartela/publico/pesquisa.do?idSetor=39750&cmd=load,IPP:FLG_VALIDA:S,amenity:school","lat":-22.9207091,"lng":-43.5559056},{"id":"823945093","name":"Escola Municipal Isabel","tags":"IPP:BAIRRO:Inhoaíba,IPP:CHAVE:11734,IPP:CODATIVIDA:0,IPP:CODBAIRRO:146,IPP:COD_INEP:33081662,IPP:COD_SMA:011734,IPP:CRE:09,IPP:DESIGNACAO:0918089,IPP:ENDERECO:Avenida Cesário de Melo, 5.580 - Benjamin Dumont  ,IPP:ENDNOVO:http://webapp.sme.rio.rj.gov.br/jcartela/publico/pesquisa.do?idSetor=11734&cmd=load,IPP:FLG_VALIDA:S,IPP:TELEFONES:2415-7490,amenity:school","lat":-22.9103368,"lng":-43.5858579},{"id":"823945539","name":"Escola Municipal Professor Almo Saturnino","tags":"IPP:BAIRRO:Campo Grande,IPP:CHAVE:11736,IPP:CODATIVIDA:0,IPP:CODBAIRRO:144,IPP:COD_INEP:33081697,IPP:COD_SMA:011736,IPP:CRE:09,IPP:DESIGNACAO:0918091,IPP:ENDERECO:Avenida Aldo Botelho, S/Nº - Benjamin Dumont,IPP:ENDNOVO:http://webapp.sme.rio.rj.gov.br/jcartela/publico/pesquisa.do?idSetor=11736&cmd=load,IPP:FLG_VALIDA:S,IPP:TELEFONES:2415-7556,amenity:school","lat":-22.9167661,"lng":-43.5806471},{"id":"823945756","name":"Escola Municipal Augusto Vasconcelos","tags":"IPP:CHAVE:11139,IPP:CODATIVIDA:0,IPP:CODBAIRRO:144,IPP:COD_INEP:33082642,IPP:COD_SMA:011139,IPP:CRE:09,IPP:DESIGNACAO:0918056,IPP:ENDNOVO:http://webapp.sme.rio.rj.gov.br/jcartela/publico/pesquisa.do?idSetor=11139&cmd=load,IPP:FLG_VALIDA:S,addr:city:Rio de Janeiro,addr:housenumber:191,addr:street:Rua Barcelos Domingos,addr:suburb:Campo Grande,amenity:school,phone:+55-21-24133857","lat":-22.8976709,"lng":-43.5586293},{"id":"823947960","name":"Escola Especial Municipal Maria Montessori","tags":"IPP:BAIRRO:Campo Grande,IPP:CHAVE:11165,IPP:CODATIVIDA:0,IPP:CODBAIRRO:144,IPP:COD_INEP:33094675,IPP:COD_SMA:011165,IPP:CRE:09,IPP:DESIGNACAO:0918082,IPP:ENDERECO:Rua Ivo do Prado, 361,IPP:ENDNOVO:http://webapp.sme.rio.rj.gov.br/jcartela/publico/pesquisa.do?idSetor=11165&cmd=load,IPP:FLG_VALIDA:S,IPP:TELEFONES:2413-5695,amenity:school","lat":-22.8998086,"lng":-43.565487},{"id":"823949564","name":"Creche Municipal Alegria de Nova Cidade","tags":"IPP:BAIRRO:Inhoaiba,IPP:CHAVE:17896,IPP:CODATIVIDA:0,IPP:CODBAIRRO:146,IPP:COD_INEP:33095922,IPP:COD_SMA:017896,IPP:CRE:09,IPP:DESIGNACAO:0918601,IPP:ENDERECO:ESTRADA DO GOIABAL75,IPP:ENDNOVO:http://webapp.sme.rio.rj.gov.br/jcartela/publico/pesquisa.do?idSetor=17896&cmd=load,IPP:FLG_VALIDA:S,amenity:school","lat":-22.9031597,"lng":-43.5906698},{"id":"823950036","name":"Escola Municipal Venezuela","tags":"addr:city:Rio de Janeiro,addr:housenumber:37,addr:street:Rua Amaral Costa,addr:suburb:Campo Grande,amenity:school,phone:+55-21-24133755","lat":-22.9062669,"lng":-43.5607822},{"id":"823951096","name":"Escola Municipal Santa Isabel","tags":"IPP:BAIRRO:Inhoaíba,IPP:CHAVE:11120,IPP:CODATIVIDA:0,IPP:CODBAIRRO:146,IPP:COD_INEP:33083428,IPP:COD_SMA:011120,IPP:CRE:09,IPP:DESIGNACAO:0918037,IPP:ENDERECO:Avenida Cesário de Melo, 5.380 - Benjamin Dumont ,IPP:ENDNOVO:http://webapp.sme.rio.rj.gov.br/jcartela/publico/pesquisa.do?idSetor=11120&cmd=load,IPP:FLG_VALIDA:S,IPP:TELEFONES:3394-5281,amenity:school","lat":-22.910685,"lng":-43.5856834},{"id":"823951426","name":"Escola Municipal São Camilo de Lelis","tags":"IPP:BAIRRO:Campo Grande,IPP:CHAVE:11122,IPP:CODATIVIDA:0,IPP:CODBAIRRO:144,IPP:COD_INEP:33083410,IPP:COD_SMA:011122,IPP:CRE:09,IPP:DESIGNACAO:0918039,IPP:ENDERECO:Avenida Aldo Botelho, S/Nº - Benjamin Dumont ,IPP:ENDNOVO:http://webapp.sme.rio.rj.gov.br/jcartela/publico/pesquisa.do?idSetor=11122&cmd=load,IPP:FLG_VALIDA:S,IPP:TELEFONES:2415-5472,amenity:school","lat":-22.916732,"lng":-43.5811039},{"id":"823951508","name":"Escola Municipal Presidente Arthur Bernardes","tags":"IPP:BAIRRO:Campo Grande,IPP:CHAVE:11112,IPP:CODATIVIDA:0,IPP:CODBAIRRO:144,IPP:COD_INEP:33083185,IPP:COD_SMA:011112,IPP:CRE:09,IPP:DESIGNACAO:0918029,IPP:ENDERECO:Rua Peropaba, 125 Monteiro  ,IPP:ENDNOVO:http://webapp.sme.rio.rj.gov.br/jcartela/publico/pesquisa.do?idSetor=11112&cmd=load,IPP:FLG_VALIDA:S,IPP:TELEFONES:3364-5272,amenity:school","lat":-22.9210752,"lng":-43.564585},{"id":"823951827","name":"Escola Municipal Professor Alfredo de Pires Flores","tags":"IPP:BAIRRO:Campo Grande,IPP:CHAVE:16323,IPP:CODATIVIDA:0,IPP:CODBAIRRO:144,IPP:COD_INEP:33139814,IPP:COD_SMA:016323,IPP:CRE:09,IPP:DESIGNACAO:0918084,IPP:ENDERECO:Rua Rodrigues de Abreu, 10 - Monteiro  ,IPP:ENDNOVO:http://webapp.sme.rio.rj.gov.br/jcartela/publico/pesquisa.do?idSetor=16323&cmd=load,IPP:FLG_VALIDA:S,IPP:TELEFONES:3377-1940,amenity:school","lat":-22.9305535,"lng":-43.5764658},{"id":"823952479","name":"Ciep Raymundo Ottoni de Castro Maya","tags":"IPP:BAIRRO:Inhoaíba,IPP:CHAVE:11733,IPP:CODATIVIDA:0,IPP:CODBAIRRO:146,IPP:COD_INEP:33081875,IPP:COD_SMA:011733,IPP:CRE:09,IPP:DESIGNACAO:0918506,IPP:ENDERECO:Rua Moranga, S/Nº - Benjamin Dumont,IPP:ENDNOVO:http://webapp.sme.rio.rj.gov.br/jcartela/publico/pesquisa.do?idSetor=11733&cmd=load,IPP:FLG_VALIDA:S,IPP:TELEFONES:3394-2130,amenity:school","lat":-22.9116055,"lng":-43.5837797},{"id":"823958882","name":"35º DP - Campo Grande","tags":"IPP:Codigo:30.000000000,IPP:Endereco:Avenida Maria Tereza, Lt 8/9/10,IPP:Telefone:3399-5650,amenity:police","lat":-22.9043229,"lng":-43.5664877},{"id":"823958985","name":"DEAM Rio-Oeste - Delegacia Especial de Atendimento a Mulher","tags":"IPP:Codigo:40.000000000,IPP:Endereco:Avenida Cesario de Mello, 4.138 - Campo Grande,IPP:Telefone:2232-1262,amenity:police","lat":-22.9067849,"lng":-43.5714031},{"id":"1734132449","name":"898","tags":"amenity:bus_station,wheelchair:limited","lat":-22.9015082,"lng":-43.5606928},{"id":"1738397154","name":"Brazeiro Churrascaria","tags":"amenity:restaurant,wheelchair:limited","lat":-22.9054709,"lng":-43.5563472},{"id":"1870148821","name":"Escola Seiva Pura","tags":"amenity:school","lat":-22.9284638,"lng":-43.5586023},{"id":"1870734947","name":"Nossa Senhora do Carmo","tags":"amenity:hospital","lat":-22.8984195,"lng":-43.5610913},{"id":"2262997613","name":"Padaria Spinosa","tags":"shop:convenience","lat":-22.9139723,"lng":-43.5795051},{"id":"2429294635","name":"Mercado Moranga","tags":"shop:convenience","lat":-22.914,"lng":-43.5839391},{"id":"2984797542","name":"Romanella","tags":"addr:housenumber:310,addr:street:Rua Baicuru,amenity:restaurant,phone:+55 21 35972084","lat":-22.9125051,"lng":-43.5615861},{"id":"2988720829","name":"Multi Market","tags":"shop:supermarket","lat":-22.8972588,"lng":-43.5797977},{"id":"2988721558","tags":"amenity:school","lat":-22.8981456,"lng":-43.5687846},{"id":"2995005734","name":"Congresso do Chopp","tags":"amenity:restaurant","lat":-22.9169171,"lng":-43.5638045},{"id":"2995005735","name":"Igreja Batista Nova Filadélfia","tags":"addr:housenumber:425,addr:street:Estrada do Monteiro,amenity:place_of_worship,building:church,denomination:baptist,religion:christian","lat":-22.9168667,"lng":-43.5633701},{"id":"2995005739","name":"Fornella","tags":"amenity:restaurant,cuisine:pizza","lat":-22.9174186,"lng":-43.5637478},{"id":"2995005933","name":"Drogaria Ponto Saúde","tags":"amenity:pharmacy,dispensing:yes,healthcare:pharmacy,phone:+55 21 3406-8000","lat":-22.9172091,"lng":-43.5637878},{"id":"2995005934","name":"Caixa Econômica Federal","tags":"amenity:bank,brand:Caixa Econômica Federal,brand:wikidata:Q835283,brand:wikipedia:pt:Caixa Econômica Federal","lat":-22.9138536,"lng":-43.5630431},{"id":"2995006434","name":"Supermarket","tags":"shop:supermarket","lat":-22.9136711,"lng":-43.5630482},{"id":"2996745456","tags":"amenity:restaurant","lat":-22.9002394,"lng":-43.5672822},{"id":"2996745457","tags":"amenity:restaurant","lat":-22.900836,"lng":-43.5673317},{"id":"2996745458","name":"Itaú","tags":"amenity:bank","lat":-22.8999346,"lng":-43.5671512},{"id":"3105695818","name":"Ana Gonzaga","tags":"amenity:bus_station,operator:BRTRio","lat":-22.9112172,"lng":-43.5895078},{"id":"3105695820","name":"São Jorge","tags":"amenity:bus_station,operator:BRTRio","lat":-22.9108502,"lng":-43.584193},{"id":"3105695822","name":"Pina Rangel","tags":"amenity:bus_station,operator:BRTRio","lat":-22.9074988,"lng":-43.5757857},{"id":"3105695824","name":"Parque Esperança","tags":"amenity:bus_station,operator:BRTRio","lat":-22.9069133,"lng":-43.571639},{"id":"3105695825","name":"Maria Tereza","tags":"amenity:bus_station","lat":-22.9081287,"lng":-43.5658923},{"id":"3105695826","name":"Cândido Magalhães","tags":"amenity:bus_station,operator:BRTRio","lat":-22.9076891,"lng":-43.5640685},{"id":"3105695827","name":"Prefeito Alim Pedro","tags":"amenity:bus_station,operator:BRTRio","lat":-22.9036444,"lng":-43.5662597},{"id":"3105695828","name":"Gramado","tags":"amenity:bus_station,operator:BRTRio","lat":-22.9044772,"lng":-43.5705768},{"id":"3301346409","tags":"amenity:parking","lat":-22.9050709,"lng":-43.5575141},{"id":"3301821794","name":"Colégio Antônio de Pádua","tags":"amenity:school","lat":-22.9021028,"lng":-43.5638869},{"id":"3301821796","name":"Colégio Santos Maia","tags":"amenity:school","lat":-22.900902,"lng":-43.562653},{"id":"3301821816","name":"Ashop","tags":"shop:convenience","lat":-22.8987845,"lng":-43.5550946},{"id":"3301821817","name":"Moovie Music","tags":"amenity:bar","lat":-22.9001928,"lng":-43.5547566},{"id":"3827757857","name":"Colégio Nascimento","tags":"amenity:school","lat":-22.8972689,"lng":-43.580354},{"id":"4114513091","name":"Colégio Castro e Silva","tags":"amenity:school,natural:tree","lat":-22.9009481,"lng":-43.555052},{"id":"4115035759","tags":"amenity:parking","lat":-22.9083611,"lng":-43.5600647},{"id":"4115035763","tags":"amenity:parking","lat":-22.9047464,"lng":-43.56191},{"id":"4115035764","tags":"amenity:parking","lat":-22.9056853,"lng":-43.5587719},{"id":"4115035766","tags":"amenity:parking","lat":-22.9090553,"lng":-43.5602659},{"id":"4115035767","tags":"amenity:parking","lat":-22.9024734,"lng":-43.5537508},{"id":"4115035768","tags":"amenity:parking","lat":-22.9018952,"lng":-43.5536488},{"id":"4210523592","name":"Império D'Itália","tags":"amenity:restaurant","lat":-22.9100843,"lng":-43.559451},{"id":"4224710389","name":"Mr. Ox","tags":"amenity:restaurant","lat":-22.9166877,"lng":-43.5632755},{"id":"4226097490","name":"Bergamo","tags":"amenity:restaurant,description:Pizzas, grelhados e massas","lat":-22.91038,"lng":-43.558859},{"id":"4319675324","name":"Academia Body Fitness","tags":"addr:housenumber:145,addr:street:Rua Olinda Ellis,leisure:fitness_centre,opening_hours:mo-fr 06:00-22:00;sa 08:00-18:00,phone:+55 21 33949339,website:http://www.bodyfitnessacademia.com.br/","lat":-22.9099431,"lng":-43.5590105},{"id":"4319675325","name":"Drogaria Camp Farma","tags":"amenity:pharmacy","lat":-22.909187,"lng":-43.5594566},{"id":"4319675326","name":"Drogarias Max","tags":"amenity:pharmacy","lat":-22.9076305,"lng":-43.5618921},{"id":"4319675327","name":"Escola Campo Grande","tags":"amenity:school","lat":-22.9090883,"lng":-43.559429},{"id":"4319675348","tags":"amenity:pharmacy","lat":-22.9077577,"lng":-43.5631916},{"id":"4319675354","tags":"amenity:bank,atm:yes,brand:Itaú","lat":-22.9079035,"lng":-43.5638058},{"id":"4322625536","name":"Rei da Picanha","tags":"amenity:restaurant","lat":-22.9117104,"lng":-43.5575944},{"id":"4328225479","name":"Chama Gaúcha","tags":"amenity:restaurant,phone:+5521 33775776","lat":-22.9243242,"lng":-43.5617394},{"id":"4370459420","name":"Escola Rural São Vicente de Paulo","tags":"amenity:school","lat":-22.9350162,"lng":-43.579498},{"id":"4370475462","name":"Lava a Jato do Fabinho","tags":"amenity:car_wash","lat":-22.9139142,"lng":-43.5588051},{"id":"4370502386","name":"Rei do Gado","tags":"amenity:restaurant","lat":-22.9092529,"lng":-43.5662931},{"id":"4370505002","name":"Makimono Sushi","tags":"amenity:restaurant,cuisine:japanese","lat":-22.9099581,"lng":-43.5649832},{"id":"4372198735","name":"Konnen","tags":"leisure:fitness_centre","lat":-22.9216731,"lng":-43.5624701},{"id":"4386705840","tags":"amenity:bank,atm:yes,brand:Bradesco","lat":-22.8975967,"lng":-43.5653964},{"id":"4405612111","tags":"amenity:pharmacy","lat":-22.9079657,"lng":-43.564825},{"id":"4407581678","tags":"leisure:fitness_centre","lat":-22.9099381,"lng":-43.5590617},{"id":"4407799606","name":"Smart Fit","tags":"layer:-1,leisure:fitness_centre","lat":-22.9277254,"lng":-43.5740009},{"id":"4579789994","name":"Moto Táxi iaraquã","tags":"addr:street:Estrada Iaraquã,amenity:car_wash,name:pt:Moto Táxi iaraquã,opening_hours:Mo-Sa 07:00-23:00; Su 09:00-21:00,phone:41088535","lat":-22.924166,"lng":-43.5621988},{"id":"4940322422","name":"Mercado Santa Terezinha","tags":"name:pt:Mercado Santa Terezinha,shop:supermarket","lat":-22.9031158,"lng":-43.5770388},{"id":"5047028239","name":"Rodoviária de Campo Grande","tags":"amenity:bus_station,name:en:Campo Grande bus station","lat":-22.9016564,"lng":-43.5558892},{"id":"5256856799","name":"Casa de Rações Jacarepagua","tags":"shop:pet","lat":-22.9140974,"lng":-43.5631187},{"id":"6490102041","name":"Rações Pica Pau","tags":"shop:supermarket","lat":-22.9122228,"lng":-43.5590675},{"id":"8206877646","name":"Koni","tags":"amenity:restaurant,cuisine:japanese","lat":-22.9263421,"lng":-43.5757497},{"id":"8206877651","name":"Madero","tags":"amenity:restaurant,cuisine:burger","lat":-22.9268831,"lng":-43.5759026},{"id":"8206877653","name":"Leitura","tags":"shop:books","lat":-22.9266904,"lng":-43.574945},{"id":"8206877654","name":"Supermarket","tags":"opening_hours:Mo-Sa 08:00-22:00,shop:supermarket","lat":-22.9262902,"lng":-43.5754761},{"id":"8206877656","name":"Outback Steakhouse","tags":"amenity:restaurant,cuisine:argentinian","lat":-22.9278687,"lng":-43.5747814},{"id":"8619153775","name":"Argus Crossfit","tags":"addr:city:Rio de Janeiro,addr:housenumber:76 Box,addr:postcode:23045490,addr:street:Rua Guaraí,addr:suburb:Campo Grande,email:contato@arguscrossfit.com.br,leisure:fitness_centre,phone:+5521981970748,sport:crossfit;gymnastics;ginástica_artística;muay_thai;jiu-jitsu;judo,website:https://www.arguscrossfit.com.br/","lat":-22.9092447,"lng":-43.5608482},{"id":"8786299904","name":"Porão do Alien - K-pop","tags":"addr:city:Rio de Janeiro,addr:housenumber:15,addr:postcode:23050-360,addr:street:Rua Cel. Agostinho, BOX 13E,addr:suburb:Campo Grande,image:https://i.imgur.com/ordRqWw.png,internet_access:no,opening_hours:Mo-Sa 09:00-19:00,payment:american_express:yes,payment:cash:yes,payment:coins:yes,payment:credit_cards:yes,payment:debit_cards:yes,payment:maestro:yes,payment:mastercard:yes,payment:visa:yes,payment:visa_debit:yes,payment:visa_electron:yes,phone:+552123944951,shop:supermarket,website:https://poraodoalien.com","lat":-22.9022299,"lng":-43.5583398},{"id":"8786375196","name":"Porão do Alien - Anime","tags":"addr:city:Rio de Janeiro,addr:housenumber:18,addr:postcode:23050-350,addr:street:Travessa Ferreira Borges,addr:suburb:Campo Grande,opening_hours:Mo-Sa 08:00-19:00,payment:american_express:yes,payment:cash:yes,payment:coins:yes,payment:credit_cards:yes,payment:debit_cards:yes,payment:maestro:yes,payment:mastercard:yes,payment:visa:yes,payment:visa_debit:yes,payment:visa_electron:yes,phone:+552123944951,shop:supermarket,website:https://poraodoalien.com","lat":-22.9021734,"lng":-43.5582871},{"id":"9203266579","name":"Fabuloso Burger - Campo Grande #2","tags":"addr:city:Rio de Janeiro,addr:housenumber:43,addr:postcode:23045-055,addr:street:Rua Professor Gonçalves,addr:suburb:Campo Grande,amenity:restaurant,cuisine:burger,diet:meat:yes,diet:non-vegetarian:yes,diet:vegetarian:yes","lat":-22.909729,"lng":-43.5649402},{"id":"9893352060","name":"Starbucks","tags":"addr:city:Rio de Janeiro,addr:housenumber:1200,addr:street:Estrada do Monteiro,addr:suburb:Campo Grande,amenity:cafe,brand:Starbucks,brand:wikidata:Q37158,cuisine:coffee_shop,official_name:Starbucks Coffee,outdoor_seating:no,takeaway:yes","lat":-22.9267575,"lng":-43.5755176},{"id":"9893352065","name":"Cobasi","tags":"brand:Cobasi,brand:wikidata:Q86739236,shop:pet","lat":-22.9266923,"lng":-43.5764395},{"id":"8206877647","name":"Pizza Hut","tags":"amenity:restaurant,brand:Pizza Hut,brand:wikidata:Q191615,cuisine:pizza","lat":-22.9268732,"lng":-43.5763264}]