[{"id":"823909107","name":"Santíssimo","tags":"IPP:CODESTFERR:51,IPP:FONTE:http://www.supervia.com.br/,IPP:RAMAL:Santa Cruz,addr:city:Rio de Janeiro,addr:country:BR,addr:postcode:23094-010,addr:street:Rua Anes Dias,opening_hours:Mo-Fr 04:00-23:40; Sa 04:55-21:20; Su 05:20-21:20; PH 05:20-21:20,operator:SuperVia,public_transport:station,railway:station,start_date:1890,train:yes,wikidata:Q10276134","lat":-22.8796485,"lng":-43.5113977},{"id":"823909111","name":"Augusto Vasconcelos","tags":"IPP:CODESTFERR:2,IPP:FONTE:http://www.supervia.com.br/,IPP:RAMAL:Santa Cruz,addr:city:Rio de Janeiro,addr:country:BR,addr:postcode:23013-440,addr:street:Rua Tenente Agenor Brito,opening_hours:Mo-Fr 04:00-23:45; Sa 04:50-21:30; Su 05:20-21:25; PH 05:20-21:25,operator:SuperVia,public_transport:station,railway:station,start_date:1914-11-07,train:yes,wheelchair:no,wikidata:Q10275583","lat":-22.8930412,"lng":-43.5373957},{"id":"823940145","name":"Escola Municipal Casemiro de Abreu","tags":"IPP:BAIRRO:Campo Grande,IPP:CHAVE:11135,IPP:CODATIVIDA:0,IPP:CODBAIRRO:144,IPP:COD_INEP:33082707,IPP:COD_SMA:011135,IPP:CRE:09,IPP:DESIGNACAO:0918052,IPP:ENDNOVO:http://webapp.sme.rio.rj.gov.br/jcartela/publico/pesquisa.do?idSetor=11135&cmd=load,IPP:FLG_VALIDA:S,addr:housenumber:4842,addr:street:Estrada do Mendanha,amenity:school,phone:+55-21-24137095","lat":-22.8572356,"lng":-43.541007},{"id":"823941119","name":"Ciep Herivelto Martins","tags":"IPP:BAIRRO:Senador Vasconcelos,IPP:CHAVE:11753,IPP:CODATIVIDA:0,IPP:CODBAIRRO:145,IPP:COD_INEP:33081832,IPP:COD_SMA:011753,IPP:CRE:09,IPP:DESIGNACAO:0918511,IPP:ENDERECO:Praça Santo Anastácio, S/Nº  ,IPP:ENDNOVO:http://webapp.sme.rio.rj.gov.br/jcartela/publico/pesquisa.do?idSetor=11753&cmd=load,IPP:FLG_VALIDA:S,IPP:TELEFONES:3394-2224,amenity:school,wheelchair:limited","lat":-22.8865014,"lng":-43.5288448},{"id":"823942394","name":"Escola Municipal Ernesto Nazareth","tags":"IPP:BAIRRO:Santíssimo,IPP:CHAVE:11127,IPP:CODATIVIDA:0,IPP:CODBAIRRO:143,IPP:COD_INEP:33082855,IPP:COD_SMA:011127,IPP:CRE:09,IPP:DESIGNACAO:0918044,IPP:ENDERECO:Rua Bastos Tigre, S/Nº  ,IPP:ENDNOVO:http://webapp.sme.rio.rj.gov.br/jcartela/publico/pesquisa.do?idSetor=11127&cmd=load,IPP:FLG_VALIDA:S,IPP:TELEFONES:2413-4564,amenity:school","lat":-22.8767748,"lng":-43.5306224},{"id":"823943709","name":"Escola Municipal Cora Coralina","tags":"IPP:BAIRRO:Campo Grande,IPP:CHAVE:11164,IPP:CODATIVIDA:0,IPP:CODBAIRRO:144,IPP:COD_INEP:33082774,IPP:COD_SMA:011164,IPP:CRE:09,IPP:DESIGNACAO:0918081,IPP:ENDERECO:Rua Votorantim, S/Nº - Km 10 - Mendanha,IPP:ENDNOVO:http://webapp.sme.rio.rj.gov.br/jcartela/publico/pesquisa.do?idSetor=11164&cmd=load,IPP:FLG_VALIDA:S,IPP:TELEFONES:2413-7919,amenity:school","lat":-22.8587935,"lng":-43.5370898},{"id":"823943937","name":"Escola Municipal Teodoro Sampaio","tags":"IPP:BAIRRO:Senador Vasconcelos,IPP:CHAVE:11131,IPP:CODATIVIDA:0,IPP:CODBAIRRO:145,IPP:COD_INEP:33083444,IPP:COD_SMA:011131,IPP:CRE:09,IPP:DESIGNACAO:0918048,IPP:ENDERECO:Rua Gal. Uchoa Cavalcanti, 135  ,IPP:ENDNOVO:http://webapp.sme.rio.rj.gov.br/jcartela/publico/pesquisa.do?idSetor=11131&cmd=load,IPP:FLG_VALIDA:S,IPP:TELEFONES:3394-6725,amenity:school","lat":-22.8938593,"lng":-43.544478},{"id":"823944524","name":"Escola Municipal Professor Fábio César Pacífico","tags":"IPP:BAIRRO:Campo Grande,IPP:CHAVE:18801,IPP:CODATIVIDA:0,IPP:CODBAIRRO:144,IPP:COD_INEP:33142920,IPP:COD_SMA:018801,IPP:CRE:09,IPP:DESIGNACAO:0918086,IPP:ENDERECO:Rua Pavão, S/Nº - Mendanha  ,IPP:ENDNOVO:http://webapp.sme.rio.rj.gov.br/jcartela/publico/pesquisa.do?idSetor=18801&cmd=load,IPP:FLG_VALIDA:S,IPP:TELEFONES:3364-0871,amenity:school","lat":-22.8551108,"lng":-43.5315427},{"id":"823944561","name":"Creche Municipal Professora Flora Santina Ferrari Braz","tags":"IPP:BAIRRO:Santissimo,IPP:CHAVE:19193,IPP:CODATIVIDA:0,IPP:CODBAIRRO:014,IPP:COD_INEP:33150354,IPP:COD_SMA:019193,IPP:CRE:09,IPP:DESIGNACAO:0918613,IPP:ENDERECO:ESTRADA DO LAMEIRAOS/N,IPP:ENDNOVO:http://webapp.sme.rio.rj.gov.br/jcartela/publico/pesquisa.do?idSetor=19193&cmd=load,IPP:FLG_VALIDA:S,amenity:school","lat":-22.8778477,"lng":-43.5237421},{"id":"823944997","name":"Escola Municipal Tenente Góes Monteiro","tags":"IPP:BAIRRO:Santíssimo,IPP:CHAVE:11126,IPP:CODATIVIDA:0,IPP:CODBAIRRO:143,IPP:COD_INEP:33083436,IPP:COD_SMA:011126,IPP:CRE:09,IPP:DESIGNACAO:0918043,IPP:ENDERECO:Estr. Sete Riachos, 2.206  ,IPP:ENDNOVO:http://webapp.sme.rio.rj.gov.br/jcartela/publico/pesquisa.do?idSetor=11126&cmd=load,IPP:FLG_VALIDA:S,IPP:TELEFONES:3407-5280,amenity:school","lat":-22.8625882,"lng":-43.5234666},{"id":"823945038","name":"Escola Municipal Professor Helton Alvares Veloso de Castro","tags":"IPP:BAIRRO:Santíssimo,IPP:CHAVE:16377,IPP:CODATIVIDA:0,IPP:CODBAIRRO:143,IPP:COD_INEP:33139806,IPP:COD_SMA:016377,IPP:CRE:09,IPP:DESIGNACAO:0918085,IPP:ENDERECO:Rua Projetada A - Vila Romana  ,IPP:ENDNOVO:http://webapp.sme.rio.rj.gov.br/jcartela/publico/pesquisa.do?idSetor=16377&cmd=load,IPP:FLG_VALIDA:S,IPP:TELEFONES:3469-9761,amenity:school","lat":-22.8757849,"lng":-43.5149348},{"id":"823945072","name":"Escola Municipal Alzira Araujo","tags":"IPP:BAIRRO:Campo Grande,IPP:CHAVE:11161,IPP:CODATIVIDA:0,IPP:CODBAIRRO:144,IPP:COD_INEP:33082596,IPP:COD_SMA:011161,IPP:CRE:09,IPP:DESIGNACAO:0918078,IPP:ENDERECO:Rua Ari Lobo, 430 - Posse  ,IPP:ENDNOVO:http://webapp.sme.rio.rj.gov.br/jcartela/publico/pesquisa.do?idSetor=11161&cmd=load,IPP:FLG_VALIDA:S,IPP:TELEFONES:2413-9578,amenity:school","lat":-22.886429,"lng":-43.5488567},{"id":"823945126","name":"Escola Municipal Professor Enyr Portilho Avellar","tags":"IPP:BAIRRO:Campo Grande,IPP:CHAVE:11754,IPP:CODATIVIDA:0,IPP:CODBAIRRO:144,IPP:COD_INEP:33081654,IPP:COD_SMA:011754,IPP:CRE:09,IPP:DESIGNACAO:0918093,IPP:ENDERECO:Rua Votorantim, S/Nº - Mendanha,IPP:ENDNOVO:http://webapp.sme.rio.rj.gov.br/jcartela/publico/pesquisa.do?idSetor=11754&cmd=load,IPP:FLG_VALIDA:S,IPP:TELEFONES:2413-8113,amenity:school","lat":-22.8591681,"lng":-43.5366565},{"id":"823949062","name":"Creche Municipal Sonho Feliz","tags":"IPP:BAIRRO:Campo Grande,IPP:CHAVE:18766,IPP:CODATIVIDA:0,IPP:CODBAIRRO:144,IPP:COD_INEP:33122601,IPP:COD_SMA:018766,IPP:CRE:09,IPP:DESIGNACAO:0918607,IPP:ENDERECO:ESTRADA GUANDU DO SENA77777,IPP:ENDNOVO:http://webapp.sme.rio.rj.gov.br/jcartela/publico/pesquisa.do?idSetor=18766&cmd=load,IPP:FLG_VALIDA:S,amenity:school","lat":-22.8546042,"lng":-43.5289483},{"id":"823949416","name":"Escola Municipal Fernando Barata Ribeiro","tags":"IPP:BAIRRO:Santíssimo,IPP:CHAVE:11125,IPP:CODATIVIDA:0,IPP:CODBAIRRO:143,IPP:COD_INEP:33082898,IPP:COD_SMA:011125,IPP:CRE:09,IPP:DESIGNACAO:0918042,IPP:ENDERECO:Avenida Santa Cruz, 9.720,IPP:ENDNOVO:http://webapp.sme.rio.rj.gov.br/jcartela/publico/pesquisa.do?idSetor=11125&cmd=load,IPP:FLG_VALIDA:S,IPP:TELEFONES:2404-3305,amenity:school","lat":-22.8810253,"lng":-43.5120155},{"id":"823950040","name":"Escola Municipal Samuel Wainer","tags":"IPP:BAIRRO:Santíssimo,IPP:CHAVE:11129,IPP:CODATIVIDA:0,IPP:CODBAIRRO:143,IPP:COD_INEP:33083401,IPP:COD_SMA:011129,IPP:CRE:09,IPP:DESIGNACAO:0918046,IPP:ENDERECO:Rua Jornalista Samuel Wainer, S/Nº  ,IPP:ENDNOVO:http://webapp.sme.rio.rj.gov.br/jcartela/publico/pesquisa.do?idSetor=11129&cmd=load,IPP:FLG_VALIDA:S,IPP:TELEFONES:2404-2534,amenity:school","lat":-22.8704403,"lng":-43.5113324},{"id":"823951332","name":"Escola Municipal Constantino Magalhães","tags":"IPP:BAIRRO:Campo Grande,IPP:CHAVE:11162,IPP:CODATIVIDA:0,IPP:CODBAIRRO:144,IPP:COD_INEP:33082766,IPP:COD_SMA:011162,IPP:CRE:09,IPP:DESIGNACAO:0918079,IPP:ENDERECO:Rua do Paulistano, S/Nº - Mendanha,IPP:ENDNOVO:http://webapp.sme.rio.rj.gov.br/jcartela/publico/pesquisa.do?idSetor=11162&cmd=load,IPP:FLG_VALIDA:S,IPP:TELEFONES:2412-5419,amenity:school","lat":-22.8519719,"lng":-43.5429092},{"id":"2356580851","name":"Shopping Avenida","tags":"addr:housenumber:40014,addr:street:Avenida Brasil,shop:mall","lat":-22.8604916,"lng":-43.5334032},{"id":"3892300188","name":"Banco 24 hs","tags":"amenity:atm","lat":-22.8898961,"lng":-43.523066},{"id":"4371621857","name":"Escola Municipal Tia Dulce","tags":"amenity:school","lat":-22.8779592,"lng":-43.5385374},{"id":"4386704631","name":"Paróquia Coração Eucarístico de Jesus","tags":"amenity:place_of_worship,building:church,religion:christian","lat":-22.8803862,"lng":-43.5095917},{"id":"6389170242","name":"Academia da Terceira Idade","tags":"addr:street:Rua do Pernambucano,leisure:fitness_centre","lat":-22.8541736,"lng":-43.5408179},{"id":"6389179357","name":"Academia da Terceira Idade","tags":"addr:street:Rua Votorantim,leisure:fitness_centre","lat":-22.8588648,"lng":-43.5382698},{"id":"8583609713","name":"Empório 12","tags":"addr:city:Rio de Janeiro,addr:housenumber:586,addr:postcode:23094091,addr:street:Rua Teixeira Campos,addr:suburb:Santíssimo,amenity:bar,opening_hours:09:00-20:00","lat":-22.8748559,"lng":-43.5134313}]