[{"id":"331875799","name":"Campos Elíseos","tags":"addr:country:BR,old_name:Atura,operator:SuperVia,public_transport:station,railway:station,start_date:1913-03-01,train:yes","lat":-22.7040013,"lng":-43.2808277},{"id":"331875825","name":"Jardim Primavera","tags":"addr:country:BR,operator:SuperVia,public_transport:station,railway:station,train:yes","lat":-22.690244,"lng":-43.2624394},{"id":"1053355283","name":"Saracuruna","tags":"addr:country:BR,old_name:Rosário,operator:SuperVia,public_transport:station,railway:station,start_date:1888-04-24,train:yes,wikidata:Q10276137,wikipedia:pt:Estação Saracuruna","lat":-22.6777531,"lng":-43.247197},{"id":"3718549064","name":"Estacionamento do Pará","tags":"amenity:parking,fee:yes,opening_hours:24/7","lat":-22.6775026,"lng":-43.285456},{"id":"3718550795","name":"Banco do Brasil","tags":"amenity:bank,atm:yes,brand:Banco do Brasil,brand:wikidata:Q610817,brand:wikipedia:en:Banco do Brasil","lat":-22.6845808,"lng":-43.2847113},{"id":"4059954209","tags":"shop:supermarket","lat":-22.6794008,"lng":-43.2753843},{"id":"4059954210","name":"Amigãozão","tags":"shop:supermarket","lat":-22.679497,"lng":-43.2760226},{"id":"4059954211","name":"La Prima","tags":"amenity:restaurant,cuisine:pizza,delivery:yes,smoking:outside,takeaway:yes","lat":-22.6836096,"lng":-43.2786751},{"id":"9688863432","tags":"amenity:school","lat":-22.696721,"lng":-43.2550865},{"id":"9688863433","name":"Studio Sobellas","tags":"beauty:nails,shop:beauty","lat":-22.6958554,"lng":-43.2555809},{"id":"9688863434","tags":"shop:beauty","lat":-22.6956323,"lng":-43.2555087},{"id":"9688863462","tags":"amenity:pharmacy,dispensing:yes,healthcare:pharmacy","lat":-22.6934882,"lng":-43.2560789},{"id":"9688863463","name":"Supermercado Unidos","tags":"shop:supermarket","lat":-22.6931353,"lng":-43.2560175},{"id":"9688863465","tags":"amenity:pharmacy,dispensing:yes,healthcare:pharmacy","lat":-22.6924328,"lng":-43.2568836},{"id":"9688863467","tags":"shop:supermarket","lat":-22.6927125,"lng":-43.2566455},{"id":"9688863476","tags":"shop:convenience","lat":-22.6895995,"lng":-43.2575116},{"id":"9688863479","name":"Supermercado Rede Economia","tags":"shop:supermarket","lat":-22.691151,"lng":-43.2577209},{"id":"9688863496","tags":"amenity:pharmacy,dispensing:yes,healthcare:pharmacy","lat":-22.6918435,"lng":-43.2572337},{"id":"9688863508","tags":"shop:supermarket","lat":-22.6865212,"lng":-43.2597826},{"id":"9688863512","tags":"amenity:school","lat":-22.6851027,"lng":-43.2618802},{"id":"9688885921","tags":"shop:supermarket","lat":-22.6772198,"lng":-43.2479854},{"id":"9688885922","tags":"amenity:pharmacy,dispensing:yes,healthcare:pharmacy","lat":-22.6775166,"lng":-43.2480886}]