[{"id":"823943740","name":"Ciep Poeta Fernando Pessoa","tags":"IPP:BAIRRO:Parque Anchieta,IPP:CHAVE:11401,IPP:CODATIVIDA:0,IPP:CODBAIRRO:108,IPP:COD_INEP:33086524,IPP:COD_SMA:011401,IPP:CRE:06,IPP:DESIGNACAO:0622201,IPP:ENDERECO:Rua Silvestre Felipe, S/Nº  ,IPP:ENDNOVO:http://webapp.sme.rio.rj.gov.br/jcartela/publico/pesquisa.do?idSetor=11401&cmd=load,IPP:FLG_VALIDA:S,IPP:TELEFONES:2455-6485,amenity:school","lat":-22.8294809,"lng":-43.4184732},{"id":"823946018","name":"Creche Municipal Dente de Leite","tags":"IPP:BAIRRO:Bangu,IPP:CHAVE:18675,IPP:CODATIVIDA:0,IPP:CODBAIRRO:141,IPP:COD_INEP:33095043,IPP:COD_SMA:018675,IPP:CRE:08,IPP:DESIGNACAO:0817603,IPP:ENDERECO:RUA DO COLEIROS/N,IPP:ENDNOVO:http://webapp.sme.rio.rj.gov.br/jcartela/publico/pesquisa.do?idSetor=18675&cmd=load,IPP:FLG_VALIDA:S,amenity:school","lat":-22.8499349,"lng":-43.4607605},{"id":"4247445513","name":"Super Market","tags":"addr:street:Estrada Marechal Castelo Branco,shop:supermarket","lat":-22.8095975,"lng":-43.4332988},{"id":"6441707013","name":"CIEP 230 - Manuel Malaquias Gurgel da Silva","tags":"amenity:school","lat":-22.8083046,"lng":-43.4265819},{"id":"8998887622","name":"Elite Rede de Ensino - Nilópolis","tags":"addr:city:Nilópolis,addr:housenumber:1344,addr:street:Rua João Pessoa,addr:suburb:Centro,amenity:school,website:https://ensinoelite.com.br","lat":-22.8101566,"lng":-43.4189048}]