[{"id":"452638331","name":"Brazuca","tags":"amenity:restaurant","lat":-22.7993297,"lng":-43.2026425},{"id":"452638351","name":"Spoleto","tags":"amenity:restaurant,cuisine:italian","lat":-22.8054721,"lng":-43.2096099},{"id":"452659120","name":"Capitania dos Copos","tags":"amenity:restaurant","lat":-22.7842771,"lng":-43.2263546},{"id":"452659190","name":"Droga Raia","tags":"amenity:pharmacy,brand:Droga Raia,brand:wikidata:Q10357101,brand:wikipedia:pt:RaiaDrogasil,healthcare:pharmacy,opening_hours:24/7,wheelchair:yes","lat":-22.8058819,"lng":-43.2093661},{"id":"633042110","tags":"amenity:pharmacy","lat":-22.7996082,"lng":-43.2025423},{"id":"633042111","name":"Banco 24hrs","tags":"amenity:atm","lat":-22.7996082,"lng":-43.2026644},{"id":"633042472","tags":"amenity:police","lat":-22.8003982,"lng":-43.2010016},{"id":"823940212","name":"Escola Especial Municipal Rotary Club","tags":"IPP:BAIRRO:Jardim Guanabara,IPP:CHAVE:11304,IPP:CODATIVIDA:0,IPP:CODBAIRRO:099,IPP:COD_INEP:33085870,IPP:COD_SMA:011304,IPP:CRE:04,IPP:DESIGNACAO:0420023,IPP:ENDERECO:Rua Cambaúba, 159  ,IPP:ENDNOVO:http://webapp.sme.rio.rj.gov.br/jcartela/publico/pesquisa.do?idSetor=11304&cmd=load,IPP:FLG_VALIDA:S,IPP:TELEFONES:3393-4215,amenity:school","lat":-22.8023425,"lng":-43.2014944},{"id":"823942307","name":"Escola Municipal Comandante Guilherme Fischer Presser","tags":"IPP:BAIRRO:Galeão,IPP:CHAVE:11299,IPP:CODATIVIDA:0,IPP:CODBAIRRO:104,IPP:COD_INEP:33086010,IPP:COD_SMA:011299,IPP:CRE:04,IPP:DESIGNACAO:0420028,IPP:ENDERECO:Rua Noventa e Seis, 210  ,IPP:ENDNOVO:http://webapp.sme.rio.rj.gov.br/jcartela/publico/pesquisa.do?idSetor=11299&cmd=load,IPP:FLG_VALIDA:S,IPP:OBS:O bairro correto é Tubiacanga,IPP:TELEFONES:3393-4175,amenity:school","lat":-22.8040194,"lng":-43.2290346},{"id":"823943545","name":"Creche Municipal Doutor Antônio Monteiro","tags":"IPP:BAIRRO:Ilha Do Governador,IPP:CHAVE:18679,IPP:CODATIVIDA:0,IPP:COD_INEP:33122741,IPP:COD_SMA:018679,IPP:CRE:04,IPP:DESIGNACAO:0420603,IPP:ENDERECO:ESTRADA GOVERNADOR CHAGAS FREITASS/N,IPP:ENDNOVO:http://webapp.sme.rio.rj.gov.br/jcartela/publico/pesquisa.do?idSetor=18679&cmd=load,amenity:school","lat":-22.7956817,"lng":-43.2096564},{"id":"1969166057","name":"Hortifruti","tags":"addr:housenumber:2220,addr:postcode:21931-582,addr:street:Estrada do Galeão,opening_hours:Mo-Sa 08:00-21:00; Su 08:00-15:00,phone:+55-21-35118800,shop:supermarket,website:http://www.hortifruti.com.br/lojas/rio-de-janeiro/ilha-governador.html#lojas-detalhes","lat":-22.804016,"lng":-43.2032826},{"id":"2591254147","name":"Correio","tags":"amenity:post_office","lat":-22.8043505,"lng":-43.2044676},{"id":"2608930191","name":"Bradesco","tags":"amenity:bank,atm:yes,brand:Bradesco,brand:wikidata:Q806181,brand:wikipedia:en:Banco Bradesco","lat":-22.8054004,"lng":-43.2094194},{"id":"2608930192","name":"Itaú","tags":"amenity:bank,atm:yes,brand:Itaú Unibanco,brand:wikidata:Q1424293,brand:wikipedia:pt:Itaú Unibanco","lat":-22.8055216,"lng":-43.2097684},{"id":"2608930194","name":"Santander","tags":"amenity:bank,atm:yes,brand:Santander,brand:wikidata:Q5835668,brand:wikipedia:en:Santander Bank","lat":-22.80564,"lng":-43.2100966},{"id":"2942371532","name":"Colégio Sonnart","tags":"amenity:school","lat":-22.8060613,"lng":-43.212572},{"id":"2942371542","name":"Droganews","tags":"amenity:pharmacy","lat":-22.8060157,"lng":-43.2120116},{"id":"2942371543","name":"Banco do Brasil","tags":"amenity:bank","lat":-22.8059539,"lng":-43.2115637},{"id":"2942371544","name":"Banco Itaú","tags":"amenity:bank","lat":-22.8059304,"lng":-43.2114436},{"id":"2942762690","name":"Caixa Econômica Federal","tags":"amenity:bank,brand:Caixa Econômica Federal,brand:wikidata:Q835283,brand:wikipedia:pt:Caixa Econômica Federal","lat":-22.8059046,"lng":-43.2113135},{"id":"2942762691","name":"Contemporâneo","tags":"amenity:restaurant","lat":-22.8058591,"lng":-43.2111169},{"id":"2942762692","name":"Drogaria Cristal","tags":"amenity:pharmacy,dispensing:yes,healthcare:pharmacy","lat":-22.8058754,"lng":-43.2110243},{"id":"2942762695","name":"Itaú","tags":"amenity:bank,atm:yes,brand:Itaú Unibanco,brand:wikidata:Q1424293,brand:wikipedia:pt:Itaú Unibanco","lat":-22.8060025,"lng":-43.2104842},{"id":"2942762698","name":"Pacheco","tags":"amenity:pharmacy,dispensing:yes,healthcare:pharmacy","lat":-22.8059799,"lng":-43.2102931},{"id":"2942762699","name":"Bradesco","tags":"addr:city:Rio de Janeiro,addr:housenumber:451,addr:postcode:21931370,addr:street:Rua República Árabe da Síria,addr:suburb:Portuguesa,amenity:bank,brand:Bradesco,brand:wikidata:Q806181,brand:wikipedia:en:Banco Bradesco","lat":-22.8059702,"lng":-43.21019},{"id":"2942762700","name":"Pague Menos","tags":"amenity:pharmacy,brand:Pague Menos,brand:wikidata:Q7124466,brand:wikipedia:pt:Pague Menos,dispensing:yes,healthcare:pharmacy","lat":-22.8059631,"lng":-43.2101384},{"id":"2945793158","name":"Petz","tags":"addr:city:Rio de Janeiro,addr:housenumber:1770,addr:postcode:2931524,addr:street:Estrada do Galeão,addr:suburb:Jardim Carioca,brand:Petz,brand:wikidata:Q28680851,brand:wikipedia:pt:Petz (empresa),opening_hours:08:00-22:00,phone:552131617392,shop:pet,website:https://www.petz.com.br/","lat":-22.8059859,"lng":-43.1994716},{"id":"2945833235","name":"Itaú Personnalité","tags":"addr:housenumber:2781,addr:street:Estrada do Galeão,amenity:bank","lat":-22.8052058,"lng":-43.2085287},{"id":"8463646106","name":"Pizza Hut","tags":"amenity:restaurant,brand:Pizza Hut,brand:wikidata:Q191615,brand:wikipedia:en:Pizza Hut,cuisine:pizza","lat":-22.8018099,"lng":-43.2016905},{"id":"8463646107","name":"Outback Steakhouse","tags":"amenity:restaurant,brand:Outback Steakhouse,brand:wikidata:Q1064893,brand:wikipedia:en:Outback Steakhouse,cuisine:american;steak","lat":-22.8016989,"lng":-43.2015796},{"id":"8463646109","name":"Vikings","tags":"amenity:restaurant,cuisine:sandwich;burger","lat":-22.8013719,"lng":-43.2017728},{"id":"8464149558","name":"Beluga","tags":"amenity:restaurant,cuisine:regional","lat":-22.8018635,"lng":-43.2016986},{"id":"8464177531","name":"Acarajé da Rose","tags":"amenity:restaurant,cuisine:regional","lat":-22.8035381,"lng":-43.2038574},{"id":"8479012216","name":"Alvorada Pet Shop","tags":"payment:cash:yes,payment:credit_cards:yes,phone:(21) 3367-2967,shop:pet","lat":-22.8042709,"lng":-43.2067995},{"id":"8479017425","name":"Siri Gaita","tags":"amenity:restaurant,cuisine:regional","lat":-22.8043872,"lng":-43.2073916},{"id":"8479017426","name":"Empada Mania","tags":"amenity:restaurant","lat":-22.8043322,"lng":-43.2071887},{"id":"8479017428","name":"Farmacia do Extra","tags":"healthcare:pharmacy,operator:Extra,shop:chemist","lat":-22.8041598,"lng":-43.2068356},{"id":"8480194302","tags":"shop:chemist","lat":-22.804887,"lng":-43.207156},{"id":"8480197285","tags":"amenity:bar","lat":-22.8048336,"lng":-43.2068305},{"id":"8497210582","name":"pet do village","tags":"shop:pet","lat":-22.7996312,"lng":-43.2024621}]