[{"id":"452657957","name":"Farmácia Popular","tags":"amenity:pharmacy,drive_through:no,healthcare:pharmacy","lat":-22.8220967,"lng":-43.2299007},{"id":"639295785","name":"Cabine da PMERJ","tags":"amenity:police","lat":-22.8135358,"lng":-43.2072107},{"id":"823942815","name":"Escola Municipal Tenente Pedro de Lima Mendes","tags":"IPP:BAIRRO:Galeão,IPP:CHAVE:11300,IPP:CODATIVIDA:0,IPP:CODBAIRRO:104,IPP:COD_INEP:33086192,IPP:COD_SMA:011300,IPP:CRE:04,IPP:DESIGNACAO:0420027,IPP:ENDERECO:Estr. das Canárias, 297  ,IPP:ENDNOVO:http://webapp.sme.rio.rj.gov.br/jcartela/publico/pesquisa.do?idSetor=11300&cmd=load,IPP:FLG_VALIDA:S,IPP:TELEFONES:3393-0052,amenity:school","lat":-22.8180138,"lng":-43.2279143},{"id":"823943537","name":"Escola Municipal Padre José de Anchieta","tags":"IPP:BAIRRO:Jardim Guanabara,IPP:CHAVE:11316,IPP:CODATIVIDA:0,IPP:CODBAIRRO:099,IPP:COD_INEP:33086133,IPP:COD_SMA:011316,IPP:CRE:04,IPP:DESIGNACAO:0420009,IPP:ENDERECO:Rua Pinto Alpoim, 758  ,IPP:ENDNOVO:http://webapp.sme.rio.rj.gov.br/jcartela/publico/pesquisa.do?idSetor=11316&cmd=load,IPP:FLG_VALIDA:S,IPP:TELEFONES:3393-6049,amenity:school","lat":-22.8147419,"lng":-43.2006781},{"id":"823943594","name":"Escola Municipal Professora Lavínia de Oliveira Escragnolle Dória","tags":"IPP:BAIRRO:Galeão,IPP:CHAVE:11298,IPP:CODATIVIDA:0,IPP:CODBAIRRO:104,IPP:COD_INEP:33086150,IPP:COD_SMA:011298,IPP:CRE:04,IPP:DESIGNACAO:0420029,IPP:ENDERECO:Rua Cinquenta e Três, 203  ,IPP:ENDNOVO:http://webapp.sme.rio.rj.gov.br/jcartela/publico/pesquisa.do?idSetor=11298&cmd=load,IPP:FLG_VALIDA:S,IPP:TELEFONES:3393-4105,amenity:school","lat":-22.8168135,"lng":-43.2262387},{"id":"823947798","name":"Escola Municipal Anita Garibaldi","tags":"IPP:BAIRRO:Galeão,IPP:CHAVE:11303,IPP:CODATIVIDA:0,IPP:CODBAIRRO:104,IPP:COD_INEP:33085960,IPP:COD_SMA:011303,IPP:CRE:04,IPP:DESIGNACAO:0420024,IPP:ENDERECO:Estr. Maracajás, 1294  ,IPP:ENDNOVO:http://webapp.sme.rio.rj.gov.br/jcartela/publico/pesquisa.do?idSetor=11303&cmd=load,IPP:FLG_VALIDA:S,IPP:OBS:O telefone correto é 33673542 ou 39759461,IPP:TELEFONES:3367-3542,amenity:school","lat":-22.815872,"lng":-43.2260093},{"id":"823947809","name":"Creche Municipal Sempre Vida Loreto","tags":"IPP:BAIRRO:Galeão,IPP:CHAVE:18758,IPP:CODATIVIDA:0,IPP:CODBAIRRO:104,IPP:COD_INEP:33123004,IPP:COD_SMA:018758,IPP:CRE:04,IPP:DESIGNACAO:0420605,IPP:ENDERECO:ESTRADA DO CARICO26,IPP:ENDNOVO:http://webapp.sme.rio.rj.gov.br/jcartela/publico/pesquisa.do?idSetor=18758&cmd=load,IPP:FLG_VALIDA:S,IPP:OBS:Bairro Galeão - Tel: 3367-3832,IPP:TELEFONES:3367-3832,amenity:school","lat":-22.8148271,"lng":-43.225664},{"id":"823950035","name":"Escola Municipal Alberto de Oliveira","tags":"IPP:BAIRRO:Galeão,IPP:CHAVE:11302,IPP:CODATIVIDA:0,IPP:CODBAIRRO:104,IPP:COD_INEP:33085919,IPP:COD_SMA:011302,IPP:CRE:04,IPP:DESIGNACAO:0420025,IPP:ENDERECO:Avenida Sete, 1411  ,IPP:ENDNOVO:http://webapp.sme.rio.rj.gov.br/jcartela/publico/pesquisa.do?idSetor=11302&cmd=load,IPP:FLG_VALIDA:S,IPP:TELEFONES:3393-1922,amenity:school","lat":-22.8187003,"lng":-43.2332044},{"id":"823951062","name":"Escola Municipal Anísio Teixeira","tags":"IPP:BAIRRO:Jardim Guanabara,IPP:CHAVE:11871,IPP:CODATIVIDA:0,IPP:CODBAIRRO:099,IPP:COD_INEP:33085951,IPP:COD_SMA:011871,IPP:CRE:04,IPP:DESIGNACAO:0420501,IPP:ENDERECO:Rua Serenata, 40,IPP:ENDNOVO:http://webapp.sme.rio.rj.gov.br/jcartela/publico/pesquisa.do?idSetor=11871&cmd=load,IPP:FLG_VALIDA:S,IPP:TELEFONES:3393-8066,amenity:school","lat":-22.812454,"lng":-43.2097001},{"id":"1105188917","name":"Drogarias Pacheco","tags":"amenity:pharmacy,dispensing:yes,healthcare:pharmacy","lat":-22.8127809,"lng":-43.2075053},{"id":"1148259042","name":"Mercado do Grego","tags":"shop:convenience","lat":-22.8169575,"lng":-43.2034091},{"id":"1278254982","name":"Oriento Palace","tags":"addr:housenumber:18,addr:street:Rua Jorge de Lima,amenity:restaurant,cuisine:chinese,phone:+55-21-24661184","lat":-22.8183981,"lng":-43.2003264},{"id":"1680644353","tags":"amenity:ferry_terminal,ferry:yes,public_transport:station","lat":-22.8196989,"lng":-43.2004688},{"id":"2206229896","name":"Terminal Integrado da UFRJ - Estação UFRJ","tags":"amenity:bus_station,building:yes,operator:UFRJ","lat":-22.8402623,"lng":-43.2373762},{"id":"2582216903","name":"COGAL","tags":"leisure:sports_centre,sport:multi","lat":-22.8158713,"lng":-43.2193335},{"id":"2587705491","name":"Clube dos Suboficiais e Sargentos da Aeronáutica","tags":"leisure:sports_centre,sport:multi","lat":-22.8187313,"lng":-43.2222774},{"id":"2587705495","name":"Colégio Brigadeiro Newton Braga","tags":"amenity:school","lat":-22.8159724,"lng":-43.2220163},{"id":"2587705498","name":"Estacionamento Clube Suboficiais e Sargentos da Aeronáutic","tags":"amenity:parking","lat":-22.8186495,"lng":-43.2224397},{"id":"2594681953","name":"Colégio Antares","tags":"addr:city:Rio de Janeiro,addr:housenumber:3,addr:postcode:21940-430,addr:street:Rua General Bandeira de Melo,amenity:school,operator:Colégio Antares","lat":-22.8154709,"lng":-43.2028179},{"id":"2616040240","name":"Santander","tags":"amenity:bank,atm:yes,brand:Santander,brand:wikidata:Q5835668,brand:wikipedia:en:Santander Bank","lat":-22.8134338,"lng":-43.2156483},{"id":"2814617764","name":"Restaurante Chuá","tags":"amenity:restaurant,cuisine:regional","lat":-22.8154824,"lng":-43.2060487},{"id":"2814617771","name":"Farmacia Viva Bem","tags":"amenity:pharmacy,dispensing:yes,healthcare:pharmacy","lat":-22.8160008,"lng":-43.2059787},{"id":"3323537018","name":"Graça da Vila","tags":"addr:city:Rio de Janeiro,addr:housenumber:560,addr:postcode:21940-120,addr:street:Rua Gaspar Magalhães,addr:suburb:Jardim Guanabara,amenity:restaurant,cuisine:regional","lat":-22.8119936,"lng":-43.2082055},{"id":"3338188942","name":"Centro Esportivo dos Suboficiais e Ssargentos - Portaria","tags":"leisure:sports_centre","lat":-22.8151079,"lng":-43.2366873},{"id":"3772044508","tags":"amenity:police","lat":-22.8280936,"lng":-43.234858},{"id":"5478989641","name":"Aeropuerto Internacional de Galeão","tags":"tourism:attraction","lat":-22.8201887,"lng":-43.2345043},{"id":"7227747505","name":"Capitão Steak","tags":"addr:postcode:21940260,addr:street:Avenida Francisco Alves,amenity:restaurant","lat":-22.818494,"lng":-43.1996178},{"id":"7573404578","name":"Hospital Municipal Nossa Senhora do Loreto","tags":"addr:suburb:Galeão,amenity:hospital,email:hmnsloreto@rio.rj.gov.br,opening_hours:Mo-Fr 08:00-17:00; Sa 08:00-12:00,phone:+55 21 33931983/061,start_date:1950-12-10","lat":-22.814954,"lng":-43.225515},{"id":"7847814925","name":"CIEP César Perneta","tags":"addr:city:Rio de Janeiro,addr:street:Rua Projetada,addr:suburb:Maré,amenity:school","lat":-22.8486612,"lng":-43.2419849},{"id":"8998765365","name":"Elite Ilha do Governador","tags":"addr:city:Rio de Janeiro,addr:housenumber:302,addr:street:Rua Engenheiro Rozauro Zambrano,addr:suburb:Jardim Guanabara,amenity:school,website:https://ensinoelite.com.br","lat":-22.8175674,"lng":-43.1996756}]