[{"id":"1969819357","name":"Chafariz de Ouro","tags":"amenity:restaurant","lat":-22.5202281,"lng":-42.9650831},{"id":"2359630440","name":"Bar e Mercearia Vanessa e Alexandre","tags":"shop:convenience","lat":-22.5287192,"lng":-42.9748888},{"id":"3718548932","name":"Predileto","tags":"amenity:restaurant","lat":-22.5185625,"lng":-42.974991},{"id":"3718548933","name":"Escola Municipal Silvia Crespo","tags":"amenity:school","lat":-22.5155266,"lng":-42.9712038},{"id":"3718548936","name":"Bradesco","tags":"amenity:bank,brand:Bradesco,brand:wikidata:Q806181,brand:wikipedia:en:Banco Bradesco","lat":-22.5200285,"lng":-42.9779152},{"id":"3719387467","name":"Boteco do Gabriel","tags":"amenity:bar","lat":-22.5184816,"lng":-42.9774868},{"id":"3984732300","name":"Palito's","tags":"amenity:restaurant","lat":-22.518307,"lng":-42.9784666},{"id":"6750726934","name":"Guapimirim","tags":"operator:SuperVia,public_transport:station,railway:station,train:yes,wikidata:Q10275837,wikipedia:pt:Estação Guapimirim","lat":-22.5198995,"lng":-42.9774603},{"id":"7039210107","tags":"addr:postcode:25946619,addr:street:Rua Quinze,addr:suburb:jequitiba,leisure:park,opening_hours:24/7,operator:Municupio","lat":-22.5255528,"lng":-42.9758645},{"id":"7082650894","name":"Praça do Segredo","tags":"addr:city:Guapimirim,addr:street:Rua José Ventura,addr:suburb:Segredo,leisure:park,operator:Prefeitura","lat":-22.5378118,"lng":-42.9734593}]