[{"id":"1128223409","name":"Magé","tags":"addr:country:BR,operator:SuperVia,public_transport:station,railway:station,train:yes,wikidata:Q10275945,wikipedia:pt:Estação Magé","lat":-22.6517348,"lng":-43.0425022},{"id":"2211440347","name":"Jardim Nova Marília","tags":"addr:country:BR,public_transport:station,railway:station,train:yes,wikidata:Q10275889,wikipedia:pt:Estação Jardim Nova Marília","lat":-22.635828,"lng":-43.0303576},{"id":"3849970584","name":"Igreja Assembleia de Deus","tags":"building:church","lat":-22.6504849,"lng":-43.0484127},{"id":"3849972434","name":"Igreja Assembleia de Deus","tags":"building:church","lat":-22.6511211,"lng":-43.0489465},{"id":"3850061873","name":"Supermercado Verone","tags":"shop:supermarket","lat":-22.6526033,"lng":-43.0419798},{"id":"3850065561","name":"Colégio Estadual de Magé","tags":"amenity:school","lat":-22.6530018,"lng":-43.0421112},{"id":"3850075160","name":"Cemitério","tags":"amenity:grave_yard","lat":-22.6534647,"lng":-43.0408399},{"id":"3850088157","name":"Paróquia Nossa Senhora de Piedade","tags":"building:church","lat":-22.6538335,"lng":-43.0408694},{"id":"3850105343","name":"Igreja Universal do Reino de Deus","tags":"addr:city:Magé,addr:housenumber:101,addr:street:Rua Castelo Branco,addr:suburb:Centro,building:church","lat":-22.6551306,"lng":-43.0415319},{"id":"3851391915","name":"Supermercado Rede Economia","tags":"shop:supermarket","lat":-22.6572296,"lng":-43.0417463},{"id":"3851397454","name":"Supermercado Terê","tags":"shop:supermarket","lat":-22.6580712,"lng":-43.0400431},{"id":"3851408189","name":"Rodoviária de Magé","tags":"amenity:bus_station,name:en:Mage bus station","lat":-22.6535959,"lng":-43.0397519},{"id":"3851854306","name":"Supermercado Opa","tags":"shop:supermarket","lat":-22.6540464,"lng":-43.03938},{"id":"3851934507","name":"Delegacia 65ª DP","tags":"amenity:police","lat":-22.6550018,"lng":-43.038106},{"id":"3852188830","name":"Shopping da Praça","tags":"shop:mall","lat":-22.6563508,"lng":-43.0394176},{"id":"4379012601","tags":"amenity:hospital,name:pt:posto de especialidades","lat":-22.6604875,"lng":-43.0390773},{"id":"4379063092","tags":"amenity:hospital,name:pt:secretaria de saúde mage","lat":-22.66016,"lng":-43.0461184},{"id":"4379264293","tags":"amenity:pharmacy,name:pt:farmácia geral depósito","lat":-22.6615833,"lng":-43.0511939},{"id":"5875468343","name":"Itaú","tags":"addr:city:Magé,addr:housenumber:395,addr:postcode:25900-094,addr:street:Rua Doutor Siqueira,addr:suburb:Centro,amenity:bank,atm:yes,description:Agência 7118,opening_hours:Mo-Fr 11:00-16:00","lat":-22.6558011,"lng":-43.0391815},{"id":"5875469465","name":"Itaú","tags":"addr:city:Magé,addr:housenumber:950,addr:postcode:25900-001,addr:street:Avenida Simão da Mota,addr:suburb:Centro,amenity:bank,atm:yes,description:Agência 4561,opening_hours:Mo-Fr 11:00-16:00","lat":-22.6556642,"lng":-43.0382546},{"id":"5875477077","name":"Banco do Brasil","tags":"addr:city:Magé,addr:housenumber:990,addr:postcode:25900-001,addr:street:Avenida Simão da Mota,addr:suburb:Centro,amenity:bank,atm:yes,description:Agência 942,opening_hours:Mo-Fr 11:00-16:00","lat":-22.6554953,"lng":-43.0383664},{"id":"5875481700","name":"Bradesco","tags":"addr:city:Magé,addr:housenumber:740,addr:postcode:25900-001,addr:street:Avenida Simão da Mota,addr:suburb:Centro,amenity:bank,atm:yes,description:Agência 6791-1,opening_hours:Mo-Fr 11:00-16:00","lat":-22.6576019,"lng":-43.0373114},{"id":"5875483891","name":"Bradesco","tags":"addr:city:Magé,addr:housenumber:101,addr:postcode:25900-106,addr:street:Avenida Padre Anchieta,addr:suburb:Centro,amenity:bank,atm:yes,description:Agência 1546-6,drive_through:no,opening_hours:Mo-Fr 11:00-16:00","lat":-22.6555644,"lng":-43.040325},{"id":"5875478157","name":"Correios","tags":"addr:city:Magé,addr:housenumber:900,addr:street:Avenida Simão da Mota,addr:suburb:Centro,amenity:post_office,operator:Correios,operator:wikidata:Q3375004","lat":-22.6559981,"lng":-43.0380798}]