[{"id":"2632710740","name":"Polícia Militar","tags":"amenity:police","lat":-22.927776,"lng":-42.4135426},{"id":"8860587831","name":"Santa Helena","tags":"shop:supermarket","lat":-22.9280436,"lng":-42.4197981},{"id":"8860587862","name":"Escola Municipal","tags":"amenity:school","lat":-22.9036588,"lng":-42.4117227},{"id":"8860587869","name":"Correios","tags":"amenity:post_office,brand:Correios,brand:wikidata:Q3375004,brand:wikipedia:en:Correios","lat":-22.9288845,"lng":-42.4119893},{"id":"8860587870","name":"O Baratão de Vilatur - Mercado do Sr Fernando","tags":"shop:supermarket","lat":-22.9287091,"lng":-42.4122468},{"id":"8860587871","name":"Villa Bistrô","tags":"amenity:bar","lat":-22.9296083,"lng":-42.411992}]