[{"id":"1934469018","name":"Jocas","tags":"amenity:bar","lat":-22.747267,"lng":-42.8595754},{"id":"1934469020","name":"Casa de Cultura Eloisa Alberto Torres","tags":"addr:city:Itaboraí,addr:postcode:24800-041,addr:street:Praça Marechal Floriano Peixoto,addr:suburb:Centro,description:O sobrado do século XVIII era a antiga residência da família Alberto Torres e foi doado ao Instituto do Patrimônio Histórico e Artístico Nacional (Iphan) no final da década de 1970. ,tourism:museum,website:http://mapadecultura.rj.gov.br/cidade/itaborai","lat":-22.745191,"lng":-42.8598247},{"id":"1934475524","name":"Supermercado Rede Economia","tags":"shop:supermarket","lat":-22.7475792,"lng":-42.8596481},{"id":"1934478431","name":"Charlie's Bar","tags":"amenity:bar","lat":-22.7458212,"lng":-42.8591599},{"id":"1934478432","name":"Pizzaria La Boa Praça","tags":"amenity:bar","lat":-22.7456856,"lng":-42.8596247},{"id":"1934478434","name":"Chopp Grill","tags":"amenity:bar","lat":-22.7449388,"lng":-42.8592435},{"id":"1934478436","name":"La Madrilenha","tags":"amenity:restaurant","lat":-22.7458198,"lng":-42.8584693},{"id":"1934478437","name":"Compet Chopp","tags":"amenity:bar","lat":-22.7449967,"lng":-42.8594955},{"id":"2918112849","name":"MAZA BOX","tags":"shop:supermarket","lat":-22.7452233,"lng":-42.8524891},{"id":"3603471811","name":"Correios - Agência Itaboraí","tags":"amenity:post_office,opening_hours:Mo-Su 09:00-17:00","lat":-22.7458455,"lng":-42.8588529},{"id":"3605916005","name":"Costazul Supermercados","tags":"shop:supermarket","lat":-22.7483843,"lng":-42.8652341},{"id":"4615185890","name":"Hospital Municipal","tags":"amenity:hospital,emergency:yes","lat":-22.7375964,"lng":-42.8491251},{"id":"5256952997","name":"Biblioteca Municipal Joaquim Manuel de Macedo","tags":"addr:city:Itaboraí,addr:housenumber:39,addr:postcode:24800-165,addr:street:Praça Marechal Floriano Peixoto,addr:suburb:Centro,amenity:library","lat":-22.7447836,"lng":-42.858989},{"id":"5304769810","name":"Espaço Beleza","tags":"beauty:nails,shop:beauty","lat":-22.7449032,"lng":-42.8591195},{"id":"5320422694","name":"Garrafa de Bolhas - 353 Depósito e bar","tags":"amenity:bar","lat":-22.7449881,"lng":-42.8593156},{"id":"5363443878","name":"Rede Economia Compre Mais","tags":"shop:supermarket","lat":-22.7475565,"lng":-42.8595009},{"id":"5363443879","name":"Tamoio","tags":"amenity:pharmacy,healthcare:pharmacy","lat":-22.7476615,"lng":-42.8603058},{"id":"5370616295","name":"FACNEC - Faculdade Cenecista de Itaboraí","tags":"addr:city:Itaboraí,addr:housenumber:212,addr:street:Rua Presidente Costa e Silva,addr:suburb:Centro,amenity:university,description:A FACNEC foi criada em 1998, mantém suas atividades nas dependências do Colégio Cenecista Alberto Torres.,internet_access:yes,website:www.facnec.cnec.br","lat":-22.7474707,"lng":-42.8563865},{"id":"5381184314","tags":"amenity:atm,operator:Banco Santander","lat":-22.7458312,"lng":-42.8595124},{"id":"5417622521","name":"Escola Municipal","tags":"amenity:school,name:en:Local School","lat":-22.723125,"lng":-42.8481111},{"id":"10145006389","name":"Guarda Municipal de Itaboraí","tags":"amenity:police","lat":-22.7430949,"lng":-42.8583487},{"id":"10254581981","name":"QUD Beer&Grill","tags":"addr:city:Itaboraí,addr:housenumber:75,addr:postcode:24800213,addr:street:Rua Doutor Macedo,addr:suburb:Centro,amenity:bar,min_age:0,opening_hours:Mo-Su 09:00-23:00","lat":-22.7455149,"lng":-42.8559901}]