[{"id":"1458213777","tags":"amenity:restaurant","lat":-22.7707126,"lng":-41.9119561},{"id":"2467058204","name":"Pousada Trotamundos","tags":"addr:city:Armação dos Búzios,addr:housenumber:50,addr:postcode:28950-000,addr:street:Rua Felina Pina da Silveira,amenity:restaurant,cuisine:regional","lat":-22.765827,"lng":-41.9040983},{"id":"4271374190","name":"Recanto de Minas","tags":"addr:city:Armação dos Búzios,addr:street:Avenida José Bento Ribeiro Dantas,addr:suburb:Manguinhos,amenity:restaurant","lat":-22.768415,"lng":-41.9018385},{"id":"4650410028","name":"Restaurante Gaivota","tags":"amenity:restaurant,cuisine:regional","lat":-22.7750404,"lng":-41.91683},{"id":"4773208303","name":"Bar dos Pescadores","tags":"amenity:restaurant,cuisine:regional","lat":-22.7689835,"lng":-41.9110404},{"id":"5333968800","tags":"amenity:atm,operator:Banco 24h","lat":-22.7735942,"lng":-41.9146981},{"id":"5335995535","name":"Mercado do Mica","tags":"addr:city:Armação dos Búzios,addr:street:Rua Santana,addr:suburb:Manguinhos,shop:supermarket","lat":-22.7682484,"lng":-41.9085806},{"id":"5335995537","name":"Cilico's","tags":"addr:city:Armação dos Búzios,addr:street:Avenida José Bento Ribeiro Dantas,addr:suburb:Manguinhos,amenity:restaurant,cuisine:pizza;steak_house;italian","lat":-22.768481,"lng":-41.9085742},{"id":"5338569654","name":"Golden Market","tags":"addr:city:Armação dos Búzios,addr:street:Avenida José Bento Ribeiro Dantas,addr:suburb:Manguinhos,shop:supermarket","lat":-22.7693502,"lng":-41.9104581},{"id":"5338572233","name":"Peixe no Mato","tags":"addr:city:Armação dos Búzios,addr:street:Avenida José Bento Ribeiro Dantas,addr:suburb:Manguinhos,amenity:restaurant,cuisine:regional","lat":-22.7680378,"lng":-41.9013648},{"id":"5355199923","name":"Drogaria Geribá","tags":"addr:city:Armação dos Búzios,addr:street:Avenida José Bento Ribeiro Dantas,addr:suburb:Manguinhos,amenity:pharmacy,drive_through:no,healthcare:pharmacy","lat":-22.7727243,"lng":-41.9131385},{"id":"5358070890","name":"Mr. Cão","tags":"addr:housenumber:3299,addr:street:Avenida José Bento Ribeiro Dantas,phone:+552226234580,shop:pet","lat":-22.7731587,"lng":-41.9134489},{"id":"5362332491","name":"Capim Limão","tags":"addr:city:Armação dos Búzios,addr:street:Avenida José Bento Ribeiro Dantas,addr:suburb:Manguinhos,amenity:restaurant,cuisine:regional","lat":-22.7743984,"lng":-41.9211592},{"id":"5366671326","name":"BR Mania","tags":"addr:city:Armação dos Búzios,addr:street:Avenida José Bento Ribeiro Dantas,addr:suburb:Manguinhos,operator:Petrobras,shop:convenience","lat":-22.7743659,"lng":-41.9160039},{"id":"5377786841","name":"Santander","tags":"addr:city:Armação dos Búzios,addr:housenumber:5355,addr:street:Avenida José Bento Ribeiro Dantas,addr:suburb:Manguinhos,amenity:bank,atm:yes,brand:Santander,brand:wikidata:Q5835668,brand:wikipedia:en:Santander Bank","lat":-22.7747824,"lng":-41.92113},{"id":"6222180285","name":"Bar da aldeia restaurante comida caseira","tags":"amenity:restaurant","lat":-22.7776709,"lng":-41.9052103},{"id":"6248065985","name":"Kojiki","tags":"amenity:restaurant,cuisine:japanese;asian","lat":-22.7690075,"lng":-41.9096609},{"id":"6262658085","name":"Bar do Mangue","tags":"amenity:restaurant,cuisine:steak_house;fish;argentinian","lat":-22.7696741,"lng":-41.9116713},{"id":"7132013945","name":"Drogaria Geribá","tags":"addr:city:Armação dos Búzios,addr:street:Avenida José Bento Ribeiro Dantas,addr:suburb:Manguinhos,amenity:pharmacy,dispensing:yes,healthcare:pharmacy","lat":-22.7727875,"lng":-41.9135351},{"id":"7134086686","name":"Papa Tudo","tags":"amenity:restaurant","lat":-22.7686005,"lng":-41.9080251},{"id":"7134086687","tags":"shop:pet","lat":-22.7683108,"lng":-41.9084041},{"id":"7134467220","name":"Instituto Dominus","tags":"amenity:school","lat":-22.7810265,"lng":-41.9199247},{"id":"7189005082","name":"Grão","tags":"amenity:restaurant","lat":-22.7743847,"lng":-41.9215824},{"id":"7212497088","name":"Restaurante Gisele","tags":"addr:city:Armação dos Búzios,addr:housenumber:5100,addr:street:Avenida José Bento Ribeiro Dantas,amenity:restaurant","lat":-22.7749054,"lng":-41.9192673},{"id":"7280565986","name":"Quiosque do Mineiro","tags":"amenity:restaurant","lat":-22.7779867,"lng":-41.905561},{"id":"7280576285","name":"Restaurante Varanda de Geribá","tags":"amenity:restaurant","lat":-22.7777561,"lng":-41.9054926},{"id":"7314208948","name":"Shiva Studio","tags":"leisure:fitness_centre,sport:yoga","lat":-22.7728943,"lng":-41.9141015},{"id":"7314208954","name":"Colégio Futuro","tags":"addr:housenumber:3650,addr:street:Avenida José Bento Ribeiro Dantas,amenity:school,religion:christian","lat":-22.7742245,"lng":-41.9151063},{"id":"7353054094","name":"Golden Coffee","tags":"amenity:cafe","lat":-22.7694672,"lng":-41.9111938},{"id":"7851506504","name":"Zuza","tags":"amenity:restaurant","lat":-22.7693821,"lng":-41.9113908},{"id":"7851506506","name":"O Clubinho","tags":"amenity:childcare","lat":-22.7693368,"lng":-41.9105648},{"id":"7851506508","name":"Manguinhos Pet Shop","tags":"shop:pet","lat":-22.7744915,"lng":-41.9165171},{"id":"7894988586","name":"Empório de Geribá","tags":"addr:street:Rua Gerbert Périsse,shop:convenience","lat":-22.7782672,"lng":-41.9121262},{"id":"7894996285","name":"Restaurante Caminho da Praia","tags":"amenity:restaurant","lat":-22.77738,"lng":-41.905501},{"id":"7902814786","name":"Bisteak","tags":"addr:street:Avenida José Bento Ribeiro Dantas,amenity:restaurant,cuisine:steak_house","lat":-22.7749831,"lng":-41.918166},{"id":"7902815739","name":"Bar do Gordo","tags":"amenity:restaurant","lat":-22.7689503,"lng":-41.9109982},{"id":"7902824185","name":"Fornalha","tags":"amenity:restaurant,cuisine:pizza,name:en:Fornalha Tratoria,name:pt:Fornalha Tratoria,phone:+5522998832891","lat":-22.7693387,"lng":-41.9106089},{"id":"7902824285","name":"Octopous","tags":"amenity:restaurant","lat":-22.7690574,"lng":-41.9111816},{"id":"7903361085","name":"Varanda Grill","tags":"amenity:restaurant","lat":-22.7749353,"lng":-41.9177686},{"id":"7903361185","name":"Mercearia Nordestina","tags":"shop:convenience","lat":-22.7737077,"lng":-41.9131507},{"id":"7903361785","name":"Conveniência Geribá","tags":"shop:convenience","lat":-22.7757048,"lng":-41.9122168},{"id":"7905885185","name":"Discapel Búzios","tags":"shop:supermarket","lat":-22.7748035,"lng":-41.9214848},{"id":"7905885285","name":"Canine Patrol","tags":"shop:pet","lat":-22.7748374,"lng":-41.9229142},{"id":"7905885485","name":"Café da Vó","tags":"amenity:cafe","lat":-22.7741988,"lng":-41.9221056},{"id":"7906501385","name":"Tesouro Grill","tags":"addr:street:Avenida José Bento Ribeiro Dantas,amenity:restaurant","lat":-22.7748364,"lng":-41.9204431},{"id":"7906723185","name":"Drogaria Geribá","tags":"addr:street:Avenida José Bento Ribeiro Dantas,amenity:pharmacy","lat":-22.7748419,"lng":-41.9206148},{"id":"7928743285","name":"Super Frutal","tags":"addr:street:Avenida José Bento Ribeiro Dantas,shop:supermarket","lat":-22.7675825,"lng":-41.9065736},{"id":"7928743585","name":"Conveniência Soares","tags":"addr:street:Avenida José Bento Ribeiro Dantas,shop:convenience","lat":-22.7680841,"lng":-41.906659},{"id":"7928743685","name":"Drogaria Manguinhos","tags":"addr:street:Avenida José Bento Ribeiro Dantas,amenity:pharmacy","lat":-22.7681242,"lng":-41.9068195},{"id":"7961140082","name":"PointDelícia","tags":"addr:city:Armação dos Búzios,addr:housenumber:5001,addr:street:Avenida José Bento Ribeiro Dantas,addr:suburb:Manguinhos,amenity:restaurant,cuisine:regional,delivery:yes,opening_hours:covid19:open,phone:+5522997402969","lat":-22.7745106,"lng":-41.9194833},{"id":"7972177785","name":"La Piazza","tags":"amenity:restaurant,cuisine:pizza","lat":-22.7694782,"lng":-41.9114027},{"id":"8909240091","tags":"shop:convenience","lat":-22.774145,"lng":-41.9026117},{"id":"8909294815","name":"Jápa Búzios","tags":"amenity:restaurant,cuisine:japanese","lat":-22.7688429,"lng":-41.9037357},{"id":"8909310129","name":"Mercadinho Alternativa","tags":"addr:city:Armação dos Búzios,addr:housenumber:401,addr:street:Estrada Canto Esquerdo de Geribá,shop:convenience","lat":-22.7706625,"lng":-41.9007725}]