[{"id":"2074860270","name":"Aeródromo Carolina de Assis Repetto","tags":"aeroway:aerodrome","lat":-21.7322725,"lng":-43.8943781},{"id":"4363422638","name":"Cachoeira dos Macacos","tags":"tourism:attraction","lat":-21.7161151,"lng":-43.8940687},{"id":"4363423295","name":"Lago das Miragens","tags":"tourism:attraction","lat":-21.7133757,"lng":-43.8940141},{"id":"4363596284","name":"Ponte de Pedra","tags":"tourism:attraction","lat":-21.7148818,"lng":-43.893869},{"id":"8878059917","name":"Redário","tags":"tourism:attraction","lat":-21.748635,"lng":-43.865239},{"id":"8878148017","name":"Estátuas gigantes","tags":"tourism:attraction","lat":-21.7274419,"lng":-43.8848687},{"id":"8887689017","name":"Gruta dos Gnomos","tags":"tourism:attraction","lat":-21.712016,"lng":-43.8940642}]