[{"id":"410707865","name":"Tiradentes","tags":"public_transport:station,railway:station,usage:tourism","lat":-21.114791,"lng":-44.1674914},{"id":"1911045694","name":"Cachoeira do Mangue","tags":"description:Take a walk to this small but beautiful waterfall,tourism:attraction,waterway:waterfall","lat":-21.1093511,"lng":-44.1998381},{"id":"2424698581","name":"Busto de Tiradentes","tags":"tourism:attraction","lat":-21.1096199,"lng":-44.1777816},{"id":"2424698591","name":"Sapore d'Italia Bar & Cafe","tags":"amenity:bar","lat":-21.1101339,"lng":-44.1743359},{"id":"2544258795","name":"Tragaluz","tags":"amenity:restaurant,cuisine:regional","lat":-21.1094961,"lng":-44.1768773},{"id":"3225301350","name":"Restaurante Mãe e Filha","tags":"amenity:restaurant","lat":-21.1190771,"lng":-44.199183},{"id":"3826450768","name":"Mãos de Moça","tags":"amenity:restaurant","lat":-21.1107163,"lng":-44.1829103},{"id":"3844713017","name":"Museu da Liturgia","tags":"fee:yes,opening_hours:We-Sa 10:00-17:00; Su 10:00-14:00,tourism:museum","lat":-21.1092771,"lng":-44.1777891},{"id":"3994067759","name":"Templário","tags":"amenity:restaurant","lat":-21.1100599,"lng":-44.1734798},{"id":"3994067763","name":"Xicrona","tags":"amenity:cafe","lat":-21.1091064,"lng":-44.1762122},{"id":"3994067764","name":"Gourmeco","tags":"amenity:restaurant","lat":-21.1091859,"lng":-44.1772239},{"id":"3994068071","tags":"access:private,amenity:parking,fee:yes,parking:surface","lat":-21.1088757,"lng":-44.176309},{"id":"3994068072","name":"Montanhas","tags":"amenity:restaurant","lat":-21.1085437,"lng":-44.1764497},{"id":"3994068073","name":"Seu Barthô","tags":"amenity:restaurant","lat":-21.1070045,"lng":-44.1760233},{"id":"3994069591","name":"Luth Bistrô","tags":"amenity:restaurant","lat":-21.1104334,"lng":-44.1753529},{"id":"3994069592","name":"Casazul","tags":"amenity:cafe","lat":-21.1086171,"lng":-44.1760556},{"id":"3994069594","name":"Verdurão da Economia","tags":"shop:convenience","lat":-21.109433,"lng":-44.1700414},{"id":"3994069703","name":"Empório das Massas","tags":"amenity:restaurant","lat":-21.1084294,"lng":-44.1768722},{"id":"3994069704","name":"Polícia Civil","tags":"amenity:police","lat":-21.1082009,"lng":-44.1765295},{"id":"3994069705","name":"Creperia Debret","tags":"amenity:restaurant","lat":-21.1094713,"lng":-44.1754601},{"id":"3994069706","name":"Angatu","tags":"amenity:restaurant","lat":-21.1091497,"lng":-44.176247},{"id":"3994069707","name":"Bradesco","tags":"amenity:bank","lat":-21.1100613,"lng":-44.1747042},{"id":"3994070958","name":"Museu de Sant'Ana","tags":"tourism:museum","lat":-21.1092626,"lng":-44.1763435},{"id":"3994070959","name":"Delicias do Barroco","tags":"amenity:cafe","lat":-21.108991,"lng":-44.1760515},{"id":"3994070999","name":"Itaú","tags":"amenity:bank","lat":-21.1101464,"lng":-44.1747404},{"id":"3994071002","name":"Empório Santo Antônio","tags":"amenity:restaurant","lat":-21.1075708,"lng":-44.1677157},{"id":"3994071059","name":"Sapore d'Italia","tags":"amenity:restaurant","lat":-21.1102622,"lng":-44.1733116},{"id":"3994071060","name":"Cantina Italiana","tags":"amenity:restaurant","lat":-21.1091933,"lng":-44.1770008},{"id":"3994071157","name":"Restaurante da Beth","tags":"amenity:restaurant","lat":-21.1055226,"lng":-44.1746058},{"id":"4147157632","name":"Unidade Mista de Saúde","tags":"amenity:hospital","lat":-21.10859,"lng":-44.1787873},{"id":"4864761422","name":"Puro Cacau","tags":"amenity:cafe,name:pt:Puro Cacau","lat":-21.1090379,"lng":-44.1759771},{"id":"4867088221","name":"Puro Cacau","tags":"amenity:cafe,name:pt:Puro Cacau","lat":-21.1106497,"lng":-44.1739781},{"id":"5952570611","name":"Santuario Gourmet","tags":"amenity:restaurant,phone:+55 32 9 8854 8824","lat":-21.1112204,"lng":-44.1726942},{"id":"5952570612","name":"Tropeiro de Minas","tags":"amenity:restaurant","lat":-21.1112263,"lng":-44.1725439},{"id":"5952570693","name":"Entrefarma","tags":"amenity:pharmacy","lat":-21.1112452,"lng":-44.1721061},{"id":"5952570694","name":"Trem Gelado","tags":"amenity:cafe,phone:+55 32 9 9123 6035","lat":-21.1112994,"lng":-44.1716682},{"id":"5952571487","name":"Puis Sapore","tags":"amenity:restaurant,cuisine:pizza,name:pt:Piu Sapore,phone:+55 32 9 9930 6999","lat":-21.1111893,"lng":-44.1730799},{"id":"5952571488","name":"Estação Tiradentes","tags":"amenity:restaurant","lat":-21.1111491,"lng":-44.1704015},{"id":"5952581485","tags":"addr:housenumber:81,shop:supermarket","lat":-21.1118368,"lng":-44.1734363},{"id":"5987789764","tags":"amenity:parking,capacity:10,fee:no","lat":-21.1003285,"lng":-44.1686976},{"id":"6190372687","name":"Ora Pro Nobis","tags":"amenity:restaurant","lat":-21.1075716,"lng":-44.1768196},{"id":"6611830745","name":"Mano A Mano Bistrô","tags":"amenity:restaurant,phone:+55 32 9 9826 5370,website:https://www.facebook.com/BistroManoaMano/","lat":-21.1113249,"lng":-44.170584},{"id":"6935806196","name":"Estalagem do sabor","tags":"amenity:restaurant","lat":-21.1086925,"lng":-44.1762807},{"id":"6935806197","name":"Viradas do largo","tags":"amenity:restaurant","lat":-21.1054454,"lng":-44.1747485},{"id":"9124729609","name":"Távola","tags":"amenity:restaurant,opening_hours:Mo-Th,Su 11:00-23:00; Fr-Sa 11:00-01:00; PH closed,reservation:no,wheelchair:limited","lat":-21.1097988,"lng":-44.1747338},{"id":"9585929007","name":"Templo Fit Academia","tags":"leisure:fitness_centre","lat":-21.1092924,"lng":-44.1666364},{"id":"9595569761","name":"Banco24Horas","tags":"amenity:atm,brand:Banco24Horas,brand:wikidata:Q4854069,brand:wikipedia:pt:Banco24Horas,currency:BRL:yes,level:0","lat":-21.1094573,"lng":-44.174096}]