[{"id":"1449087127","name":"Mercadinho Firme Forte","tags":"shop:convenience","lat":-22.4757264,"lng":-43.5814065},{"id":"1449087373","name":"Colégio Municipal Joaquim Mendes","tags":"amenity:school","lat":-22.4745417,"lng":-43.5796684},{"id":"1449088447","name":"Correios","tags":"amenity:post_office","lat":-22.4762022,"lng":-43.5814118},{"id":"1449088455","name":"Mercado Ramom I e II","tags":"shop:supermarket","lat":-22.4762815,"lng":-43.5812187},{"id":"1449090075","name":"Sport Clube Morro Azul","tags":"leisure:sports_centre","lat":-22.4748639,"lng":-43.5822809},{"id":"1449093446","tags":"amenity:police","lat":-22.4742492,"lng":-43.583107},{"id":"1449093972","name":"Padaria e Restaurante","tags":"amenity:cafe","lat":-22.4756421,"lng":-43.5816264},{"id":"8628222029","name":"Centro Integrado de Saúde","tags":"amenity:hospital,healthcare:hospital","lat":-22.4759108,"lng":-43.5818921},{"id":"8628222030","name":"Terminal Rodoviário Governador Roberto Silveira","tags":"amenity:bus_station,bus:yes,public_transport:station","lat":-22.4759567,"lng":-43.582046}]