[{"id":"4165808947","name":"Stores","tags":"shop:convenience","lat":-20.6969964,"lng":-44.8347265},{"id":"4178836951","name":"Oliveira Clube","tags":"amenity:nightclub","lat":-20.6979457,"lng":-44.8260838},{"id":"4178836952","tags":"amenity:library","lat":-20.6975655,"lng":-44.8261749},{"id":"4185700971","name":"São Judas Tadeu","tags":"amenity:pharmacy","lat":-20.6967126,"lng":-44.8280263},{"id":"4217633242","name":"Cheiro do Oriente","tags":"amenity:restaurant,cuisine:asian","lat":-20.6944884,"lng":-44.8279976},{"id":"4243480123","tags":"amenity:post_office","lat":-20.6977458,"lng":-44.8259659},{"id":"4305090293","name":"Sicoob","tags":"amenity:bank","lat":-20.6977653,"lng":-44.8265771},{"id":"4305122475","tags":"shop:convenience","lat":-20.6977049,"lng":-44.8273101},{"id":"4305122478","tags":"shop:convenience","lat":-20.6969948,"lng":-44.8279673},{"id":"4305122490","name":"Bradesco","tags":"amenity:bank","lat":-20.6967313,"lng":-44.8275032},{"id":"4305122491","name":"Itaú","tags":"amenity:bank","lat":-20.6969321,"lng":-44.8271961},{"id":"4305122493","name":"Nossas Ervas","tags":"amenity:pharmacy","lat":-20.697109,"lng":-44.8270312},{"id":"4305122504","name":"Shopping Rua Direita","tags":"shop:mall","lat":-20.6977337,"lng":-44.8263351},{"id":"4309372918","name":"Dose Certa","tags":"amenity:pharmacy","lat":-20.6960929,"lng":-44.827929},{"id":"4309373626","tags":"shop:pet","lat":-20.6977635,"lng":-44.8255704},{"id":"4309555608","name":"Jobasi","tags":"shop:convenience","lat":-20.6945543,"lng":-44.8276739},{"id":"4312786505","name":"Late e Mia","tags":"shop:pet","lat":-20.6952517,"lng":-44.8284367},{"id":"4312818676","tags":"amenity:police","lat":-20.6973082,"lng":-44.8268457},{"id":"4312843483","tags":"leisure:sports_centre","lat":-20.6979845,"lng":-44.8272722},{"id":"4313118452","name":"Mercearia Real Sô João","tags":"shop:convenience","lat":-20.6957275,"lng":-44.8315769},{"id":"4314552288","name":"Salão do João Américo","tags":"shop:beauty","lat":-20.6963145,"lng":-44.8300396},{"id":"4350709535","name":"Pizzaria Delivery","tags":"amenity:restaurant","lat":-20.695908,"lng":-44.8319807},{"id":"9694499317","name":"FEOL - Fundação Educacional de Oliveira","tags":"addr:housenumber:27,addr:postcode:35540-000,addr:street:Avenida Coronel Benjamim Guimarães,amenity:school,contact:instagram:feolfaculdade,opening_hours:Mo-Fr 13:00-22:00,phone:+55 37 3331 4070,website:http://www.feol.com.br/","lat":-20.6959684,"lng":-44.8312089},{"id":"9694547517","name":"Restaurante & Pizzaria do Chicão","tags":"addr:housenumber:55,addr:postcode:35540-000,addr:street:Alameda Doutor Cícero de Castro Filho,amenity:restaurant,opening_hours:Mo-Su 10:00-23:00,phone:+55 37 3331 3246;+55 37 9 981 8121","lat":-20.6914426,"lng":-44.8261988}]