[{"id":"2585882110","name":"Restaurante Mirante","tags":"amenity:restaurant,source:name:survey","lat":-19.8898262,"lng":-44.5895338},{"id":"3362054789","name":"Organic Gastro Pub","tags":"addr:city:Para de Minas,addr:street:Avenida Cândido Portinari,addr:suburb:Cores de Minas,amenity:restaurant,capacity:600,delivery:no,opening_hours:We 20:00-00:00,smoking:isolated","lat":-19.874553,"lng":-44.5671155},{"id":"9644313728","name":"Supermercado panelinha","tags":"addr:city:Pará de Minas,addr:street:Avenida Ronaldo de Castro Alves,opening_hours:Mo-Su 09:00-20:00,payment:cash:yes,payment:credit_cards:yes,payment:debit_cards:yes,shop:supermarket","lat":-19.8676165,"lng":-44.5823142},{"id":"9644332690","name":"Colégio Cidade Pará de Minas","tags":"addr:city:Pará de Minas,addr:street:Praça Simão da Cunha,amenity:school,grades:1 to 13,religion:none","lat":-19.8635585,"lng":-44.6014999},{"id":"9644332691","name":"Escola Estadual Frei Concórdio","tags":"addr:city:Pará De Minas, MG,addr:street:Rua Porciuncula,amenity:school,grades:1 to 5,religion:none","lat":-19.8660445,"lng":-44.5953487},{"id":"9644342228","name":"Supermercado Panelão","tags":"addr:city:Pará de Minas,addr:street:Avenida Presidente Vargas,opening_hours:Mo-Su 09:00-21:00,payment:cash:yes,payment:credit_cards:yes,payment:debit_cards:yes,shop:supermarket","lat":-19.8658457,"lng":-44.5995037},{"id":"9644343693","name":"Verdurão Zé Vilaça","tags":"addr:street:Avenida Presidente Vargas,opening_hours:Mo-Fr 09:00-17:00,payment:cash:yes,payment:credit_cards:yes,payment:debit_cards:yes,shop:supermarket","lat":-19.8657059,"lng":-44.5998116}]