[{"id":"2058773767","name":"Pousada e Restaurante Empório Caipira","tags":"amenity:restaurant,cuisine:regional,phone:+55-31-3571-5096","lat":-20.1626373,"lng":-44.0264887},{"id":"2058922492","name":"Igreja Nossa Senhora da Piedade","tags":"amenity:place_of_worship,building:church,denomination:catholic,religion:christian","lat":-20.1659327,"lng":-44.023085},{"id":"3326859886","name":"Cachoeira dos Carrapatos","tags":"tourism:attraction,waterway:waterfall","lat":-20.165829,"lng":-44.0198825},{"id":"4209995091","name":"Biblioteca Comunitária Argemira Gomes","tags":"amenity:library,source:name:survey","lat":-20.1654098,"lng":-44.0229283},{"id":"4373144655","name":"Ristorante Madonna Pietá","tags":"amenity:restaurant,cuisine:italian","lat":-20.1635148,"lng":-44.0255452},{"id":"4373144656","name":"Tia Cecília","tags":"amenity:restaurant","lat":-20.1634701,"lng":-44.0256082},{"id":"4549886707","name":"Caminhos da Serra","tags":"addr:housenumber:1050,addr:street:Rua Prefeito Maciel dos Passos,amenity:cafe,email:emporiumcaminhosdaserra@gmail.com,opening_hours:Sa-Su, PH 08:00-18:00,phone:+55 31 984397599,website:https://www.emporiumcaminhosdaserra.com.br/","lat":-20.1706524,"lng":-44.0179456},{"id":"5362441024","name":"Restaurante Piedade do Paraopeba","tags":"addr:postcode:3546000,addr:street:Rua Rio Paraopeba,amenity:restaurant,cuisine:brazilian,internet_access:wlan,opening_hours:Fr-Su 15:00-23:00","lat":-20.1634436,"lng":-44.0247041}]