[{"id":"3957487392","name":"Drogamaxi","tags":"amenity:pharmacy,healthcare:pharmacy","lat":-20.142186,"lng":-44.2015661},{"id":"3957487393","name":"Drogaria São Geraldo","tags":"amenity:pharmacy,healthcare:pharmacy","lat":-20.1423166,"lng":-44.2012496},{"id":"3957487394","name":"Supermercado Amorim","tags":"shop:supermarket","lat":-20.1424813,"lng":-44.2010896},{"id":"3957487418","tags":"amenity:bank,atm:yes,brand:SICOOB","lat":-20.1423895,"lng":-44.2012512},{"id":"3957487419","name":"Caixa Econômica Federal","tags":"amenity:bank,atm:yes,brand:Caixa Econômica Federal,brand:wikidata:Q835283,brand:wikipedia:pt:Caixa Econômica Federal","lat":-20.1426628,"lng":-44.2010737},{"id":"3957487429","name":"Bradesco","tags":"amenity:bank,atm:yes,brand:Bradesco,brand:wikidata:Q806181,brand:wikipedia:en:Banco Bradesco","lat":-20.1438187,"lng":-44.2012582},{"id":"4844761670","name":"Terminal Rodoviário de Brumadinho","tags":"addr:city:Brumadinho,addr:street:Praça Paulo Alves Moreira,addr:suburb:Centro,amenity:bus_station,bus:yes,internet_access:no,public_transport:station","lat":-20.1422464,"lng":-44.2000756},{"id":"5874404285","name":"Ponto Gê","tags":"addr:housenumber:350,addr:street:Avenida Itaguá,amenity:restaurant","lat":-20.1424562,"lng":-44.2075306},{"id":"6238155134","tags":"addr:street:Rua João Fernandes,amenity:grave_yard,religion:christian","lat":-20.1447378,"lng":-44.1987798},{"id":"6240310941","name":"Farmais","tags":"amenity:pharmacy,healthcare:pharmacy","lat":-20.143745,"lng":-44.2014919},{"id":"6240310952","name":"Farmcenter","tags":"NOM_FANTAS:FARMCENTER,amenity:pharmacy,healthcare:pharmacy","lat":-20.1421415,"lng":-44.2004548},{"id":"6240310953","name":"Drogaria Brumadinho","tags":"amenity:pharmacy,healthcare:pharmacy","lat":-20.143162,"lng":-44.20132},{"id":"6240310954","name":"Farmácia São Geraldo","tags":"amenity:pharmacy","lat":-20.144245,"lng":-44.2032966},{"id":"6260902830","name":"Super Bruma","tags":"shop:supermarket","lat":-20.1415147,"lng":-44.2007894},{"id":"9687089159","name":"Fonseca Supermercado Supervarejista","tags":"addr:city:Brumadinho,addr:housenumber:100,addr:postcode:35460-000,addr:street:Avenida Vigilato Rodrigues Braga,addr:suburb:Centro,shop:supermarket","lat":-20.1425211,"lng":-44.201957},{"id":"9687089160","name":"Banco do Brasil","tags":"amenity:bank,brand:Banco do Brasil,brand:wikidata:Q610817","lat":-20.1432085,"lng":-44.1995209},{"id":"9687155132","name":"Supermercados Superluna","tags":"addr:city:Brumadinho,addr:housenumber:339,addr:postcode:35460-000,addr:street:Rua Quintino Bocaiúva,addr:suburb:Centro,payment:cash:yes,payment:coins:yes,payment:credit_cards:yes,phone:+55 31 3571 9500,shop:supermarket","lat":-20.1416423,"lng":-44.2031977},{"id":"9688176858","name":"FIT+ Academia e Pilates","tags":"addr:city:Brumadinho,addr:housenumber:233,addr:postcode:35460-000,addr:street:Rua Oligisto,addr:suburb:Ipiranga,leisure:fitness_centre,sport:fitness","lat":-20.1438921,"lng":-44.2019631},{"id":"9688176859","name":"Academia Cor Esporte","tags":"addr:city:Brumadinho,addr:housenumber:459,addr:postcode:35460-000,addr:street:Rua Reynaldo Pinto Vieira,addr:suburb:Silva Prado,leisure:fitness_centre,sport:fitness;swimming","lat":-20.1485118,"lng":-44.2026403},{"id":"9688176860","name":"Estúdio Biofitness","tags":"addr:city:Brumadinho,addr:housenumber:105,addr:postcode:35460-000,addr:street:Rua Presidente Vargas,addr:suburb:Centro,leisure:fitness_centre,level:4,phone:+55 31 3134 2980,sport:fitness","lat":-20.1422873,"lng":-44.2010623},{"id":"9688176867","name":"Arena G10","tags":"addr:city:Brumadinho,addr:housenumber:1314,addr:postcode:35460-000,addr:street:Rua Presidente Vargas,addr:suburb:Jota,amenity:bar","lat":-20.1534083,"lng":-44.1990612},{"id":"9688176869","name":"Rota V8 Rock Bar","tags":"addr:city:Brumadinho,addr:housenumber:150,addr:postcode:35460-000,addr:street:Avenida Itaguá,addr:suburb:São Sebastião,amenity:bar,brewery:yes","lat":-20.1418114,"lng":-44.2059398},{"id":"9688176872","name":"Farmácia São Geraldo","tags":"addr:city:Brumadinho,addr:housenumber:45,addr:postcode:35460-000,addr:street:Rua Governador Valadares,addr:suburb:Centro,amenity:pharmacy,dispensing:yes,healthcare:pharmacy","lat":-20.1419661,"lng":-44.2025514},{"id":"9688176875","name":"Delegacia de Polícia Civil","tags":"amenity:police","lat":-20.1423749,"lng":-44.2037268},{"id":"9688213274","name":"Agência de Correios Brumadinho","tags":"addr:city:Brumadinho,addr:housenumber:57,addr:loja:Loja 10,addr:postcode:35460-000,addr:street:Praça Paulo Alves Moreira,addr:suburb:Centro,amenity:post_office,operator:Correios,operator:wikidata:Q3375004","lat":-20.1422658,"lng":-44.2004639},{"id":"9688213275","name":"Correios Distribuição Brumadinho","tags":"addr:street:Rua Padre Eustáquio,amenity:post_office,operator:Correios,operator:wikidata:Q3375004","lat":-20.1388473,"lng":-44.2017087}]