[{"id":"1415171700","tags":"amenity:atm,operator:Banco 24 Horas","lat":-19.8164906,"lng":-44.0116933},{"id":"1415172149","name":"Escola Estadual Conceição Martins de Jesus","tags":"amenity:school,operator:Secretaria de Estado de Educação de Minas Gerais","lat":-19.815345,"lng":-44.013603},{"id":"1415179751","name":"Escola Municipal Sebastião Gomes","tags":"amenity:school","lat":-19.8161429,"lng":-44.0107815},{"id":"1880090834","name":"Escola Estadual São Pedro e São Paulo","tags":"amenity:school,operator:Secretaria de Estado de Educação de Minas Gerais","lat":-19.8156389,"lng":-43.990315},{"id":"1887630240","name":"Escola Municipal Presidente Tancredo Neves","tags":"amenity:school","lat":-19.8185587,"lng":-44.002457},{"id":"1888930532","name":"Escola Municipal Mário Mourão Filho","tags":"amenity:school","lat":-19.8120736,"lng":-44.0043399},{"id":"2324424927","name":"Flamengo","tags":"amenity:nightclub","lat":-19.8051706,"lng":-43.9905199},{"id":"2363318977","name":"Bar do Jesu","tags":"addr:housename:Casa,addr:housenumber:320,addr:postcode:31680-120,addr:street:Rua Tenente Marino Freire,alt_name:Parauna's bar,amenity:bar,wifi:no","lat":-19.8018729,"lng":-43.9934044},{"id":"2365747265","name":"Supermercados EPA","tags":"shop:supermarket","lat":-19.8027569,"lng":-44.0009981},{"id":"2365748611","name":"Drograria Lagoninha","tags":"amenity:pharmacy","lat":-19.8027695,"lng":-44.0007351},{"id":"4247284504","name":"Supermercados BH","tags":"shop:supermarket","lat":-19.8024278,"lng":-43.9902123},{"id":"4247285879","name":"Rancho da Vovó Tela","tags":"amenity:restaurant","lat":-19.8018617,"lng":-43.9935581},{"id":"4408376928","tags":"addr:housenumber:7676,amenity:bar","lat":-19.8058363,"lng":-44.0221344},{"id":"4408412821","tags":"addr:housenumber:333,amenity:bar","lat":-19.8076704,"lng":-44.0197105},{"id":"4408423114","tags":"addr:housenumber:1211,amenity:bar","lat":-19.8055088,"lng":-44.019586},{"id":"4408432908","name":"bar teste","tags":"addr:housenumber:222,amenity:bar,name:pt:bar teste","lat":-19.8071585,"lng":-44.020554},{"id":"4413764390","tags":"amenity:bar","lat":-19.8038815,"lng":-44.0180684},{"id":"5171427721","name":"Restaurante da família","tags":"addr:housenumber:6,addr:street:Rua Engenho Novo,amenity:restaurant,internet_access:wlan,opening_hours:Mo-Su 09:00-20:30","lat":-19.7923487,"lng":-44.0091631},{"id":"5171427821","name":"Supermercado Hozana","tags":"addr:street:Rua Três,opening_hours:Mo-Su 08:00-20:00,shop:supermarket","lat":-19.7918816,"lng":-44.0039578},{"id":"5171427822","name":"E.E FRANCISCO CARDOSO ASSUMPÇAO","tags":"addr:street:Rua Três,amenity:school,opening_hours:Mo-Fr 06:30-17:45","lat":-19.7902951,"lng":-44.0036812},{"id":"5171429222","name":"Supermercado Hosana","tags":"addr:street:Rua Três,opening_hours:Mo-Su 07:30-20:00,shop:supermarket","lat":-19.7919017,"lng":-44.0040321},{"id":"5171434822","name":"Campo Estrela","tags":"addr:street:Rua Dez,amenity:school,opening_hours:24/7","lat":-19.7893091,"lng":-44.0019016},{"id":"5171453022","name":"Campo Madureira","tags":"addr:street:Avenida Pedro Leopoldo,tourism:attraction","lat":-19.7926545,"lng":-44.0107835},{"id":"5172144022","name":"Praça Tijolinho","tags":"addr:street:Praça Rio Branco,tourism:attraction","lat":-19.8047399,"lng":-43.9952333},{"id":"5172144023","name":"Drogaria Atalaia","tags":"addr:street:Rua Conde de Monte Cristo,amenity:pharmacy","lat":-19.7912579,"lng":-44.0046473},{"id":"5172890224","name":"Banco do Brasil","tags":"addr:street:Rua Padre Pedro Pinto,amenity:bank","lat":-19.8031725,"lng":-43.9983266},{"id":"5172910922","name":"Sacolão ABC","tags":"shop:supermarket","lat":-19.7940063,"lng":-44.010929},{"id":"5174668321","name":"Sacolão da Família","tags":"addr:street:Rua Sete,shop:supermarket","lat":-19.7901772,"lng":-44.0039628},{"id":"5618352121","name":"Caad","tags":"amenity:hospital","lat":-19.8055229,"lng":-44.0248037},{"id":"6085424481","tags":"shop:supermarket","lat":-19.8108854,"lng":-44.0179604},{"id":"6399654443","name":"Supermercado Colonial","tags":"addr:housenumber:175,addr:postcode:33930 310,addr:street:Rua São João Batista,shop:supermarket","lat":-19.7897223,"lng":-43.9938095}]