[{"id":"2626907110","name":"Bar da Cida","tags":"addr:city:Sabará,addr:street:Rua Alemanha,amenity:bar,opening_hours:18:00-02:00","lat":-19.8804045,"lng":-43.8630578},{"id":"2626912345","name":"Escola Estadual Professora Angélica Maria de Almeida","tags":"addr:city:Sabará,addr:postcode:34590340,addr:street:Rua Espanha,amenity:school,operator:Secretaria de Estado de Educação de Minas Gerais","lat":-19.8811863,"lng":-43.864325},{"id":"2626914756","name":"Clube do Erônides","tags":"leisure:park","lat":-19.8786362,"lng":-43.8635583},{"id":"3485719626","name":"Estação General Carneiro","tags":"public_transport:station,railway:station","lat":-19.8817765,"lng":-43.8593623},{"id":"5994050301","tags":"amenity:police,police:traffic_police","lat":-19.8756742,"lng":-43.8736948},{"id":"6030366671","name":"Manda Brasa","tags":"addr:city:Sabará,addr:street:Rua Pitangui,addr:suburb:Nossa Senhora de Fátima,amenity:restaurant,cuisine:sandwich;burger","lat":-19.8644545,"lng":-43.8633378},{"id":"6054744886","tags":"access:yes,amenity:parking,supervised:no,surface:unpaved","lat":-19.8634395,"lng":-43.8898917}]