[{"id":"2333020970","name":"Delegacia de Polícia Civil de Bom Jesus do Norte","tags":"addr:city:Bom Jesus do Norte,addr:housenumber:85,addr:place:São Sebastião,addr:postcode:29460-000,addr:street:Rua Pedro Casemiro Campos,amenity:police,contact:phone:+55 28 3562-1666,short_name:DPC","lat":-21.1266211,"lng":-41.6739487},{"id":"2333033478","tags":"amenity:school","lat":-21.1252101,"lng":-41.6722177},{"id":"2851411037","name":"EMEF Coronel Antônio Honório","tags":"IJSN:administra:Municipal,IJSN:classeCnae:Fundamental,addr:city:Bom Jesus do Norte,addr:housenumber:4,addr:postcode:29460-000,addr:street:Rua Governador Lacerda de Aguiar,addr:suburb:Centro,alt_name:Escola Municipal de Ensino Fundamental,amenity:school,contact:phone:+55 28 3562-1647","lat":-21.131212,"lng":-41.6764814},{"id":"4024905592","name":"EMEF Lar André Luiz","tags":"IJSN:administra:Municipal,IJSN:classeCnae:Fundamental,addr:city:Bom Jesus do Norte,addr:postcode:29460-000,addr:street:Rodovia ES - 484 Km 1,addr:suburb:Comunidade Bom Jesus do Norte,alt_name:Escola Municipal de Ensino Fundamental,amenity:school","lat":-21.1165819,"lng":-41.6775215},{"id":"4024905914","name":"EMEIEF Minervina da Silva Araújo","tags":"IJSN:administra:Municipal,IJSN:classeCnae:Fundamental,addr:city:Bom Jesus do Norte,addr:postcode:29460-000,addr:suburb:Loteamento Silvana,alt_name:Escola Municipal de Ensino Infantil e Fundamental,amenity:school,contact:phone:(27) 3562-1932","lat":-21.1244055,"lng":-41.666081},{"id":"4024905955","name":"EMEIEF São Sebastião","tags":"IJSN:administra:Municipal,IJSN:classeCnae:Fundamental,addr:city:Bom Jesus do Norte,addr:housenumber:186,addr:postcode:29460-000,addr:street:Rua José Cordeiro,addr:suburb:São Sebastião,alt_name:Escola Municipal de Ensino Infantil e Fundamental,amenity:school,contact:phone:(28) 3562-1501","lat":-21.1250191,"lng":-41.6724818},{"id":"5754184030","name":"Sicoob","tags":"amenity:bank,atm:yes","lat":-21.1313884,"lng":-41.6767766},{"id":"5754184031","name":"Correios","tags":"amenity:post_office","lat":-21.1316185,"lng":-41.6763286}]