[{"id":"2333020970","name":"Delegacia de Polícia Civil de Bom Jesus do Norte","tags":"addr:city:Bom Jesus do Norte,addr:housenumber:85,addr:place:São Sebastião,addr:postcode:29460-000,addr:street:Rua Pedro Casemiro Campos,amenity:police,contact:phone:+55 28 3562-1666,short_name:DPC","lat":-21.1266211,"lng":-41.6739487},{"id":"2333033478","tags":"amenity:school","lat":-21.1252101,"lng":-41.6722177},{"id":"2851411037","name":"EMEF Coronel Antônio Honório","tags":"IJSN:administra:Municipal,IJSN:classeCnae:Fundamental,addr:city:Bom Jesus do Norte,addr:housenumber:4,addr:postcode:29460-000,addr:street:Rua Governador Lacerda de Aguiar,addr:suburb:Centro,alt_name:Escola Municipal de Ensino Fundamental,amenity:school,contact:phone:+55 28 3562-1647","lat":-21.131212,"lng":-41.6764814},{"id":"4024905592","name":"EMEF Lar André Luiz","tags":"IJSN:administra:Municipal,IJSN:classeCnae:Fundamental,addr:city:Bom Jesus do Norte,addr:postcode:29460-000,addr:street:Rodovia ES - 484 Km 1,addr:suburb:Comunidade Bom Jesus do Norte,alt_name:Escola Municipal de Ensino Fundamental,amenity:school","lat":-21.1165819,"lng":-41.6775215},{"id":"4024905914","name":"EMEIEF Minervina da Silva Araújo","tags":"IJSN:administra:Municipal,IJSN:classeCnae:Fundamental,addr:city:Bom Jesus do Norte,addr:postcode:29460-000,addr:suburb:Loteamento Silvana,alt_name:Escola Municipal de Ensino Infantil e Fundamental,amenity:school,contact:phone:(27) 3562-1932","lat":-21.1244055,"lng":-41.666081},{"id":"4024905955","name":"EMEIEF São Sebastião","tags":"IJSN:administra:Municipal,IJSN:classeCnae:Fundamental,addr:city:Bom Jesus do Norte,addr:housenumber:186,addr:postcode:29460-000,addr:street:Rua José Cordeiro,addr:suburb:São Sebastião,alt_name:Escola Municipal de Ensino Infantil e Fundamental,amenity:school,contact:phone:(28) 3562-1501","lat":-21.1250191,"lng":-41.6724818},{"id":"5754184030","name":"Sicoob","tags":"amenity:bank,atm:yes","lat":-21.1313884,"lng":-41.6767766},{"id":"5754184031","name":"Correios","tags":"amenity:post_office","lat":-21.1316185,"lng":-41.6763286},{"id":"10003068913","name":"Banestes","tags":"addr:city:Bom Jesus do Norte,addr:housenumber:141,addr:postcode:29460-000,addr:street:Avenida Major Bley,addr:suburb:Centro,amenity:bank,atm:yes,brand:Banestes,brand:wikidata:Q4854848,official_name:Banco do Estado do Espírito Santo,operator:Banco do Estado do Espírito Santo S.A.","lat":-21.1330719,"lng":-41.6779121},{"id":"10003271366","name":"Big Supermercado","tags":"addr:city:Bom Jesus do Norte,addr:postcode:29460-000,addr:street:Avenida Cristiano Dias Lopes,addr:suburb:São Sebastião,shop:supermarket","lat":-21.1270261,"lng":-41.6735967},{"id":"10003271368","name":"Centro Municipal de Educação Infantil Penha de Fatima Lopes Boechat","tags":"addr:city:Bom Jesus do Norte,addr:postcode:29460-000,addr:suburb:São Sebastião,amenity:childcare","lat":-21.1234398,"lng":-41.6727286},{"id":"10003307440","name":"Centro Municipal de Educação Infantil Maria Moreira de Souza - Tia Cotinha","tags":"addr:city:Bom Jesus do Norte,addr:housenumber:187,addr:postcode:29460-000,addr:street:Rua Abílio Poupel,addr:suburb:Loteamento Silvana,amenity:childcare,operator:Secretaria Municipal de Educação,operator:type:public","lat":-21.1246294,"lng":-41.6667016},{"id":"10003307457","name":"Centro Municpal de Educação Infantil Deputado Gil Veloso","tags":"addr:city:Bom Jesus do Norte,addr:housenumber:263,addr:postcode:29460-000,addr:street:Rua Cândido Peralva,addr:suburb:Centro,amenity:childcare,operator:Secretaria Municipal de Educação,operator:type:public","lat":-21.1298749,"lng":-41.6743217},{"id":"10004424648","name":"144º Delegacia de Polícia Civil de Bom Jesus do Itabapoana","tags":"addr:city:Bom Jesus do Itabapoana,addr:housenumber:146,addr:postcode:28360-000,addr:street:Avenida Governador Roberto Silveira,addr:suburb:Centro,amenity:police,operator:Polícia Civil do Estado do Rio de Janeiro","lat":-21.1368412,"lng":-41.6758416},{"id":"10004424649","tags":"addr:city:Bom Jesus do Itabapoana,addr:housenumber:136,addr:postcode:28360-000,addr:street:Avenida Governador Roberto Silveira,addr:suburb:Centro,amenity:post_office,operator:Correios,operator:wikidata:Q3375004","lat":-21.1367954,"lng":-41.6759965},{"id":"10004424657","name":"Sicredi","tags":"addr:city:Bom Jesus do Itabapoana,addr:housenumber:255,addr:postcode:28360-000,addr:street:Avenida Governador Roberto Silveira,addr:suburb:Centro,amenity:bank,atm:yes,brand:Sicredi,brand:wikidata:Q3483060","lat":-21.1369776,"lng":-41.674955},{"id":"10004424658","name":"Sicoob","tags":"addr:city:Bom Jesus do Itabapoana,addr:housenumber:587,addr:postcode:28360-000,addr:street:Avenida Governador Roberto Silveira,addr:suburb:Centro,amenity:bank,atm:yes,brand:Sicoob,brand:wikidata:Q28679754,operator:Cooperativa de Credito de Livre Admissao do Estado do Rio de Janeiro - Sicoob Fluminense","lat":-21.1354465,"lng":-41.6725142},{"id":"10004424659","name":"Bradesco","tags":"addr:city:Bom Jesus do Itabapoana,addr:housenumber:244,addr:postcode:28360-000,addr:street:Avenida Doutor Abreu Lima,addr:suburb:Centro,amenity:bank,atm:yes,brand:Bradesco,brand:wikidata:Q806181","lat":-21.1363049,"lng":-41.6774111},{"id":"10004424660","name":"Banco do Brasil","tags":"addr:city:Bom Jesus do Itabapoana,addr:housenumber:171,addr:postcode:28360-000,addr:street:Rua Tenente José Teixeira,addr:suburb:Centro,amenity:bank,atm:yes,brand:Banco do Brasil,brand:wikidata:Q610817,email:age0155@bb.com.br","lat":-21.1352491,"lng":-41.6788273},{"id":"10004765478","name":"Itaú","tags":"addr:city:Bom Jesus do Itabapoana,addr:housenumber:88,addr:postcode:28360-000,addr:street:Rua Quinze de Novembro,addr:suburb:Centro,amenity:bank,atm:yes,brand:Itaú Unibanco,brand:wikidata:Q1424293","lat":-21.1341825,"lng":-41.6787019},{"id":"10004765480","name":"Centro Educacional Batista","tags":"addr:city:Bom Jesus do Itabapoana,addr:housenumber:285,addr:postcode:28360-000,addr:street:Rua Quinze de Novembro,addr:suburb:Centro,amenity:school,denomination:baptist,email:colegiobatistabji@gmail.com,phone:+55 22 3831 4797,religion:christian","lat":-21.1346553,"lng":-41.6773081},{"id":"10004765512","name":"Caixa Econômica Federal","tags":"addr:city:Bom Jesus do Itabapoana,addr:housenumber:76,addr:postcode:28360-000,addr:street:Praça Amaral Peixoto,addr:suburb:Centro,amenity:bank,atm:yes,brand:Caixa Econômica Federal,brand:wikidata:Q835283","lat":-21.135062,"lng":-41.6781955},{"id":"10004765513","name":"Colégio Rio Branco","tags":"addr:city:Bom Jesus do Itabapoana,addr:postcode:28360-000,addr:street:Praça Amaral Peixoto,addr:suburb:Centro,amenity:school","lat":-21.1348324,"lng":-41.6776131}]