[{"id":"4423030470","tags":"amenity:restaurant,level:0","lat":-21.143814,"lng":-41.6649751},{"id":"6329112531","name":"Marron Glacê","tags":"amenity:restaurant,cuisine:brazilian","lat":-21.143185,"lng":-41.6651648},{"id":"10004160677","name":"Churrascaria Pitucão","tags":"addr:city:Bom Jesus do Itabapoana,addr:housenumber:2641,addr:postcode:28360-000,addr:street:Avenida Geraldo Magela Rodrigues,addr:suburb:Jorge Assis de Oliveira,amenity:restaurant","lat":-21.1423969,"lng":-41.6635291},{"id":"10004424656","name":"Hospital São Vicente","tags":"addr:city:Bom Jesus do Itabapoana,addr:housenumber:473,addr:postcode:28360-000,addr:street:Rua Tenente José Teixeira,addr:suburb:Centro,amenity:hospital,emergency:yes,healthcare:hospital,healthcare:speciality:general;gynaecology;paediatrics,operator:Centro Popular Pró Melhoramentos de Bom Jesus,operator:type:private,phone:+55 22 3831 2546","lat":-21.1377523,"lng":-41.6792796},{"id":"10004765481","name":"Colégio Maria da Conceição Baptista Oliveira","tags":"addr:city:Bom Jesus do Itabapoana,addr:housenumber:90,addr:postcode:28360-000,addr:street:Rua Pedro Rodrigues do Carmo,addr:suburb:Novo,amenity:school,denomination:roman_catholic,email:colegio.mcbo@gmail.com,phone:+55 22 3833 0102,religion:christian","lat":-21.1387457,"lng":-41.6740431}]