[{"id":"315623498","name":"Supermercados B. C.","tags":"addr:city:Alegre,addr:housenumber:431,addr:postcode:29500-000,addr:street:Avenida Doutor Wanderley,addr:suburb:Centro,operator:d. F. Favoreto Supermercado Eireli,phone:+55 28 3552 3142,shop:supermarket","lat":-20.7598892,"lng":-41.5353796},{"id":"4024903378","name":"Centro Educacional Adélia Barroso Bifano - Ceabb","tags":"IJSN:administra:Privada,IJSN:classeCnae:Infantil e Fundamental,addr:city:Alegre,addr:housenumber:83,addr:postcode:29500-000,addr:street:Rua Benjamim Barros Filho,addr:suburb:Triângulo,alt_name:Centro Educacional,amenity:school,contact:phone:(28) 3552-0319 / 3552-4041,operator:Centro Educacional Dias Sueth Limitada,operator:type:private","lat":-20.767765,"lng":-41.5310859},{"id":"4024904838","name":"EEEFM Professor Pedro Simão","tags":"IJSN:administra:Estadual,IJSN:classeCnae:Fundamental e Médio,addr:city:Alegre,addr:postcode:29500-000,addr:street:Rua Antônio Lemos Barbosa,addr:suburb:São Manoel,alt_name:Escola Estadual de Ensino Fundamental e Médio,amenity:school,contact:phone:(28) 3552-4426 / 3552-4040","lat":-20.7722542,"lng":-41.534723},{"id":"4024905750","name":"EMEFTI Luciano Alves Duarte","tags":"IJSN:administra:Municipal,IJSN:classeCnae:Infantil e Fundamental,addr:city:Alegre,addr:postcode:29500-000,addr:street:Rua Carmosina Dias do Nascimento,addr:suburb:Clério Moulim,alt_name:Escola Municipal de Ensino Fundamental em Tempo Integral,amenity:school,contact:phone:(28) 3552-3048 / 3552-4048","lat":-20.7662677,"lng":-41.5458528},{"id":"4024905967","name":"EMEIF Professor Domingos Bravo Reinoso","tags":"IJSN:administra:Municipal,IJSN:classeCnae:Infantil e Fundamental,addr:city:Alegre,addr:postcode:29500-000,addr:street:Rua Aristides Monteiro da Silva,addr:suburb:Vila do Sul,alt_name:Escola Municipal de Ensino Infantil e Fundamental,amenity:school","lat":-20.7720182,"lng":-41.532156},{"id":"5301469768","name":"Bradesco","tags":"addr:city:Alegre,addr:housenumber:50,addr:postcode:29500-000,addr:street:Praça Seis de Janeiro,addr:suburb:Centro,amenity:bank,atm:yes,brand:Bradesco,brand:wikidata:Q806181,brand:wikipedia:en:Banco Bradesco,operator:Banco Brasileiro de Descontos Sociedade Anônima,phone:+55 28 3552 2360","lat":-20.7624284,"lng":-41.5321672},{"id":"5301469778","name":"Caixa Econômica Federal","tags":"addr:city:Alegre,addr:housenumber:06,addr:postcode:29500-000,addr:street:Rua Doutor Chacon,addr:suburb:Centro,amenity:bank,atm:yes,brand:Caixa Econômica Federal,brand:wikidata:Q835283,brand:wikipedia:pt:Caixa Econômica Federal,phone:+55 28 3552 8800","lat":-20.7630865,"lng":-41.532308},{"id":"5301469779","name":"Banco do Brasil","tags":"addr:city:Alegre,addr:housenumber:64,addr:postcode:29500-000,addr:street:Avenida Jerônimo Monteiro,addr:suburb:Centro,amenity:bank,atm:yes,brand:Banco do Brasil,brand:wikidata:Q610817,brand:wikipedia:en:Banco do Brasil,operator:Banco do Brasil Sociedade Anônimoa,phone:+55 28 4003 3001","lat":-20.7631556,"lng":-41.53151},{"id":"5301481545","name":"Banestes","tags":"addr:city:Alegre,addr:housenumber:03,addr:postcode:29500-000,addr:street:Rua Francisco Teixeira,addr:suburb:Centro,amenity:bank,atm:yes,branch:Banco do Estado do Espírito Santo S A,brand:Banestes,brand:wikidata:Q4854848,official_name:Banco do Estado do Espírito Santo,operator:Banco do Estado do Espírito Santo Sociedade Anônima","lat":-20.7620249,"lng":-41.531323},{"id":"5301481546","name":"Sicoob","tags":"addr:city:Alegre,addr:housenumber:65,addr:postcode:29500-000,addr:street:Rua Francisco Teixeira,addr:suburb:Centro,amenity:bank,atm:yes,brand:Sicoob,brand:wikidata:Q28679754,brand:wikipedia:pt:Sistema de Cooperativas de Crédito do Brasil,operator:Cooperativa de Crédito Sul do Espírito Santo,phone:+55 28 3552 1568","lat":-20.7618842,"lng":-41.5312257},{"id":"9318187458","name":"Pharmacêutica Medicamentos","tags":"addr:city:Alegre,addr:housenumber:89,addr:postcode:29500-000,addr:street:Rua Dulcino Pinheiro,addr:suburb:Centro,amenity:pharmacy,dispensing:yes,healthcare:pharmacy,operator:Pharmacêutica Medicamentos Limitada","lat":-20.7625717,"lng":-41.530186},{"id":"9318187464","name":"Drogaria Central","tags":"addr:city:Alegre,addr:housenumber:284,addr:postcode:29500-000,addr:street:Praça Seis de Janeiro,addr:suburb:Centro,amenity:pharmacy,dispensing:yes,email:drogariajgmauri@hotmail.com,healthcare:pharmacy,operator:Drogaria J. G. Mauri Limitada,phone:+55 28 3552 1359,phone_1:+55 28 3552 0152","lat":-20.7623754,"lng":-41.5313006},{"id":"9318987602","name":"Farmácia São José","tags":"addr:city:Alegre,addr:housenumber:26,addr:postcode:29500-000,addr:street:Praça Seis de Janeiro,addr:suburb:Centro,amenity:pharmacy,dispensing:yes,healthcare:pharmacy,operator:Lauro Lima e Companhia Limitada","lat":-20.7623479,"lng":-41.5320196},{"id":"9318987603","name":"Comida e Companhia","tags":"addr:city:Alegre,addr:postcode:29500-000,addr:street:Praça Seis de Janeiro,addr:suburb:Centro,amenity:restaurant,cuisine:regional,phone:+55 28 98815 5938","lat":-20.7627891,"lng":-41.5325505},{"id":"9319092479","name":"Restaurante Casa Velha","tags":"addr:city:Alegre,addr:housenumber:13,addr:postcode:29500-000,addr:street:Avenida Doutor Wanderley,addr:suburb:Centro,amenity:restaurant,cuisine:regional","lat":-20.7620356,"lng":-41.5320651},{"id":"9432395818","name":"Café Bar Canto Caparaó","tags":"addr:city:Alegre,addr:postcode:29500-000,addr:street:Rua Padre Anchieta,addr:suburb:Centro,amenity:bar","lat":-20.7611105,"lng":-41.5345492},{"id":"9945690400","name":"Bichos & Caprichos Pet Center","tags":"addr:city:Alegre,addr:housenumber:67,addr:postcode:29500-000,addr:street:Rua Leticia Jorge Monteiro,addr:suburb:Centro,operator:A. A. Rosa Servicos Veterinarios e Comercio Eireli,shop:pet","lat":-20.7601759,"lng":-41.5333494},{"id":"9947579654","name":"Colegio Inovador","tags":"addr:city:Alegre,addr:housenumber:54,addr:postcode:29500-000,addr:street:Rua Mizael de Paiva Barcelos,addr:suburb:Vila do Sul,amenity:school,operator:Cooperativa Educacional Sul Capixaba - Coopesulc,operator:type:private,phone:+55 28 3552 1102","lat":-20.7674516,"lng":-41.5325722},{"id":"9957850878","name":"Centro Municipal De Educação Infantil Tereza Fiorezi de Oliveira","tags":"addr:city:Alegre,addr:postcode:29500-000,addr:street:Rua Benjamim Barros Filho,addr:suburb:Triângulo,amenity:school,operator:Secretaria Municipal de Educação,operator:type:public","lat":-20.7673732,"lng":-41.5316027},{"id":"9968789489","name":"Farmácia Valory","tags":"addr:city:Alegre,addr:housenumber:209,addr:postcode:29500-000,addr:street:Avenida Doutor Wanderley,addr:suburb:Centro,amenity:pharmacy,dispensing:yes,healthcare:pharmacy,operator:Farmácia Valory Limitada,phone:+55 28 3552 1600","lat":-20.7611011,"lng":-41.5335964},{"id":"9968859061","name":"Phytoformula","tags":"addr:city:Alegre,addr:housenumber:64,addr:postcode:29500-000,addr:street:Praça Seis de Janeiro,addr:suburb:Centro,amenity:pharmacy,dispensing:yes,healthcare:pharmacy,operator:Phytoformula Farmácia de Manipulação Limitada,phone:+55 28 3552","lat":-20.7625223,"lng":-41.5322565},{"id":"9968859062","name":"Farmácia Preço Baixo","tags":"addr:city:Alegre,addr:housenumber:07,addr:postcode:29500-000,addr:street:Rua Doutor Chacon,addr:suburb:Centro,amenity:pharmacy,dispensing:yes,email:pb.alegre@outlook.com,healthcare:pharmacy,operator:Fármacia Preço Baixo de Alegre Limitada,phone:+55 28 3552 4557","lat":-20.7630879,"lng":-41.5321512},{"id":"9970675399","name":"Supermercado Coma Bem","tags":"addr:city:Alegre,addr:postcode:29500-000,addr:street:Rua Manoel Leonardo de Souza,addr:suburb:Vila do Sul,operator:Coma Bem Mercearia Limitada,phone:+55 28 (3552 1615,shop:supermarket","lat":-20.7711651,"lng":-41.5353045},{"id":"9992783178","name":"Agência dos Correios de Alegre","tags":"addr:city:Alegre,addr:housenumber:133,addr:postcode:29500-000,addr:street:Avenida Jerônimo Monteiro,addr:suburb:Centro,amenity:post_office,operator:ECT - Empresa Brasileira de Correios e Telégrafos,phone:+55 28 3552 2693","lat":-20.7636582,"lng":-41.5310699}]