[{"id":"3462600900","tags":"shop:supermarket","lat":-20.6502039,"lng":-41.9093119},{"id":"3462606401","tags":"amenity:hospital","lat":-20.654197,"lng":-41.9081384},{"id":"9988955112","name":"Bradesco","tags":"addr:city:Espera Feliz,addr:postcode:36830-000,addr:street:Praça Doutor José Augusto,addr:suburb:Centro,amenity:bank,atm:yes,brand:Bradesco,brand:wikidata:Q806181","lat":-20.6506012,"lng":-41.9086181},{"id":"9988968819","name":"Caixa Econômica Federal","tags":"addr:city:Espera Feliz,addr:housenumber:59,addr:postcode:36830-000,addr:street:Praça Doutor José Augusto,addr:suburb:Centro,amenity:bank,atm:yes,brand:Caixa Econômica Federal,brand:wikidata:Q835283","lat":-20.6505082,"lng":-41.9090544},{"id":"9988968840","name":"Banco do Brasil","tags":"addr:city:Espera Feliz,addr:housenumber:138,addr:postcode:36830-000,addr:street:Praça da Bandeira,addr:suburb:Centro,amenity:bank,atm:yes,brand:Banco do Brasil,brand:wikidata:Q610817","lat":-20.6476008,"lng":-41.9093759},{"id":"9988968841","name":"Cresol","tags":"addr:city:Espera Feliz,addr:housenumber:70,addr:postcode:36830-000,addr:street:Praça da Bandeira,addr:suburb:Centro,amenity:bank,atm:yes,email:minas@cresol.com.br,operator:Cooperativa de Crédito e Investimento com Interação Solidária de Minas Gerais - Cresol,phone:+55 32 3721 3788","lat":-20.647013,"lng":-41.9096307},{"id":"9988968843","name":"Sicoob","tags":"addr:city:Espera Feliz,addr:housenumber:66,addr:postcode:36830-000,addr:street:Rua João Sebastião de Amorim,addr:suburb:Centro,amenity:bank,atm:yes,brand:Sicoob,brand:wikidata:Q28679754,operator:Cooperativa de Crédito Credisudeste Limitada","lat":-20.6517909,"lng":-41.9089618},{"id":"9988975463","name":"Escola Estadual Altivo Leopoldino de Souza","tags":"addr:city:Espera Feliz,addr:housenumber:145,addr:postcode:36830-000,addr:street:Rua Jair de Souza Castro,addr:suburb:Centro,amenity:school,email:escola.97683@educacao.mg.gov.br,operator:Secretaria de Educação do Estados de Minas Gerais,operator:type:public,phone:+55 32 3746 1266","lat":-20.6415115,"lng":-41.9181524},{"id":"9988975464","name":"Escola Estadual Interventor Júlio de Carvalho","tags":"addr:city:Espera Feliz,addr:housenumber:126,addr:postcode:36830-000,addr:street:Avenida Jayme Toledo,addr:suburb:Centro,amenity:school,operator:Secretaria de Educação do Estado de Minas Gerais,operator:type:public","lat":-20.6541839,"lng":-41.9094077},{"id":"9988975465","name":"Escola Estadual Irênio de Souza Castro","tags":"addr:city:Espera Feliz,addr:postcode:36830-000,amenity:school","lat":-20.6437918,"lng":-41.91468},{"id":"9989051398","name":"Colégio Batista Reobote","tags":"addr:city:Espera Feliz,addr:housenumber:80,addr:postcode:36830-000,addr:street:Rua Francisco Gomes Monteiro,addr:suburb:Centro,amenity:school","lat":-20.6518926,"lng":-41.9110376},{"id":"9989051400","name":"Centro Municipal de Educação Crescendo e Aprendendo","tags":"addr:city:Espera Feliz,addr:housenumber:177,addr:postcode:36830-000,addr:street:Rua Pio XII,addr:suburb:Centro,amenity:school,operator:Município de Espera Feliz,operator:type:public","lat":-20.6523418,"lng":-41.9067326},{"id":"9989087124","name":"Creche Municipal Os Pequeninos do Futuro","tags":"addr:city:Espera Feliz,addr:housenumber:102,addr:postcode:36830-000,addr:street:Rua Jose Sebastiao Martins,addr:suburb:Centro,amenity:childcare","lat":-20.6396208,"lng":-41.9195779},{"id":"9989087125","name":"Centro de Educação Infantil e Ensino Fundamental Portal do Saber","tags":"addr:city:Espera Feliz,addr:housenumber:255,addr:postcode:36830-000,addr:street:Rua Americo Vespucio de Carvalho,addr:suburb:Centro,amenity:school,operator:Colégio Portal do Saber Limitada,operator:type:private","lat":-20.6459545,"lng":-41.9122937},{"id":"10051942607","name":"Educandário Sacramentino","tags":"addr:city:Espera Feliz,addr:suburb:Centro,amenity:school,religion:christian","lat":-20.6528464,"lng":-41.9099561}]