[{"id":"3491299267","name":"Hospital Maternidade Doutor Aluísio Filgueiras","tags":"IJSN:tipoUnidad:Hospital Geral,addr:city:Muqui,addr:housenumber:84,addr:place:Boa Esperança,addr:postcode:29480-000,addr:street:Rua João Jacinto,addr:suburb:Boa Esperança,amenity:hospital,contact:phone:(28) 3554-1339,healthcare:hospital","lat":-20.9520511,"lng":-41.3428703},{"id":"3743499959","name":"Delegacia da Polícia Civil de Muqui","tags":"addr:city:Muqui,addr:housenumber:56,addr:place:Centro,addr:postcode:29480-000,addr:street:Rua Avenida Jerônimo Monteiro,addr:suburb:Centro,amenity:police,contact:phone:(28) 3554-1263,short_name:DPC","lat":-20.9499294,"lng":-41.344612},{"id":"4024904393","name":"CE Muquiense","tags":"IJSN:administra:Privada,IJSN:classeCnae:Fundamental,addr:city:Muqui,addr:housenumber:110,addr:postcode:29480-000,addr:street:Rua Cel Mateus Paiva,addr:suburb:Santo Agostinho,alt_name:Centro Educacional,amenity:school,contact:phone:(28) 3554-1799","lat":-20.9490457,"lng":-41.3451458},{"id":"4024904400","name":"CEI Tio Pedro","tags":"IJSN:administra:Municipal,IJSN:classeCnae:Infantil e Fundamental,addr:city:Muqui,addr:housenumber:519,addr:postcode:29480-000,addr:street:Rua Joaquim Afonso,addr:suburb:Boa Esperança,alt_name:Centro de Educação Infantil,amenity:school","lat":-20.9592042,"lng":-41.3377059},{"id":"4024904456","name":"EEEF Marcondes de Souza","tags":"IJSN:administra:Estadual,IJSN:classeCnae:Fundamental,addr:city:Muqui,addr:postcode:29480-000,addr:street:Rua Coronel Marcondes,addr:suburb:Centro,alt_name:Escola Estadual de Ensino Fundamental,amenity:school","lat":-20.9511689,"lng":-41.3437729},{"id":"4024904792","name":"EEEFM Dirceu Cardoso","tags":"IJSN:administra:Estadual,IJSN:classeCnae:Fundamental e Médio,addr:city:Muqui,addr:postcode:29480-000,addr:suburb:Boa Esperança,alt_name:Escola Estadual de Ensino Fundamental e Médio,amenity:school","lat":-20.9594765,"lng":-41.339355},{"id":"4024905463","name":"EMEF Frei Pedro Domingos Izcara","tags":"IJSN:administra:Municipal,IJSN:classeCnae:Fundamental,addr:city:Muqui,addr:postcode:29480-000,addr:street:Rua Coronel Mateus Paiva,addr:suburb:Centro,alt_name:Escola Municipal de Ensino Fundamental,amenity:school","lat":-20.9455326,"lng":-41.345859},{"id":"4024905723","name":"EMEF São Vicente de Paulo","tags":"IJSN:administra:Municipal,IJSN:classeCnae:Infantil e Fundamental,addr:city:Muqui,addr:postcode:29480-000,addr:street:Rua Projetada,addr:suburb:San Domingo,alt_name:Escola Municipal de Ensino Fundamental,amenity:school,contact:phone:(28) 3554-2027","lat":-20.9499422,"lng":-41.3404139},{"id":"9256493924","name":"Praça Geraldo Viana","tags":"leisure:park","lat":-20.9511322,"lng":-41.3451609},{"id":"9256564707","name":"Banco do Brasil","tags":"addr:city:Muqui,addr:housenumber:209,addr:postcode:29480-000,addr:street:Rua Vieira Machado,addr:suburb:Centro,amenity:bank,atm:yes,brand:Banco do Brasil,brand:wikidata:Q610817,brand:wikipedia:en:Banco do Brasil,operator:Banco do Brasil S/A","lat":-20.9519815,"lng":-41.3468705},{"id":"9328000804","name":"Caixa Econômica Federal","tags":"addr:city:Muqui,addr:housenumber:415,addr:postcode:29480-000,addr:street:Rua Vieira Machado,addr:suburb:Centro,amenity:bank,atm:yes,brand:Caixa Econômica Federal,brand:wikidata:Q835283,brand:wikipedia:pt:Caixa Econômica Federal","lat":-20.9508441,"lng":-41.3453717},{"id":"9328001030","name":"Sicoob","tags":"addr:city:Muqui,addr:housenumber:567,addr:postcode:29480-000,addr:street:Avenida Getulio Vargas,addr:suburb:Centro,amenity:bank,brand:Sicoob,brand:wikidata:Q28679754,brand:wikipedia:pt:Sistema de Cooperativas de Crédito do Brasil,operator:Cooperativa de Crédito dos Proprietários da Indústria de Rochas Ornamentais, Cal e Calcários do Estado do Espírito Santo","lat":-20.9501518,"lng":-41.3440919},{"id":"9328001031","name":"Banestes","tags":"addr:city:Muqui,addr:housenumber:161,addr:postcode:29480-000,addr:street:Rua Vieira Machado,addr:suburb:Centro,amenity:bank,operator:Banco do Estado do Espírito Santo Sociedade Anônimo","lat":-20.9521514,"lng":-41.3470687},{"id":"9328001032","name":"Cresol","tags":"addr:city:Muqui,addr:housenumber:25,addr:postcode:29480-000,addr:street:Rua Poty Formel,addr:suburb:Centro,amenity:bank,atm:yes,operator:Cooperativa de Crédito Rural Com Interação Solidária do Espírito Santo","lat":-20.9520336,"lng":-41.3464242}]