[{"id":"1587920562","name":"Rodoviária de Marataízes","tags":"amenity:bus_station","lat":-21.0496793,"lng":-40.8310157},{"id":"1630815645","name":"Multimarket","tags":"shop:supermarket","lat":-21.0456855,"lng":-40.8309273},{"id":"1702460892","name":"Gaivota's","tags":"amenity:restaurant","lat":-21.047678,"lng":-40.8301279},{"id":"1766029496","name":"Pestalozzi de Itapemirim","tags":"amenity:school","lat":-21.0092988,"lng":-40.835534},{"id":"1829367500","name":"Pirâmide","tags":"amenity:bar","lat":-21.0447032,"lng":-40.8283895},{"id":"1829379504","name":"Jucy","tags":"shop:supermarket","lat":-21.0452525,"lng":-40.8357269},{"id":"1850314487","name":"Tsubaky","tags":"amenity:restaurant,cuisine:japanese","lat":-21.0437981,"lng":-40.827256},{"id":"2261448935","tags":"amenity:atm,network:Banco 24h","lat":-21.0439986,"lng":-40.8277122},{"id":"3743499948","name":"Delegacia de Polícia Civil de Itapemirim","tags":"addr:city:Itapemirim,addr:housenumber:107,addr:place:Centro,addr:postcode:29330-000,addr:street:Rua Coronel Marcondes de Souza,amenity:police,contact:phone:(28) 3529-5008,short_name:DPC","lat":-21.0095275,"lng":-40.8356182},{"id":"4024903381","name":"CE Carlos Drummond de Andrade","tags":"IJSN:administra:Privada,IJSN:classeCnae:Infantil e Fundamental,addr:city:Marataízes,addr:postcode:29345-000,addr:street:Avenida Domingos Martins,addr:suburb:Centro,alt_name:Centro Educacional,amenity:school,contact:phone:(28) 3532-2922","lat":-21.044817,"lng":-40.8310789},{"id":"4024905621","name":"EMEF Nagib Meleip","tags":"IJSN:administra:Municipal,IJSN:classeCnae:Fundamental,addr:city:Marataízes,addr:postcode:29345-000,addr:street:Rua Elias Silva,addr:suburb:Santa Teresa,alt_name:Escola Municipal de Ensino Fundamental,amenity:school","lat":-21.0421688,"lng":-40.8352106},{"id":"4024905622","name":"EMEF Narciso Araújo","tags":"IJSN:administra:Municipal,IJSN:classeCnae:Fundamental,addr:city:Itapemirim,addr:housenumber:40,addr:postcode:29330-000,addr:street:Praça Domingos Martins,addr:suburb:Centro,alt_name:Escola Municipal de Ensino Fundamental,amenity:school","lat":-21.0096044,"lng":-40.8328004},{"id":"4024905759","name":"EMEIEF Anacleto Jacinto Ribeiro","tags":"IJSN:administra:Municipal,IJSN:classeCnae:Infantil e Fundamental,addr:city:Itapemirim,addr:postcode:29330-000,addr:suburb:Campo Acima,alt_name:Escola Municipal de Ensino Infantil e Fundamental,amenity:school","lat":-21.0294714,"lng":-40.8571998},{"id":"4024905769","name":"EMEIEF Bonifácio João Marvila","tags":"IJSN:administra:Municipal,IJSN:classeCnae:Infantil e Fundamental,addr:city:Marataízes,addr:housenumber:22,addr:postcode:29345-000,addr:street:Rua das Violetas,addr:suburb:Belo Horizonte,alt_name:Escola Municipal de Ensino Infantil e Fundamental,amenity:school","lat":-21.04938,"lng":-40.8366551},{"id":"4356733212","name":"Bar e Restaurante Oceania","tags":"amenity:bar","lat":-21.0456812,"lng":-40.8290292},{"id":"4357665489","name":"Rosa Pizzaria e Restaurante","tags":"amenity:restaurant,cuisine:pizza","lat":-21.044819,"lng":-40.8294259},{"id":"4359495142","name":"Pier Grill","tags":"amenity:restaurant,level:0","lat":-21.0434571,"lng":-40.8266635},{"id":"4363146033","name":"Bujão Restaurante","tags":"amenity:restaurant","lat":-21.0469903,"lng":-40.8297545},{"id":"4457710291","name":"Pizzaria Patinhas","tags":"amenity:restaurant,cuisine:pizza","lat":-21.0430463,"lng":-40.8263337},{"id":"4457711591","name":"Bom Sabor","tags":"amenity:restaurant","lat":-21.0433372,"lng":-40.8265238},{"id":"4457713693","name":"Restaurante Raízes","tags":"amenity:restaurant","lat":-21.0093589,"lng":-40.833484},{"id":"4457713694","tags":"amenity:bank,brand:SICOOB","lat":-21.0099625,"lng":-40.8310616},{"id":"4457713695","name":"UAB - Universidade Aberta do Brasil - Pólo Itapemirim","tags":"amenity:school","lat":-21.0093754,"lng":-40.8283894},{"id":"4457736394","name":"CEMEI \"Professora Maria da Penha Ribeiro Machado \"","tags":"amenity:childcare","lat":-21.0072419,"lng":-40.8297951},{"id":"4457764091","name":"BANESTES S/A - Agência Itapemirim","tags":"amenity:bank,brand:Banestes","lat":-21.0109057,"lng":-40.8339774}]