[{"id":"1702355363","name":"Heimen Coffee","tags":"amenity:cafe","lat":-20.3962267,"lng":-41.0306692},{"id":"1914966969","name":"Pedra Azul","tags":"tourism:attraction","lat":-20.3997942,"lng":-41.0248713},{"id":"3663888800","name":"Portal Pedra Azul","tags":"addr:city:Domingos Martins,addr:housenumber:km 02,addr:postcode:29260-000,addr:street:Rodovia Ângelo Girardi,addr:suburb:Pedra Azul,amenity:cafe","lat":-20.3941162,"lng":-41.0269366},{"id":"6329618351","name":"Dom Due","tags":"addr:city:Domingos Martins,addr:postcode:29260-000,addr:street:Rodovia Ângelo Girardi,addr:suburb:Pedra Azul,amenity:restaurant,cuisine:italian,internet_access:wlan,internet_access:fee:no","lat":-20.402084,"lng":-41.0319909},{"id":"9583381383","name":"Piscinas Naturais","tags":"tourism:attraction","lat":-20.4006718,"lng":-41.0186998},{"id":"9742262470","name":"Bosque das Cerejeiras","tags":"tourism:attraction","lat":-20.3980968,"lng":-41.0244018}]