[{"id":"3743499949","name":"Delegacia da Polícia Civil de Iúna","tags":"addr:city:Iúna,addr:housenumber:134,addr:place:Centro,addr:postcode:29390-000,addr:street:Rua Desembargador Epaminondas do Amaral,amenity:police,contact:phone:(28) 3545-1366 / 3545-2147,short_name:DPC","lat":-20.347725,"lng":-41.5331153},{"id":"4024904431","name":"Colégio Porto Seguro","tags":"IJSN:administra:Privada,IJSN:classeCnae:Infantil, Fundamental e Médio,addr:city:Iúna,addr:housenumber:269,addr:postcode:29390-000,addr:street:Avenida Deputado João Rios,addr:suburb:Centro,amenity:school,contact:phone:(27) 3545-1046","lat":-20.3508233,"lng":-41.5345098},{"id":"4024904803","name":"EEEFM Henrique Coutinho","tags":"IJSN:administra:Estadual,IJSN:classeCnae:Fundamental e Médio,addr:city:Iúna,addr:housenumber:188,addr:postcode:29390-000,addr:street:Rua Desembargador Epaminondas do Amaral,addr:suburb:Centro,alt_name:Escola Estadual de Ensino Fundamental e Médio,amenity:school,contact:phone:(27) 3545-1318 / 3545-1480","lat":-20.3475262,"lng":-41.5322588},{"id":"4024905426","name":"EMEF Delfino Batista Vieira","tags":"IJSN:administra:Municipal,IJSN:classeCnae:Infantil e Fundamental,addr:city:Iúna,addr:postcode:29390-000,addr:street:Rua Benjamim Fontoura,addr:suburb:Nossa Senhora das Graças,alt_name:Escola Municipal de Ensino Fundamental,amenity:school,contact:phone:(27) 3545-1232","lat":-20.3834861,"lng":-41.5385503},{"id":"4024905428","name":"EMEF Deolinda Amorim de Oliveira","tags":"IJSN:administra:Municipal,IJSN:classeCnae:Fundamental,addr:city:Iúna,addr:housenumber:255,addr:postcode:29390-000,addr:street:Rua Ipiranga,addr:suburb:Quilombo,alt_name:Escola Municipal de Ensino Fundamental,amenity:school,contact:phone:(27) 3545-1766 / 3545-1821","lat":-20.3494046,"lng":-41.5310628},{"id":"4024905434","name":"EMEF Doutor Nagen Abikahir","tags":"IJSN:administra:Municipal,IJSN:classeCnae:Infantil e Fundamental,addr:city:Iúna,addr:housenumber:317,addr:postcode:29390-000,addr:street:Rua Galaor Rios,addr:suburb:Centro,alt_name:Escola Municipal de Ensino Fundamental,amenity:school,contact:phone:(27) 3545-1237 / 3545-1202","lat":-20.3505114,"lng":-41.5331288},{"id":"4024905936","name":"EMEIEF Professora Dalila de Castro Rios","tags":"IJSN:administra:Municipal,IJSN:classeCnae:Infantil e Fundamental,addr:city:Iúna,addr:postcode:29390-000,addr:street:Avenida Professor Amphilóphio de Oliveira,addr:suburb:Guanabara,alt_name:Escola Municipal de Ensino Infantil e Fundamental,amenity:school,contact:phone:(27) 3545-3215","lat":-20.3558993,"lng":-41.5309211},{"id":"6488297386","name":"Restaurante Casa da Rosa","tags":"amenity:restaurant","lat":-20.3476833,"lng":-41.5338592},{"id":"10169835640","name":"Banco do Brasil","tags":"addr:city:Iúna,addr:housenumber:126,addr:postcode:29390-000,addr:street:Avenida Presidente Getúlio Vargas,addr:suburb:Centro,amenity:bank,atm:yes,brand:Banco do Brasil,brand:wikidata:Q610817","lat":-20.3473751,"lng":-41.5353626},{"id":"10169835644","name":"Bradesco","tags":"addr:city:Iúna,addr:housenumber:80,addr:postcode:29390-000,addr:street:Rua Raulino Finamore,addr:suburb:Centro,amenity:bank,brand:Bradesco,brand:wikidata:Q806181","lat":-20.350374,"lng":-41.5344536},{"id":"10169835646","name":"Rastaurante Chuletão","tags":"addr:city:Iúna,addr:postcode:29390-000,addr:street:Rua Raulino Finamore,addr:suburb:Centro,amenity:restaurant","lat":-20.3502737,"lng":-41.5343114},{"id":"10169835647","name":"Banestes","tags":"addr:city:Iúna,addr:housenumber:216,addr:postcode:29390-000,addr:street:Avenida Presidente Getúlio Vargas,addr:suburb:Centro,amenity:bank,atm:yes,brand:Banestes,brand:wikidata:Q4854848,official_name:Banco do Estado do Espírito Santo","lat":-20.346775,"lng":-41.5359956},{"id":"10171409962","tags":"amenity:school","lat":-20.3489854,"lng":-41.5323279},{"id":"10172144283","name":"Supermercado Pami","tags":"addr:city:Iúna,addr:postcode:29390-000,addr:street:Rua Galaor Rios,addr:suburb:Centro,shop:supermarket","lat":-20.3481017,"lng":-41.5342775}]