[{"id":"315000504","tags":"amenity:atm,brand:Caixa","lat":-20.3206396,"lng":-40.3516848},{"id":"315000556","name":"Banco do Brasil","tags":"amenity:bank,atm:yes,brand:Banco do Brasil,brand:wikidata:Q610817,brand:wikipedia:en:Banco do Brasil","lat":-20.3280099,"lng":-40.3536913},{"id":"1151667625","name":"Star Cerimonial","tags":"amenity:bar","lat":-20.3334852,"lng":-40.3610576},{"id":"1809107661","name":"Supermercado Tradição","tags":"shop:supermarket","lat":-20.3261249,"lng":-40.3812282},{"id":"2135485278","name":"Faculdade São Geraldo","tags":"IJSN:administra:Privada,IJSN:classeCnae:Superior,addr:city:Cariacica,addr:housenumber:40,addr:place:São Geraldo,addr:postcode:29146-790,addr:street:Rua 13 de Maio,amenity:university,contact:phone:+55 27 3421-9769,short_name:FSG","lat":-20.3451851,"lng":-40.3815527},{"id":"2135505001","name":"Delegacia de Polícia Civil","tags":"amenity:police","lat":-20.336911,"lng":-40.3850127},{"id":"2135509576","name":"EPA Supermercados","tags":"addr:street:Avenida Expedito Garcia,shop:supermarket","lat":-20.3430223,"lng":-40.3849953},{"id":"2335381195","name":"VitaNutri","tags":"amenity:restaurant","lat":-20.3225879,"lng":-40.3750783},{"id":"2409017474","name":"Correios Jardim América","tags":"amenity:post_office","lat":-20.3333496,"lng":-40.363212},{"id":"2409033258","name":"RedeFarmes","tags":"amenity:pharmacy","lat":-20.3321738,"lng":-40.3640172},{"id":"2409033260","name":"Farmácia Guarujá","tags":"amenity:pharmacy","lat":-20.3324957,"lng":-40.3635344},{"id":"2409038633","name":"Farmácia Lydia","tags":"amenity:pharmacy","lat":-20.3325548,"lng":-40.3632629},{"id":"2409038678","name":"Restaurante Bom Apetite","tags":"amenity:restaurant","lat":-20.3326793,"lng":-40.3627539},{"id":"2434573274","name":"Rodoviária de Vitória Carlos Alberto V. Campos","tags":"amenity:bus_station","lat":-20.3219991,"lng":-40.3516019},{"id":"3353357584","name":"EEEF Domingos José Martins","tags":"IJSN:administra:Estadual,IJSN:classeCnae:Fundamental,addr:city:Vila Velha,addr:country:BR,addr:housenumber:154,addr:place:Alvorada,addr:postcode:29117-340,addr:state:ES,addr:street:Rua Capricórnio,alt_name:Escola Estadual de Ensino Fundamental,amenity:school,contact:phone:+55 27 3359-5435,operator:SEDU","lat":-20.3462761,"lng":-40.3492161},{"id":"3404175495","name":"Santa Casa de Misericórdia de Vitória","tags":"IJSN:gestao:Dupla,IJSN:jurisdicao:Privada,IJSN:tipoUnidad:Hospital Geral,addr:city:Vitória,addr:housenumber:143,addr:place:Vila Rubim,addr:postcode:29018-180,addr:street:Rua Doutor João dos Santos Neves,amenity:hospital,contact:phone:+55 27 3322-0074,healthcare:hospital,wikidata:Q25428515","lat":-20.3206655,"lng":-40.344534},{"id":"3460744525","name":"CAT Arnaldo Magalhães Filho","tags":"IJSN:administra:Privada,IJSN:classeCnae:Infantil, Fundamental e Médio,addr:city:Cariacica,addr:country:BR,addr:housenumber:9,addr:place:Porto de Santana,addr:postcode:29153-076,addr:state:ES,addr:street:Rua do Sesi,alt_name:Centro de Atividades,amenity:school,contact:phone:+55 27 3336-4573;+55 27 3396-5891","lat":-20.3085974,"lng":-40.3669598},{"id":"3460744542","name":"CE Sonho Meu","tags":"IJSN:administra:Privada,IJSN:classeCnae:Infantil e Médio,addr:city:Cariacica,addr:country:BR,addr:housenumber:4,addr:place:Itacibá,addr:postcode:29150-310,addr:state:ES,addr:street:Rua Adélia Pinheiro de Souza,alt_name:Centro Educacional,amenity:school,contact:phone:+55 27 3226-5143","lat":-20.3225019,"lng":-40.3773206},{"id":"3460744589","name":"CMEI Pedro Vieira da Silva","tags":"IJSN:administra:Municipal,IJSN:classeCnae:Infantil e Fundamental,addr:city:Cariacica,addr:country:BR,addr:place:São Geraldo,addr:postcode:29146-728,addr:state:ES,addr:street:Rua Aparecida,alt_name:Centro Municipal de Educação Infantil,amenity:school,contact:phone:+55 27 3286-6681/3343-2008","lat":-20.3432823,"lng":-40.3786807},{"id":"3460745599","name":"Centro Educacional Centro Leste Ltda","tags":"IJSN:administra:Privada,IJSN:classeCnae:Superior,addr:city:Cariacica,addr:place:Vera Cruz,addr:postcode:29146-785,addr:street:Rua Antônio Peixoto,alt_name:Centro Educacional Centro Leste Ltda,amenity:university,contact:phone:+55 27 3286-2551,short_name:UNIEST","lat":-20.3381801,"lng":-40.3786382},{"id":"3460745601","name":"Centro Educacional São Geraldo","tags":"IJSN:administra:Privada,IJSN:classeCnae:Infantil, Fundamental e Médio,addr:city:Cariacica,addr:housenumber:39,addr:place:São Geraldo,addr:postcode:29146-675,addr:street:Rua Esmeralda,amenity:school,contact:phone:+55 27 3421-9797;+55 27 3336-5531","lat":-20.3453501,"lng":-40.3813331},{"id":"3460745608","name":"Colégio Passionista","tags":"IJSN:administra:Privada,IJSN:classeCnae:Infantil, Fundamental e Médio,addr:city:Cariacica,addr:place:Jardim América,addr:postcode:29140-230,addr:street:Rua Bolívia,amenity:school,contact:phone:+55 27 3226-0757;+55 27 3236-1046","lat":-20.3344208,"lng":-40.3642316},{"id":"3460745616","name":"EEEF Antônio Esteves","tags":"IJSN:administra:Estadual,IJSN:classeCnae:Fundamental,addr:city:Cariacica,addr:country:BR,addr:place:Vera Cruz,addr:postcode:29146-756,addr:state:ES,addr:street:Rua Monte Castelo,alt_name:Escola Estadual de Ensino Fundamental,amenity:school,contact:phone:+55 27 3386-8352;+55 27 3336-9976","lat":-20.3386071,"lng":-40.3731003},{"id":"3460745621","name":"EEEF General Tiburcio","tags":"IJSN:administra:Estadual,IJSN:classeCnae:Fundamental,addr:city:Cariacica,addr:country:BR,addr:place:Porto de Santana,addr:postcode:29153-010,addr:state:ES,addr:street:Rua Gabino Rios,alt_name:Escola Estadual de Ensino Fundamental,amenity:school,contact:phone:+55 27 3286-8322;+55 27 3343-5836","lat":-20.3103646,"lng":-40.3679297},{"id":"3460745627","name":"EEEF Pautila Rodrigues Xavier","tags":"IJSN:administra:Estadual,IJSN:classeCnae:Fundamental,addr:city:Cariacica,addr:country:BR,addr:place:Jardim América,addr:postcode:29140-040,addr:state:ES,addr:street:Rua Amazonas,alt_name:Escola Estadual de Ensino Fundamental,amenity:school,contact:phone:+55 27 3236-0713;+55 27 3236-0023","lat":-20.3360482,"lng":-40.3587654},{"id":"3460745628","name":"EEEF Presidente MédicI","tags":"IJSN:administra:Estadual,IJSN:classeCnae:Fundamental,addr:city:Cariacica,addr:country:BR,addr:place:Presidente MédicI,addr:postcode:29153-650,addr:state:ES,addr:street:Rua São Sebastião,alt_name:Escola Estadual de Ensino Fundamental,amenity:school,contact:phone:+55 27 3396-4926;+55 27 3343-4292","lat":-20.3042476,"lng":-40.3704932},{"id":"3460745629","name":"EEEF Professor Augusto Carvalho","tags":"IJSN:administra:Estadual,IJSN:classeCnae:Fundamental,addr:city:Cariacica,addr:country:BR,addr:place:Itacibá,addr:postcode:29150-200,addr:state:ES,addr:street:Rua Imaculada Conceição,alt_name:Escola Estadual de Ensino Fundamental,amenity:school,contact:phone:+55 27 3236-2871;+55 27 3343-0316","lat":-20.3239264,"lng":-40.3747204},{"id":"3460745639","name":"EEEFM Doutor Afonso Schwab","tags":"IJSN:administra:Estadual,IJSN:classeCnae:Fundamental e Médio,addr:city:Cariacica,addr:country:BR,addr:place:Jardim América,addr:postcode:29140-300,addr:state:ES,addr:street:Rua Santo Amaro,alt_name:Escola Estadual de Ensino Fundamental e Médio,amenity:school,contact:phone:+55 27 3226-1531;+55 27 3261-1183","lat":-20.3377691,"lng":-40.3659808},{"id":"3460745644","name":"EEEFM João Crisostomo Beleza","tags":"IJSN:administra:Estadual,IJSN:classeCnae:Fundamental e Médio,addr:city:Cariacica,addr:country:BR,addr:housenumber:1132,addr:place:Porto de Santana,addr:postcode:29153-580,addr:state:ES,addr:street:Rua Verdes Mares - Setor CVRD,alt_name:Escola Estadual de Ensino Fundamental e Médio,amenity:school,contact:phone:+55 27 3343-0177;+55 27 3343-4280","lat":-20.3125657,"lng":-40.3674521},{"id":"3460745648","name":"EEEFM Nossa Senhora Aparecida","tags":"IJSN:administra:Estadual,IJSN:classeCnae:Fundamental e Médio,addr:city:Cariacica,addr:country:BR,addr:place:Oriente,addr:postcode:29150-550,addr:state:ES,addr:street:Rua Pauliceia,alt_name:Escola Estadual de Ensino Fundamental e Médio,amenity:school,contact:phone:+55 27 3343-3508","lat":-20.3297981,"lng":-40.3808016},{"id":"3460745649","name":"EEEFM Presidente Castelo Branco","tags":"IJSN:administra:Estadual,IJSN:classeCnae:Fundamental e Médio,addr:city:Cariacica,addr:country:BR,addr:place:Porto de Santana,addr:postcode:29153-076,addr:state:ES,addr:street:Rua do Sesi,alt_name:Escola Estadual de Ensino Fundamental e Médio,amenity:school,contact:phone:+55 27 3366-1746;+55 27 3396-5893","lat":-20.3080873,"lng":-40.3670846},{"id":"3460745653","name":"EEEFM Professora Maria de Lourdes Santos Silva","tags":"IJSN:administra:Estadual,IJSN:classeCnae:Fundamental e Médio,addr:city:Cariacica,addr:country:BR,addr:place:Alto Lage,addr:postcode:29151-340,addr:state:ES,addr:street:Rua Santa Lucia,alt_name:Escola Estadual de Ensino Fundamental e Médio,amenity:school,contact:phone:+55 27 3226-2140;+55 27 3236-1208","lat":-20.3295976,"lng":-40.3682645},{"id":"3460745669","name":"EMEF Amenóphis de Assis","tags":"IJSN:administra:Municipal,IJSN:classeCnae:Fundamental,addr:city:Cariacica,addr:country:BR,addr:place:Vale Esperança,addr:postcode:29141-032,addr:state:ES,addr:street:Rua Doze,alt_name:Escola Municipal de Ensino Fundamental,amenity:school,contact:phone:+55 27 3316-1491;+55 27 332-65991","lat":-20.3445267,"lng":-40.3686499},{"id":"3460745674","name":"EMEF Arthur da Costa e Silva","tags":"IJSN:administra:Municipal,IJSN:classeCnae:Fundamental,addr:city:Cariacica,addr:country:BR,addr:place:Aparecida,addr:postcode:29152-860,addr:state:ES,addr:street:Rua Presidente Costa e Silva,alt_name:Escola Municipal de Ensino Fundamental,amenity:school,contact:phone:+55 27 3236-4413;+55 27 3216-5124","lat":-20.3058775,"lng":-40.3749792},{"id":"3460745686","name":"EMEF Iracy Gobbi","tags":"IJSN:administra:Municipal,IJSN:classeCnae:Fundamental,addr:city:Cariacica,addr:country:BR,addr:place:Expedito,addr:postcode:29151-780,addr:state:ES,addr:street:Travessa Graciliano Salles,alt_name:Escola Municipal de Ensino Fundamental,amenity:school,contact:phone:+55 27 3366-3973;+55 27 3343-4684","lat":-20.3252907,"lng":-40.3683549},{"id":"3460745688","name":"EMEF Jocarly Gomes Salles","tags":"IJSN:administra:Municipal,IJSN:classeCnae:Fundamental,addr:city:Cariacica,addr:country:BR,addr:housenumber:53,addr:place:Alto Lage,addr:postcode:29151-200,addr:state:ES,addr:street:Rua América,alt_name:Escola Municipal de Ensino Fundamental,amenity:school,contact:phone:+55 27 3236-7492;+55 27 3336-7047","lat":-20.3311515,"lng":-40.373267},{"id":"3460745690","name":"EMEF João Pedro da Silva","tags":"IJSN:administra:Municipal,IJSN:classeCnae:Fundamental,addr:city:Cariacica,addr:country:BR,addr:housenumber:57,addr:place:Porto de Santana,addr:postcode:29153-084,addr:state:ES,addr:street:Rua da Assembléia,alt_name:Escola Municipal de Ensino Fundamental,amenity:school,contact:phone:+55 27 3236-6377/3216-1727/3336-8607","lat":-20.3084639,"lng":-40.3699936},{"id":"3460745691","name":"EMEF Laurinda Pereira do Nascimento","tags":"IJSN:administra:Municipal,IJSN:classeCnae:Fundamental,addr:city:Cariacica,addr:country:BR,addr:place:Graúna,addr:postcode:29154-620,addr:state:ES,addr:street:Rua Laurinda Pereira do Nascimento,alt_name:Escola Municipal de Ensino Fundamental,amenity:school,contact:phone:+55 27 3236-5758;+55 27 3343-3888","lat":-20.3049423,"lng":-40.3855036},{"id":"3460746401","name":"EMEF Oliveira Castro","tags":"IJSN:administra:Municipal,IJSN:classeCnae:Fundamental,addr:city:Cariacica,addr:country:BR,addr:housenumber:1129,addr:place:Itaquari,addr:postcode:29151-560,addr:state:ES,addr:street:Rua Muniz Freire,alt_name:Escola Municipal de Ensino Fundamental,amenity:school,contact:phone:+55 27 3226-5951;+55 27 3236-0779","lat":-20.3277711,"lng":-40.3605138},{"id":"3460746407","name":"EMEF Professor Cerqueira Lima","tags":"IJSN:administra:Municipal,IJSN:classeCnae:Fundamental,addr:city:Cariacica,addr:country:BR,addr:place:Jardim América,addr:postcode:29140-490,addr:state:ES,addr:street:Avenida Brasil,alt_name:Escola Municipal de Ensino Fundamental,amenity:school,contact:phone:+55 27 3226-8177","lat":-20.3374621,"lng":-40.3604536},{"id":"3460746412","name":"EMEF Stélida Dias","tags":"IJSN:administra:Municipal,IJSN:classeCnae:Fundamental,addr:city:Cariacica,addr:country:BR,addr:place:Campo Grande,addr:postcode:29146-330,addr:state:ES,addr:street:Rua Bolivar de Abreu,alt_name:Escola Municipal de Ensino Fundamental,amenity:school,contact:phone:+55 27 3386-4754;+55 27 3336-4751","lat":-20.3398393,"lng":-40.3842821},{"id":"3460746415","name":"EMEF Talma Sarmento de Miranda","tags":"IJSN:administra:Municipal,IJSN:classeCnae:Fundamental,addr:city:Cariacica,addr:country:BR,addr:housenumber:33,addr:place:São Geraldo,addr:postcode:29146-670,addr:state:ES,addr:street:Rua da Matriz,alt_name:Escola Municipal de Ensino Fundamental,amenity:school,contact:phone:+55 27 3286-6959;+55 27 3336-5399","lat":-20.3410947,"lng":-40.3820592},{"id":"3460746423","name":"EMEF Álvaro Armeloni","tags":"IJSN:administra:Municipal,IJSN:classeCnae:Fundamental,addr:city:Cariacica,addr:country:BR,addr:place:Oriente,addr:postcode:29150-600,addr:state:ES,addr:street:Rua São Paulo,alt_name:Escola Municipal de Ensino Fundamental,amenity:school,contact:phone:+55 27 3286-8809;+55 27 3343-3512","lat":-20.3284724,"lng":-40.3795665},{"id":"3460746427","name":"Faculdade Espírito Santense de Ensino Tecnológico","tags":"IJSN:administra:Privada,IJSN:classeCnae:Superior,addr:city:Cariacica,addr:housenumber:13,addr:place:Itaquari,addr:postcode:29151-318,addr:street:Rua da Lage,alt_name:Faculdade Espírito Santense de Ensino tecnológico,amenity:university,contact:phone:+55 27 3346-3250,short_name:FAESTE","lat":-20.3286233,"lng":-40.3612746},{"id":"3460746428","name":"Faculdade Pio XII","tags":"IJSN:administra:Privada,IJSN:classeCnae:Superior,addr:city:Cariacica,addr:housenumber:48,addr:place:Campo Grande,addr:postcode:29146-330,addr:street:Rua Bolívar de Abreu,amenity:university,contact:phone:+55 27 3421-2563","lat":-20.338534,"lng":-40.3846829},{"id":"3460746431","name":"Igreja Adventista em Campo Grande","tags":"amenity:place_of_worship,building:church,denomination:seventh_day_adventist,religion:christian","lat":-20.338877,"lng":-40.3821543},{"id":"3460746433","name":"Instituto de Educação Superior do Espírito Santo","tags":"IJSN:administra:Privada,IJSN:classeCnae:Superior,addr:city:Cariacica,addr:housenumber:11,addr:place:Campo Grande,addr:postcode:29146-460,addr:street:Rua Engenheiro José Himério,amenity:university,contact:phone:+55 27 3213-0787;+55 27 3286-0906,short_name:IESES","lat":-20.3422125,"lng":-40.3830165},{"id":"3487866719","tags":"shop:pet","lat":-20.345547,"lng":-40.3488239},{"id":"3487866721","tags":"shop:pet","lat":-20.3457261,"lng":-40.3485698},{"id":"3743499935","name":"Delegacia Especial de Polícia Marítima","tags":"addr:city:Vitória,addr:housenumber:556,addr:place:Centro,addr:postcode:29020-030,addr:street:Avenida Getúlio Vargas,amenity:police,contact:phone:(27) 3223-1435 / 3223-1691,short_name:DEPOM","lat":-20.3218559,"lng":-40.3432519},{"id":"3743499981","name":"Delegacia de Crimes Contra a Vida - Cariacica","tags":"addr:city:Cariacica,addr:housenumber:Km 0,addr:place:Jardim América,addr:postcode:29140-261,addr:street:Rodovia 262 - lado impar,amenity:police,contact:phone:+55 27 3382-5992,short_name:DCCV","lat":-20.3306985,"lng":-40.3562493},{"id":"3743499988","name":"Delegacia de Defesa da Mulher - Cariacica","tags":"addr:city:Cariacica,addr:housenumber:220,addr:place:Campo Grande,addr:postcode:29146-200,addr:street:Avenida Expedito Garcia,amenity:police,contact:phone:(27) 3136-3118,short_name:DDM","lat":-20.338857,"lng":-40.3813763},{"id":"3743500008","name":"Delegacia de Proteção ao Meio Ambiente e Patrimônio","tags":"addr:city:Cariacica,addr:housenumber:Km 0,addr:place:Jardim América,addr:postcode:29140-261,addr:street:Rodovia 262 - lado impar,amenity:police,contact:phone:+55 27 3236-8136,short_name:DPMAP","lat":-20.3307498,"lng":-40.3562265},{"id":"3853315242","name":"Supermercado Carone","tags":"addr:city:Cariacica,addr:housenumber:1500,addr:postcode:29146-200,addr:street:Avenida Expedito Garcia,addr:suburb:Campo Grande,opening_hours:Mo-Sa 08:00-21:00,phone:+55 27 3216-3582;+55 27 3313-2705,shop:supermarket,website:https://www.carone.com.br/,wheelchair:yes","lat":-20.3396417,"lng":-40.3821398},{"id":"3853331530","name":"Lanchonete e Restaurante Schwanz","tags":"addr:city:Cariacica,addr:postcode:29146-201,addr:street:Avenida Expedito Garcia,addr:suburb:Campo Grande,amenity:restaurant,phone:+55 27 3226-4908","lat":-20.3420565,"lng":-40.3838049},{"id":"4391553292","tags":"addr:street:Rua Humaitá,amenity:school","lat":-20.3304431,"lng":-40.3622112},{"id":"4810808779","name":"Polícia Civil","tags":"amenity:police","lat":-20.338047,"lng":-40.3805746},{"id":"4860317885","tags":"amenity:atm,operator:Banco 24","lat":-20.3212795,"lng":-40.3516687},{"id":"5462149866","name":"Restaurante do Alex","tags":"amenity:restaurant","lat":-20.3426077,"lng":-40.354898},{"id":"5620864445","name":"Extrabom","tags":"shop:supermarket","lat":-20.3363304,"lng":-40.3618503},{"id":"5620868740","name":"Supermercado Porto Novo","tags":"addr:city:Cariacica,addr:street:Rua Principal,addr:suburb:Porto de Santana,payment:cash:yes,payment:credit_cards:yes,payment:debit_cards:yes,payment:visa:yes,shop:supermarket","lat":-20.3095785,"lng":-40.3694467},{"id":"5620868742","tags":"shop:supermarket","lat":-20.306266,"lng":-40.3681001},{"id":"6128177338","name":"Livraria Novo Tempo","tags":"shop:books","lat":-20.3390401,"lng":-40.381902},{"id":"6227151986","name":"Praça de Oriente","tags":"leisure:park","lat":-20.3285116,"lng":-40.3806237},{"id":"6418719587","tags":"amenity:police","lat":-20.3208351,"lng":-40.3520687},{"id":"6757471071","name":"Galeria 23","tags":"shop:mall","lat":-20.3212454,"lng":-40.3428334},{"id":"7015790485","name":"Castelo de LAOS","tags":"addr:housenumber:50,addr:postcode:29025360,addr:street:Rua Benedito Silva,phone:(27) 99863-5353,tourism:attraction","lat":-20.318609,"lng":-40.3506955},{"id":"7283032109","name":"Pronto Atendimento SAMP 24hs","tags":"addr:city:Cariacica,addr:street:Avenida Edgar Gonçalves,addr:suburb:Campo Grande,amenity:hospital,healthcare:hospital,healthcare:speciality:general","lat":-20.340043,"lng":-40.3818003},{"id":"7283039073","name":"Degusta Bar","tags":"addr:city:Cariacica,addr:street:Avenida Edgar Gonçalves,addr:suburb:Alto Dona Augusta,amenity:bar,min_age:18","lat":-20.3410796,"lng":-40.3788585},{"id":"7762592248","tags":"shop:supermarket","lat":-20.3442268,"lng":-40.3840015},{"id":"8830648534","name":"Cariacica","tags":"tourism:attraction","lat":-20.3319369,"lng":-40.3548572},{"id":"9813504886","name":"Parada rodoviária de Itacibá","tags":"amenity:bus_station,bus:yes,operator:CETURB-ES,public_transport:station","lat":-20.3252688,"lng":-40.3717826}]