[{"id":"1071045036","tags":"addr:city:Serra,addr:country:BR,addr:state:ES,addr:street:Avenida Brasília,amenity:bank,brand:Banco Banestes","lat":-20.1525566,"lng":-40.2515354},{"id":"1071054772","name":"Praça dos Girassóis","tags":"tourism:attraction","lat":-20.1532716,"lng":-40.2513962},{"id":"3270125284","tags":"shop:supermarket","lat":-20.1404271,"lng":-40.2474419},{"id":"3420342794","name":"Bonna Pizza","tags":"addr:city:Serra,addr:country:BR,addr:state:ES,addr:street:Avenida Brasília,amenity:restaurant,cuisine:pizza","lat":-20.1495458,"lng":-40.2466414},{"id":"3420349681","name":"Supermercado Epa","tags":"addr:city:Serra,addr:country:BR,addr:state:ES,addr:street:Avenida Brasília,shop:supermarket","lat":-20.1500756,"lng":-40.2480099},{"id":"3420352448","name":"Padaria Doçura","tags":"amenity:cafe,cuisine:regional","lat":-20.1493758,"lng":-40.2469673},{"id":"3420352453","tags":"amenity:bank,atm:yes,brand:Banco do Brasil","lat":-20.1491658,"lng":-40.2466595},{"id":"3429193667","name":"CE Infanto Juvenil","tags":"IJSN:administra:Privada,IJSN:classeCnae:Infantil e Fundamental,addr:city:Serra,addr:country:BR,addr:housenumber:3,addr:place:Serra Dourada III,addr:postcode:29171-680,addr:state:ES,addr:street:Rua Cardeal,alt_name:Centro Educacional,amenity:school,contact:phone:+55 27 3282-3406","lat":-20.1334351,"lng":-40.2527356},{"id":"3429193670","name":"CE Pierre Proudhon","tags":"IJSN:administra:Privada,IJSN:classeCnae:Infantil e Fundamental,addr:city:Serra,addr:country:BR,addr:housenumber:5,addr:place:Serra Dourada III,addr:postcode:29171-551,addr:state:ES,addr:street:Rua Siriri,alt_name:Centro Educacional,amenity:school,contact:phone:+55 27 3341-1640;+55 27 3341-1640","lat":-20.1386571,"lng":-40.2515787},{"id":"3429193678","name":"EMEF Professora Naly da Encarnação Miranda","tags":"IJSN:administra:Municipal,IJSN:classeCnae:Fundamental,addr:city:Serra,addr:country:BR,addr:place:Portal de Jacaraípe,addr:postcode:29172-038,addr:state:ES,addr:street:Avenida Talma Rodrigues Ribeiro,alt_name:Escola Municipal de Ensino Fundamental,amenity:school,contact:phone:+55 27 3243-3227;+55 27 3243-1167","lat":-20.1703836,"lng":-40.210538},{"id":"3598775603","tags":"shop:pet","lat":-20.1398035,"lng":-40.2445042},{"id":"3610631865","tags":"amenity:pharmacy","lat":-20.1398698,"lng":-40.2487667},{"id":"3610631866","tags":"amenity:pharmacy","lat":-20.1405296,"lng":-40.247962}]