[{"id":"3058717240","tags":"leisure:sports_centre,sport:multi","lat":-19.7376999,"lng":-40.6616448},{"id":"3058717246","tags":"amenity:school","lat":-19.7381857,"lng":-40.6618949},{"id":"3058718942","name":"EEEFM David Roldi","tags":"IJSN:administra:Estadual,IJSN:classeCnae:Fundamental e Médio,addr:city:São Roque do Canaã,addr:housenumber:80,addr:postcode:29665-000,addr:street:Rodovia ES - 080 - Km 30,addr:suburb:Vila Verde,alt_name:Escola Estadual de Ensino Fundamental e Médio,amenity:school,contact:phone:+55 27 3729-1325;+55 27 3729-1030","lat":-19.751881,"lng":-40.6574207},{"id":"4024904394","name":"CE Mão Amiga","tags":"IJSN:administra:Privada,IJSN:classeCnae:Fundamental,addr:city:São Roque do Canaã,addr:housenumber:866,addr:postcode:29665-000,addr:street:Rodovia Armando Martinelli,addr:suburb:Cinco Casinhas,alt_name:Centro Educacional,amenity:school,contact:phone:(27) 3729-1767","lat":-19.7364312,"lng":-40.6531166},{"id":"9474040522","name":"Sicoob","tags":"addr:city:São Roque do Canaã,addr:housenumber:22,addr:postcode:29665-000,addr:street:Rua José Regatieri,addr:suburb:Centro,amenity:bank,atm:yes,brand:Sicoob,brand:wikidata:Q28679754,brand:wikipedia:pt:Sistema de Cooperativas de Crédito do Brasil,operator:Cooperativa de Crédito Centro-Serrana do Espírito Santo,phone:+55 27 3729 1453","lat":-19.7391336,"lng":-40.6581136},{"id":"9474040523","name":"Banco do Brasil","tags":"addr:city:São Roque do Canaã,addr:housenumber:137,addr:postcode:29665-000,addr:street:Rua Atílio Dalla Bernardina,addr:suburb:Centro,amenity:bank,atm:yes,brand:Banco do Brasil,brand:wikidata:Q610817,brand:wikipedia:en:Banco do Brasil,operator:Banco do Brasil Sociedade Anônima","lat":-19.7399008,"lng":-40.6580669},{"id":"9474040524","name":"Terminal Rodoviário de São Roque do Canaã","tags":"addr:city:São Roque do Canaã,addr:postcode:29665-000,addr:street:Rua Atílio Dalla Bernardina,addr:suburb:Centro,amenity:bus_station,bus:yes,public_transport:station","lat":-19.7403905,"lng":-40.6578847},{"id":"9474040525","name":"Banestes","tags":"addr:city:São Roque do Canaã,addr:housenumber:75,addr:postcode:29665-000,addr:street:Rua Lourenço Roldi,addr:suburb:Centro,amenity:bank,atm:yes,operator:Banco do Estado do Espírito Santo","lat":-19.7384141,"lng":-40.6595435}]