[{"id":"282888653","tags":"tourism:attraction","lat":-19.8198375,"lng":-40.3819364},{"id":"288046805","name":"Ibiraçu Esporte Clube","tags":"leisure:sports_centre","lat":-19.8401801,"lng":-40.3629443},{"id":"288047289","tags":"amenity:bank,brand:Banestes","lat":-19.8305109,"lng":-40.3683477},{"id":"336116159","name":"EMEIEF Maria Lucas Gomes","tags":"IJSN:administra:Municipal,IJSN:classeCnae:Infantil e Fundamental,addr:city:Ibiraçu,addr:postcode:29670-000,addr:street:Rua Arlindo Vicente,addr:suburb:Aricanga,alt_name:Escola Municipal de Ensino Infantil e Fundamental,amenity:school,contact:phone:+55 27 3257-2291","lat":-19.8274599,"lng":-40.3615086},{"id":"351165747","name":"Associação Pestalozi de Ibiraçu","tags":"amenity:school","lat":-19.8203788,"lng":-40.3705981},{"id":"351166402","name":"EMEIEF Professora Elzita Barbarioli","tags":"IJSN:administra:Municipal,IJSN:classeCnae:Infantil e Fundamental,addr:city:Ibiraçu,addr:postcode:29670-000,addr:street:Rua Mário Antônio Modenesi,addr:suburb:São Cristóvão,alt_name:Escola Municipal de Ensino Infantil e Fundamental,amenity:school,contact:phone:+55 27 3257-1687","lat":-19.8204749,"lng":-40.3708056},{"id":"351699739","name":"Drogaria Nossa Senhora da Saúde","tags":"amenity:pharmacy","lat":-19.8306026,"lng":-40.3677258},{"id":"402620034","name":"Cachinhos de Ouro","tags":"amenity:school","lat":-19.8237814,"lng":-40.3625971},{"id":"2272835703","tags":"amenity:library","lat":-19.8309295,"lng":-40.3682151},{"id":"2299877212","name":"CNI Informática","tags":"amenity:school","lat":-19.8299935,"lng":-40.3683435},{"id":"3743499945","name":"Delegacia da Polícia Civil de Ibiraçu","tags":"addr:city:Ibiraçu,addr:place:Centro,addr:postcode:29670-000,addr:street:Praça Aristides Aristide Guaraná,amenity:police,contact:phone:(27) 3257-1128,short_name:DPC","lat":-19.8303644,"lng":-40.368367}]