[{"id":"1337183269","name":"Quatro Estaçoes Grill","tags":"addr:city:Sete Lagoas,addr:housenumber:184,addr:street:Avenida Coronelo Altino França,amenity:restaurant,cuisine:regional","lat":-19.4602079,"lng":-44.2446892},{"id":"1370189579","name":"Restaurante Popular","tags":"amenity:restaurant","lat":-19.4622879,"lng":-44.2393522},{"id":"2757556735","name":"Bar São Benedito","tags":"amenity:bar","lat":-19.4437765,"lng":-44.2445875},{"id":"2757557163","name":"Bar do Jacaré","tags":"amenity:bar","lat":-19.4436159,"lng":-44.244558},{"id":"2757559508","name":"Shop Dog & Cia","tags":"shop:pet","lat":-19.4432757,"lng":-44.2445044},{"id":"2758436414","name":"Banco Itaú","tags":"amenity:bank,atm:yes","lat":-19.459946,"lng":-44.244193},{"id":"2789560906","name":"Skina II","tags":"amenity:bar","lat":-19.4574369,"lng":-44.2381185},{"id":"2789560907","name":"Lagoa Espetos","tags":"amenity:restaurant","lat":-19.4545631,"lng":-44.2460048},{"id":"2789601802","name":"Praça Alexandre Lanza","tags":"leisure:park","lat":-19.4650596,"lng":-44.2483175},{"id":"2789614394","name":"Pexim","tags":"addr:city:Sete Lagoas,addr:housenumber:206,addr:street:Praça Clarindo Cassimiro Silva,amenity:bar","lat":-19.4452991,"lng":-44.2518091},{"id":"2789615424","name":"Igreja Presbiteriana de Sete Lagoas","tags":"building:church","lat":-19.4575831,"lng":-44.2451934},{"id":"2789619549","name":"Epa Supermercado","tags":"shop:supermarket","lat":-19.4622566,"lng":-44.2439904},{"id":"2789619956","name":"Banco Itaú","tags":"amenity:bank","lat":-19.4631746,"lng":-44.2436618},{"id":"2789621461","name":"Escola Estadual Professor Maurilo de Jesus Peixoto","tags":"amenity:school,loc_name:Colégio Estadual,operator:Secretaria de Estado de Educação de Minas Gerais","lat":-19.4626537,"lng":-44.243399},{"id":"2789621971","name":"Drogaria FarMelhor","tags":"addr:housenumber:5,addr:street:Praça Francisco Sales,amenity:pharmacy","lat":-19.4619317,"lng":-44.2440387},{"id":"2789627948","name":"Praça Xavier Larena","tags":"leisure:park","lat":-19.4560373,"lng":-44.2441865},{"id":"2789629868","name":"Museu Ferroviário","tags":"tourism:museum","lat":-19.4589162,"lng":-44.2419728},{"id":"2789630310","name":"Museu Histórico Municipal","tags":"tourism:museum","lat":-19.4673568,"lng":-44.2471731},{"id":"2789639769","name":"Drogaria Araújo","tags":"amenity:pharmacy","lat":-19.4651759,"lng":-44.2480566},{"id":"2789666750","name":"Supermercado Santa Helena Plus","tags":"shop:supermarket","lat":-19.457841,"lng":-44.2432421},{"id":"2789677277","name":"Escola Estadual Doutor Ulisses Vasconcelos","tags":"amenity:school,operator:Secretaria de Estado de Educação de Minas Gerais","lat":-19.4631714,"lng":-44.2459799},{"id":"2789677278","name":"Escola Estadual Doutor Arthur Bernardes","tags":"amenity:school,operator:Secretaria de Estado de Educação de Minas Gerais","lat":-19.4622028,"lng":-44.2459424},{"id":"2789677893","name":"Colégio Dom Silvério","tags":"amenity:school","lat":-19.4627554,"lng":-44.2462803},{"id":"2797543506","name":"Banco do Brasil","tags":"amenity:bank","lat":-19.4622566,"lng":-44.2445058},{"id":"2797563200","name":"Hospital Nossa Senhora das Graças","tags":"amenity:hospital","lat":-19.4653673,"lng":-44.2396985},{"id":"2797582769","name":"Sacolão Popular","tags":"shop:supermarket","lat":-19.4629395,"lng":-44.24248},{"id":"2797616611","name":"Supermercado Santo Antônio","tags":"shop:supermarket","lat":-19.4508356,"lng":-44.2456329},{"id":"2797618245","name":"SESC - Serviço Social do Comércio","tags":"leisure:sports_centre","lat":-19.4512933,"lng":-44.2455551},{"id":"2800081175","name":"Escola Estadual Professor João Fernandino Jr.","tags":"amenity:school,loc_name:Colégio Industrial","lat":-19.4496617,"lng":-44.2438312},{"id":"2803900902","name":"Caixa Econômica Federal","tags":"amenity:bank","lat":-19.4616831,"lng":-44.2435577},{"id":"2803900903","name":"Banco Itaú","tags":"amenity:bank","lat":-19.4613455,"lng":-44.2442162},{"id":"2803900904","name":"Banco Mercantil do Brasil","tags":"amenity:bank","lat":-19.4614466,"lng":-44.244227},{"id":"2803900906","name":"Santander","tags":"amenity:bank","lat":-19.4632814,"lng":-44.2439011},{"id":"2803900907","name":"Banco Bradesco","tags":"amenity:bank","lat":-19.4634142,"lng":-44.2438059},{"id":"2803900908","name":"Sacolão Abastecer","tags":"shop:supermarket","lat":-19.4631385,"lng":-44.2440459},{"id":"2806205407","name":"Quiosque Polícia Militar","tags":"amenity:police","lat":-19.4649306,"lng":-44.2483685},{"id":"2806205410","name":"Caixa Econômica Federal","tags":"amenity:bank","lat":-19.4647909,"lng":-44.2495333},{"id":"2830455757","name":"SICOOB - Credisete","tags":"addr:city:Sete Lagoas,addr:housenumber:94 LJ 1,addr:street:Praça Alexandre Lanza,amenity:bank","lat":-19.4650746,"lng":-44.2485334},{"id":"2830455758","name":"SICOOB - Credisete","tags":"addr:city:Sete Lagoas,addr:housenumber:170,addr:street:Praça Barão do Rio Branco,amenity:bank,atm:yes","lat":-19.4642881,"lng":-44.2450854},{"id":"2863175187","name":"Cantina Bom Sabor","tags":"addr:city:Sete Lagoas,addr:housenumber:187,addr:street:Rua Quintino Bocaiúva,amenity:restaurant","lat":-19.4616448,"lng":-44.249723},{"id":"2863175188","name":"Grelhados e Assados","tags":"amenity:restaurant","lat":-19.4609038,"lng":-44.2425575},{"id":"2863175189","name":"Fiorenza Pizzaria","tags":"amenity:restaurant","lat":-19.4593581,"lng":-44.2476893},{"id":"2863175190","name":"Restaurante Fogão de Minas","tags":"addr:city:Sete Lagoas,addr:housenumber:324,addr:street:Rua Doutor Pedro Luiz,amenity:restaurant","lat":-19.4589976,"lng":-44.2439562},{"id":"2863175191","name":"Restaurante Lago Palace","tags":"addr:city:Sete Lagoas,addr:housenumber:273,addr:street:Praça Dom Carlos Carmelo Mota,amenity:restaurant","lat":-19.4573803,"lng":-44.2454489},{"id":"2863229626","name":"Hospital Unimed","tags":"amenity:hospital","lat":-19.4609101,"lng":-44.2432948},{"id":"2863235100","name":"Banco Bradesco","tags":"amenity:bank","lat":-19.4538339,"lng":-44.2452039},{"id":"2866669787","name":"Santander","tags":"addr:city:Sete Lagoas,addr:housenumber:229,addr:street:Avenida Getúlio Vargas,amenity:bank","lat":-19.4610443,"lng":-44.2471662},{"id":"2866669788","name":"Restaurante Paiol Mineiro","tags":"addr:city:Sete Lagoas,addr:housenumber:152,addr:street:Rua Paulo Frontin,amenity:restaurant","lat":-19.4632249,"lng":-44.2482204},{"id":"2866700128","name":"Restaurante Vila Bistrô","tags":"addr:city:Sete Lagoas,addr:housenumber:799,addr:street:Rua Paulo Frontin,amenity:restaurant","lat":-19.4574841,"lng":-44.2481627},{"id":"2866700129","name":"Restaurante Villa Gerais","tags":"addr:city:Sete Lagoas,addr:housenumber:145,addr:street:Rua Lassance Cunha,amenity:restaurant","lat":-19.4597059,"lng":-44.2434326},{"id":"2866700130","name":"Restaurante Vida Saudável","tags":"addr:city:Sete Lagoas,addr:housenumber:41,addr:street:Rua Coronel Emílio Vasconcelos,amenity:restaurant","lat":-19.4665024,"lng":-44.2488909},{"id":"2866700131","name":"Grillu's Restaurante","tags":"addr:city:Sete Lagoas,addr:housenumber:555,addr:street:Avenida Getúlio Vargas,amenity:restaurant","lat":-19.4581316,"lng":-44.2475793},{"id":"2866712697","name":"Restaurante Milano","tags":"addr:city:Sete Lagoas,addr:housenumber:301,addr:street:Avenida Getúlio Vargas,amenity:restaurant","lat":-19.4603697,"lng":-44.24735},{"id":"2873390008","name":"Galeto do Ceará","tags":"addr:housenumber:185,addr:street:Avenida Raquel Teixeira Viana,amenity:restaurant","lat":-19.4641914,"lng":-44.2516064},{"id":"2873390009","name":"Ponto do Espetinho","tags":"addr:housenumber:660,addr:street:Rua Paulo Frontin,amenity:restaurant","lat":-19.4586391,"lng":-44.2480404},{"id":"2873390010","name":"A Francesinha Pizzaria","tags":"addr:housenumber:899,addr:street:Rua Paulo Frontin,amenity:restaurant,cuisine:pizza","lat":-19.4566437,"lng":-44.2480484},{"id":"2885895856","name":"Nosso Bar","tags":"addr:city:Sete Lagoas,addr:housenumber:131,addr:street:Rua José Duarte de Paiva,amenity:restaurant","lat":-19.4565139,"lng":-44.2482835},{"id":"2885895857","name":"Kirina's Bar","tags":"addr:city:Sete Lagoas,addr:housenumber:535,addr:street:Rua Goiás,amenity:restaurant","lat":-19.4591871,"lng":-44.2391237},{"id":"2887869329","name":"Caminho das Índias","tags":"addr:city:Sete Lagoas,addr:housenumber:427,addr:street:Rua Nestor Fóscolo,amenity:restaurant","lat":-19.4580704,"lng":-44.2515925},{"id":"2890077376","name":"Duetto","tags":"addr:housenumber:220,addr:street:Rua Pirapora,amenity:restaurant","lat":-19.4475556,"lng":-44.231747},{"id":"2894388102","name":"Drogaria Fonseca","tags":"amenity:pharmacy","lat":-19.4643271,"lng":-44.2477409},{"id":"2894388103","name":"Farmácia Pague Menos","tags":"amenity:pharmacy","lat":-19.4644144,"lng":-44.2475424},{"id":"2894388104","name":"Farmácia do Trabalhador do Brasil","tags":"amenity:pharmacy","lat":-19.464147,"lng":-44.2470503},{"id":"2894388105","name":"Drogaria Sul Americana","tags":"amenity:pharmacy","lat":-19.4600304,"lng":-44.2435949},{"id":"2894388106","name":"Drogaria dos Descontos","tags":"addr:housenumber:243,addr:street:Rua Lassance Cunha,amenity:pharmacy","lat":-19.4593211,"lng":-44.2426327},{"id":"2894388107","name":"Drogaria dos Descontos","tags":"addr:housenumber:1104,addr:street:Avenida Antônio Olinto,amenity:pharmacy","lat":-19.4546689,"lng":-44.2445558},{"id":"2894416759","name":"Drogaria Santa Mônica","tags":"addr:housenumber:330,addr:street:Rua Teófilo Otoni,amenity:pharmacy","lat":-19.464481,"lng":-44.2403327},{"id":"2894416760","name":"Drogaria Araújo","tags":"amenity:pharmacy","lat":-19.4644329,"lng":-44.2406183},{"id":"2894416761","name":"Drogaria Lagocenter","tags":"addr:housenumber:331,addr:street:Rua Teófilo Otoni,amenity:pharmacy","lat":-19.46462,"lng":-44.2404587},{"id":"2894416762","name":"Set Fórmulas Farmácia de Manipulação","tags":"addr:housenumber:112,addr:street:Praça Vó Fina,amenity:pharmacy","lat":-19.4638336,"lng":-44.2410998},{"id":"2900132269","name":"Droga Rede","tags":"addr:housenumber:1227,addr:street:Avenida Professor Abeylard,amenity:pharmacy","lat":-19.4458215,"lng":-44.2449826},{"id":"2900132270","name":"Droga Mais","tags":"amenity:pharmacy","lat":-19.4474807,"lng":-44.2450939},{"id":"2900132271","name":"Drogaria do Ponto","tags":"addr:housenumber:279,addr:street:Rua Professor Fernandino Júnior,amenity:pharmacy","lat":-19.4629648,"lng":-44.2431104},{"id":"2900132491","name":"Drogaria Ultra Popular","tags":"addr:street:Rua Monsenhor Messias,amenity:pharmacy","lat":-19.4634415,"lng":-44.2466617},{"id":"2905757969","name":"DrogaReis","tags":"addr:housenumber:70,addr:street:Rua Coronel Américo Teixeira Guimarães,amenity:pharmacy","lat":-19.4664422,"lng":-44.2433398},{"id":"2905757970","name":"Frigideira Restaurante","tags":"addr:city:Sete Lagoas,addr:housenumber:96,addr:street:Praca Martiniano Carvalho,amenity:restaurant","lat":-19.4654091,"lng":-44.2524285},{"id":"2905999949","name":"Aconchego Bar e Restaurante","tags":"addr:city:Sete Lagoas,addr:housenumber:68,addr:street:Rua Sergipe,amenity:restaurant","lat":-19.4581013,"lng":-44.2407235},{"id":"2905999950","name":"Japinha Sushi Bar","tags":"addr:housenumber:625,addr:street:Avenida Vila Lobos,amenity:restaurant","lat":-19.4522048,"lng":-44.2518641},{"id":"2906316336","name":"Iceberg Bar Lounge","tags":"addr:city:Sete Lagoas,addr:housenumber:289,addr:street:Avenida Getúlio Vargas,amenity:restaurant","lat":-19.460517,"lng":-44.247354},{"id":"2906316337","name":"La Itália Cantina","tags":"addr:city:Sete Lagoas,addr:housenumber:248,addr:street:Avenida Coronel Altino França,amenity:restaurant","lat":-19.4597912,"lng":-44.2447174},{"id":"2908365149","name":"UPA - Unidade de Pronto Atendimento","tags":"amenity:hospital","lat":-19.4655493,"lng":-44.2352522},{"id":"2910147122","name":"Drogaria Pacheco","tags":"addr:city:Sete Lagoas,addr:housenumber:26,addr:street:Rua Doutor Avelar,amenity:pharmacy","lat":-19.4618348,"lng":-44.2438359},{"id":"2910179884","name":"Pimenta Rosa","tags":"addr:city:Sete Lagoas,addr:housenumber:431A,addr:street:Avenida Getúlio Vargas,amenity:restaurant","lat":-19.4592434,"lng":-44.2476439},{"id":"2916274178","name":"Colégio Franciscano Regina Pacis","tags":"addr:city:Sete Lagoas,addr:housenumber:34,addr:street:Praça Tiradentes,amenity:school","lat":-19.4665029,"lng":-44.2480239},{"id":"2923797822","name":"Farmácia Bem Viver","tags":"amenity:pharmacy","lat":-19.4625234,"lng":-44.2414207},{"id":"2923797823","name":"Drogaria Aqui Tem Genéricos","tags":"addr:city:Sete Lagoas,addr:housenumber:422,addr:street:Rua Teófilo Otoni,amenity:pharmacy","lat":-19.4638384,"lng":-44.2407059},{"id":"2925016594","name":"Farmagel","tags":"addr:city:Sete Lagoas,addr:housenumber:112,addr:street:Rua Major Campos,amenity:pharmacy","lat":-19.4626461,"lng":-44.2430178},{"id":"2925016595","name":"Drogaria Lacerda","tags":"addr:city:Sete Lagoas,addr:housenumber:907,addr:street:Rua Teófilo Otoni,amenity:pharmacy","lat":-19.4593989,"lng":-44.2431426},{"id":"2927561104","name":"Eufrásio Gourmet","tags":"addr:city:Sete Lagoas,addr:housenumber:145,addr:street:Rua Governador Milton Campos,amenity:restaurant","lat":-19.4619415,"lng":-44.2429854},{"id":"2927561105","name":"BooKafé","tags":"addr:city:Sete Lagoas,addr:housenumber:183,addr:street:Rua Souza Viana,amenity:cafe","lat":-19.464184,"lng":-44.2426508},{"id":"2927561106","name":"Sagrado Grão","tags":"amenity:cafe","lat":-19.462783,"lng":-44.2408336},{"id":"3368546893","name":"Restaurante Sabor","tags":"addr:city:Sete Lagoas,addr:housenumber:33,addr:street:Rua Melo Viana,addr:suburb:Centro,amenity:restaurant","lat":-19.4630174,"lng":-44.245524},{"id":"3368546896","name":"Dijon Restaurante","tags":"addr:city:Sete Lagoas,addr:housenumber:157,addr:street:Rua Doutor Avelar,addr:suburb:Centro,amenity:restaurant","lat":-19.4611889,"lng":-44.242874},{"id":"3368546897","name":"Drogaria Santa Clara","tags":"addr:city:Sete Lagoas,addr:street:Rua Doutor Avelar,addr:suburb:Centro,amenity:pharmacy","lat":-19.4612926,"lng":-44.2427533},{"id":"3372093408","name":"Pizzaria Casa Nossa","tags":"addr:city:Sete Lagoas,addr:housenumber:1079,addr:street:Rua Santa Catarina,addr:suburb:Boa Vista,amenity:restaurant,phone:+55 31 3771-6625","lat":-19.4563127,"lng":-44.2388679},{"id":"3372093410","name":"Pizzaria Na Boca do Forno","tags":"amenity:restaurant,phone:+55 31 3771 0103","lat":-19.4562975,"lng":-44.2507641},{"id":"3372114805","name":"Pizzaria Terraço","tags":"addr:city:Sete Lagoas,addr:housenumber:246,addr:street:Rua João de Paula França,amenity:restaurant,phone:+55 31 3779 2450","lat":-19.4594948,"lng":-44.2504778},{"id":"3372114806","name":"Pizzaria Pizzabella","tags":"addr:city:Sete Lagoas,addr:housenumber:327,addr:street:Rua Piauí,amenity:restaurant,phone:+55 31 3771 2754","lat":-19.4544772,"lng":-44.2398174},{"id":"4023969927","name":"Banco Mercantil do Brasil","tags":"amenity:atm,operator:Banco Mercantil do Brasil","lat":-19.4593578,"lng":-44.2441625},{"id":"4023969928","name":"Fragata Pizzaria","tags":"addr:city:Sete Lagoas,addr:housenumber:296,addr:street:Avenida Coronel Altino França,amenity:restaurant,level:1","lat":-19.4590822,"lng":-44.2445205},{"id":"4586159096","name":"Soul Leve","tags":"addr:housenumber:279,addr:postcode:35700-069,addr:street:Rua Professor Abeylard,amenity:restaurant,cuisine:grill,internet_access:wlan,name:pt:Soul Leve,opening_hours:Mo-Fr","lat":-19.4541698,"lng":-44.2466612},{"id":"6459697498","name":"Terminal Urbano De Transportes","tags":"amenity:bus_station","lat":-19.4602598,"lng":-44.2412889},{"id":"6821250243","name":"Pizzaria Millenium","tags":"addr:city:Sete Lagoas,addr:street:Praça Clarindo Cassimiro Silva,amenity:restaurant,cuisine:pizza","lat":-19.4457097,"lng":-44.2509215},{"id":"6821250244","name":"Speteria","tags":"addr:city:Sete Lagoas,addr:street:Praça Clarindo Cassimiro Silva,amenity:restaurant","lat":-19.4454089,"lng":-44.2518717},{"id":"10578654124","tags":"shop:supermarket","lat":-19.4545023,"lng":-44.2092808},{"id":"10578654126","tags":"shop:supermarket","lat":-19.4527041,"lng":-44.2096724},{"id":"10578654129","tags":"shop:supermarket","lat":-19.4535816,"lng":-44.2093374},{"id":"10578654130","tags":"leisure:park","lat":-19.4531769,"lng":-44.210185}]