[{"id":"4536389732","name":"Lava Rápido","tags":"amenity:car_wash","lat":-19.0403619,"lng":-43.4249513},{"id":"4536389847","name":"Supermercado Mais Você","tags":"shop:supermarket","lat":-19.0386732,"lng":-43.425064},{"id":"4536393302","name":"Supermercado Cidade","tags":"shop:supermarket","lat":-19.0377807,"lng":-43.4249245},{"id":"4536393303","name":"Drogaria Nataly","tags":"amenity:pharmacy,healthcare:pharmacy","lat":-19.0376692,"lng":-43.4250371},{"id":"4569074291","name":"Escola Estadual São Joaquim","tags":"addr:housenumber:250,addr:street:Rua Daniel Carvalho,amenity:school,email:escola.23451@educacao.mg.gov.br,name:pt:Escola Estadual São Joaquim","lat":-19.0347643,"lng":-43.4254777},{"id":"4794227016","name":"Hospital Imaculada Conceição","tags":"amenity:hospital,healthcare:hospital","lat":-19.0319555,"lng":-43.4264209},{"id":"4879558340","name":"Coleguium","tags":"addr:city:Conceição do Mato Dentro,addr:street:Alto Boa Vista,amenity:school","lat":-19.0442092,"lng":-43.4239961},{"id":"8665849342","name":"Poço das Ninfas","tags":"tourism:attraction","lat":-19.0360453,"lng":-43.4509521}]