[{"id":"2668980701","name":"Delegacias","tags":"amenity:police","lat":-19.510187,"lng":-42.6119615},{"id":"2973100769","name":"Escola Estadual Rotildino Avelino","tags":"amenity:school,operator:Secretaria de Estado de Educação de Minas Gerais","lat":-19.4905086,"lng":-42.6262728},{"id":"2973100771","name":"Escola Municipal José Batista de Mendonça","tags":"amenity:school","lat":-19.4904306,"lng":-42.6232676},{"id":"2973100773","name":"Escola Municipal Maria das Graças Ferreira","tags":"amenity:school","lat":-19.4818878,"lng":-42.6206627},{"id":"2973100774","name":"Escola Municipal Núcleo Ivano Bessa - Curumin","tags":"amenity:school","lat":-19.4849164,"lng":-42.6258195},{"id":"2973100776","name":"Escola Municipal Paulo Franklin","tags":"amenity:school","lat":-19.4896145,"lng":-42.6214256},{"id":"2973100792","name":"Valadares Supermercados","tags":"addr:street:Avenida Brasil,name:en:Valadares Supermercados,name:pt:Valadares Supermercados,shop:supermarket","lat":-19.4890087,"lng":-42.6236275},{"id":"2973100795","name":"Unidade Básica de Saúde - Santa Cruz","tags":"amenity:hospital,healthcare:hospital","lat":-19.4887886,"lng":-42.6219101},{"id":"2974820822","name":"Escola Estadual Zacarias Roque","tags":"amenity:school","lat":-19.5081922,"lng":-42.6246703},{"id":"2974839520","name":"Escola Estadual Joaquim Gomes","tags":"amenity:school,operator:Secretaria de Estado de Educação de Minas Gerais","lat":-19.5059986,"lng":-42.596139},{"id":"2974839521","name":"Escola Municipal Don Lelis Lara","tags":"amenity:school","lat":-19.5078888,"lng":-42.6027862},{"id":"2974839522","name":"Escola Municipal Raimunda Coura de Barcelos","tags":"amenity:school","lat":-19.5027094,"lng":-42.6008927},{"id":"3057898348","name":"CMEI","tags":"amenity:school","lat":-19.4948702,"lng":-42.6253508},{"id":"4810093122","name":"Valadares supermercados. SP2","tags":"addr:street:Rua 16,name:pt:Valadares supermercados. SP2,opening_hours:Mo-Su 08:00-20:00,shop:supermarket","lat":-19.4954088,"lng":-42.6175891},{"id":"7172190299","tags":"beauty:nails,shop:beauty","lat":-19.4930164,"lng":-42.6184152},{"id":"7731975915","name":"UPA","tags":"amenity:hospital,healthcare:hospital","lat":-19.4998722,"lng":-42.615667},{"id":"9214394386","name":"Rancho do Leo da Rose","tags":"amenity:restaurant","lat":-19.5069233,"lng":-42.6182545}]