[{"id":"3743499956","name":"Delegacia da Polícia Civil de Marilândia","tags":"addr:city:Marilândia,addr:housenumber:210,addr:place:Centro,addr:postcode:29725-000,addr:street:Rua Giocondo Caliman,amenity:police,contact:phone:(27) 3724-1262,short_name:DPC","lat":-19.4124056,"lng":-40.5420574},{"id":"4024905606","name":"EMEF Maria Izabel Falcheto","tags":"IJSN:administra:Municipal,IJSN:classeCnae:Fundamental,addr:city:Marilândia,addr:housenumber:151,addr:postcode:29725-000,addr:street:Rua Conego João Guilherme,addr:suburb:Centro,alt_name:Escola Municipal de Ensino Fundamental,amenity:school,contact:phone:(27) 3724-1996","lat":-19.4142127,"lng":-40.544696},{"id":"4024906386","name":"EMUEF Santo Hilário","tags":"IJSN:administra:Municipal,IJSN:classeCnae:Fundamental,addr:city:Marilândia,addr:postcode:29725-000,addr:suburb:Comunidade Santo Hilário,alt_name:Escola Municipal Unidocente de Ensino Fundamental,amenity:school","lat":-19.3807968,"lng":-40.5547209},{"id":"9420248504","name":"Sicoob","tags":"addr:city:Marilândia,addr:housenumber:34,addr:postcode:29725-000,addr:street:Rua São Tarcisio,addr:suburb:Centro,amenity:bank,atm:yes,brand:Sicoob,brand:wikidata:Q28679754,brand:wikipedia:pt:Sistema de Cooperativas de Crédito do Brasil,operator:Cooperativa de Crédito Leste Capixaba","lat":-19.4129295,"lng":-40.5435972},{"id":"9420248505","name":"Banestes","tags":"addr:city:Marilândia,addr:housenumber:421,addr:postcode:29725-000,addr:street:Avenida Dom Bosco,addr:suburb:Centro,amenity:bank,atm:yes,operator:Banco do Estado do Espírito Santo Sociedade Anônima","lat":-19.4135451,"lng":-40.54402},{"id":"9420248506","name":"Banco do Brasil","tags":"addr:city:Marilândia,addr:housenumber:357,addr:postcode:29725-000,addr:street:Avenida Dom Bosco,addr:suburb:Centro,amenity:bank,atm:yes,brand:Banco do Brasil,brand:wikidata:Q610817,brand:wikipedia:en:Banco do Brasil,operator:Banco do Brasil Sociedade Anônimo","lat":-19.4141197,"lng":-40.544068},{"id":"9420248507","name":"Cresol","tags":"addr:city:Marilândia,addr:housenumber:691,addr:postcode:29725-000,addr:street:Avenida Dom Bosco,addr:suburb:Centro,amenity:bank,atm:yes,operator:Cooperativa de Crédito Solidário do Espírito Santo","lat":-19.4109586,"lng":-40.5438167}]