[{"id":"3491299278","name":"Hospital e Maternidade Alfredo Pinto Santana","tags":"IJSN:tipoUnidad:Hospital Geral,addr:city:Rio Bananal,addr:housenumber:500,addr:place:São Sebastião,addr:postcode:29920-000,addr:street:Rua João Cipriano,amenity:hospital,contact:phone:(27) 3265-1101,healthcare:hospital","lat":-19.2728742,"lng":-40.3229178},{"id":"3743499966","name":"Delegacia da Polícia Civil de Rio Bananal","tags":"addr:city:Rio Bananal,addr:place:São Sebastião,addr:postcode:29920-000,addr:street:Avenida Quatorze de Setembro,amenity:police,contact:phone:(27) 3265-1332,short_name:DPC","lat":-19.2689915,"lng":-40.3297787},{"id":"4024904485","name":"EEEFM Bananal","tags":"IJSN:administra:Estadual,IJSN:classeCnae:Fundamental e Médio,addr:city:Rio Bananal,addr:housenumber:50,addr:postcode:29920-000,addr:street:Rua Padre Alessandro Ferloni,addr:suburb:Santo Antônio,alt_name:Escola Estadual de Ensino Fundamental e Médio,amenity:school,contact:phone:(27) 3265-1921","lat":-19.2719783,"lng":-40.3283559},{"id":"4024905070","name":"EFA de Rio Bananal","tags":"IJSN:administra:Privada,IJSN:classeCnae:Fundamental,addr:city:Rio Bananal,addr:postcode:29920-000,addr:suburb:Comunidade São Geraldo,alt_name:Escola Família Agrícola,amenity:school,contact:phone:(27) 3265-2222","lat":-19.2595342,"lng":-40.3031824},{"id":"4024905628","name":"EMEF Novo Saber","tags":"IJSN:administra:Municipal,IJSN:classeCnae:Fundamental,addr:city:Rio Bananal,addr:housenumber:132,addr:postcode:29920-000,addr:street:Praça João Casagrande,addr:suburb:São Sebastião,alt_name:Escola Municipal de Ensino Fundamental,amenity:school,contact:phone:(27) 3265-1973","lat":-19.2724556,"lng":-40.3283711}]