[{"id":"3726948433","name":"Cooperativa Educacional de Linhares","tags":"addr:city:Linhares,addr:place:Três Barras,addr:postcode:2990-7210,addr:street:Rua Luiz Poltronieri,alt_name:Cooperativa Educacional,amenity:school,classeCnae:Infantil, Fundamental e Médio,contact:phone:(27) 3264-2669","lat":-19.3741816,"lng":-40.0741388},{"id":"3726948438","name":"EEEF Professora Regina Banhos Paixão","tags":"addr:city:Linhares,addr:country:BR,addr:housenumber:240,addr:place:Centro,addr:postcode:29905-360,addr:state:ES,addr:street:Rua Dinorah Almeida Rodrigues,alt_name:Escola Estadual de Ensino Fundamental,amenity:school,classeCnae:Fundamental,contact:phone:(27) 3373-1563 / 3373-2122 / 3373-1563","lat":-19.3599166,"lng":-40.0523726},{"id":"3726948485","name":"EMEF Talma Drumond Pestana","tags":"addr:city:Linhares,addr:country:BR,addr:housenumber:527,addr:place:Palmital,addr:postcode:29916-000,addr:state:ES,addr:street:Avenida Manoel Bandeira,alt_name:Escola Municipal de Ensino Fundamental,amenity:school,classeCnae:Fundamental,contact:phone:(27) 3373-6599 / 3373-1398","lat":-19.3723297,"lng":-40.0585761},{"id":"3726948486","name":"EMEF Zeferino Batista Fiorot","tags":"addr:city:Linhares,addr:country:BR,addr:place:Santa Cruz,addr:postcode:29908-030,addr:state:ES,addr:street:Avenida Ademar Luiz Pianna,alt_name:Escola Municipal de Ensino Fundamental,amenity:school,classeCnae:Fundamental,contact:phone:(27) 3372-5200","lat":-19.3364773,"lng":-40.0648917},{"id":"5305311742","name":"Praça de São José","tags":"addr:city:Linhares,addr:postcode:29902-110,addr:street:Avenida Ver. Wilmo Vitorino Guizani,addr:suburb:São José,leisure:park","lat":-19.3688772,"lng":-40.050688},{"id":"5305311748","name":"Supermercados Todo Dia","tags":"addr:city:Linhares,addr:postcode:29905-110,addr:street:Rua Crescencio Firmino dos Santos,addr:suburb:São José,shop:supermarket","lat":-19.3667614,"lng":-40.0515652},{"id":"5305311749","name":"300 Graus Pizzaria","tags":"addr:city:Linhares,addr:postcode:29905-110,addr:street:Avenida João Bonicenha,addr:suburb:São José,amenity:restaurant,cuisine:italian,delivery:yes,outdoor_seating:yes,takeaway:yes","lat":-19.3669714,"lng":-40.0516322},{"id":"5305311755","name":"Farmacias São José","tags":"addr:city:Linhares,addr:postcode:29905-110,addr:street:Rua Crescencio Firmino dos Santos,addr:suburb:São José,amenity:pharmacy,drive_through:no,healthcare:pharmacy","lat":-19.3673485,"lng":-40.051788},{"id":"5305311759","name":"Restaurante Cheiro Verde","tags":"addr:city:Linhares,addr:postcode:29905-110,addr:street:Rua Crescencio Firmino dos Santos,addr:suburb:São José,amenity:restaurant","lat":-19.3657776,"lng":-40.0511117},{"id":"5305311762","name":"Academia Point fitness","tags":"addr:city:Linhares,addr:postcode:29905-110,addr:street:Rua Crescencio Firmino dos Santos,addr:suburb:São José,leisure:fitness_centre,sport:gymnastics;fitness","lat":-19.3651096,"lng":-40.0506639},{"id":"6770661688","tags":"amenity:parking","lat":-19.3685801,"lng":-40.0707445},{"id":"9655202914","name":"Butiquim do Gordinho","tags":"amenity:bar","lat":-19.3771472,"lng":-40.0680391},{"id":"9655202932","name":"Restaurante Irajá","tags":"amenity:restaurant","lat":-19.3796059,"lng":-40.0686565},{"id":"9655202937","name":"La Biroska","tags":"amenity:bar","lat":-19.3776305,"lng":-40.0723986},{"id":"9655202938","name":"Cafeteria Agnos Coffe","tags":"amenity:cafe","lat":-19.375229,"lng":-40.075471},{"id":"9655202939","name":"Bodega do Boleiro","tags":"amenity:bar","lat":-19.3748089,"lng":-40.07612},{"id":"9656307187","name":"Senza Pari","tags":"amenity:restaurant,cuisine:italian","lat":-19.3798522,"lng":-40.066001},{"id":"9656307189","name":"Viena Cafeteria","tags":"amenity:cafe","lat":-19.3788632,"lng":-40.066092},{"id":"9656307195","name":"Drogaria Lagoa do Meio","tags":"amenity:pharmacy,dispensing:yes,healthcare:pharmacy","lat":-19.3757892,"lng":-40.0641723},{"id":"9656307196","name":"Exagerado Churros Gourmet","tags":"amenity:restaurant","lat":-19.3758357,"lng":-40.0637779},{"id":"9663560055","name":"Schaefer Pizzas","tags":"amenity:restaurant,cuisine:pizza","lat":-19.3683215,"lng":-40.0526016},{"id":"9668367290","name":"Soeiro's House","tags":"amenity:restaurant","lat":-19.378897,"lng":-40.0519041},{"id":"9668367299","name":"Lagunnas Restaurante","tags":"amenity:restaurant","lat":-19.3767283,"lng":-40.0540247},{"id":"9937755623","name":"Betânia Prime","tags":"amenity:nightclub","lat":-19.3394197,"lng":-40.0748756},{"id":"9937755626","name":"300 Graus Pizzaria","tags":"amenity:restaurant,cuisine:pizza","lat":-19.33983,"lng":-40.0644083},{"id":"9937755633","name":"Cocina Cabeyo's","tags":"amenity:restaurant,cuisine:american","lat":-19.3698189,"lng":-40.0501685},{"id":"9937755634","name":"Schaefer Pizzas","tags":"amenity:restaurant,cuisine:pizza","lat":-19.3693316,"lng":-40.0504835},{"id":"9937755636","name":"Points Bar Petiscaria","tags":"amenity:bar","lat":-19.3665508,"lng":-40.052139},{"id":"9937755651","name":"Mais Que Pizza","tags":"amenity:restaurant,cuisine:pizza","lat":-19.3623672,"lng":-40.0541272},{"id":"9937755657","name":"Supermercado União","tags":"shop:supermarket","lat":-19.3613201,"lng":-40.0505701},{"id":"9937755658","name":"Casa da Picanha","tags":"amenity:restaurant,cuisine:steak_house","lat":-19.3612264,"lng":-40.050436},{"id":"9937759797","name":"Cimá Carriço Restaurante e Petiscaria","tags":"amenity:restaurant","lat":-19.3771606,"lng":-40.0538831},{"id":"9998477942","name":"Cafeteria Agnos Coffe","tags":"amenity:cafe","lat":-19.3754042,"lng":-40.0758237}]