[{"id":"416656832","name":"Canivete;Cantinho do Churrasco","tags":"amenity:restaurant,cuisine:steak_house","lat":-19.3225978,"lng":-40.0725267},{"id":"3726948474","name":"EMEF José Modeneze","tags":"addr:city:Linhares,addr:country:BR,addr:place:Canivete,addr:postcode:29909-260,addr:state:ES,addr:street:Avenida Arlindo Gama,alt_name:Escola Municipal de Ensino Fundamental,amenity:school,classeCnae:Fundamental,contact:phone:(27) 3373-8042","lat":-19.3211879,"lng":-40.0710775},{"id":"9656557502","name":"Mercearia Vila Maria","tags":"shop:convenience","lat":-19.3144957,"lng":-40.0684677},{"id":"9656557504","name":"Prato do Dia Restaurante e Self Service","tags":"amenity:restaurant","lat":-19.3169718,"lng":-40.0701085},{"id":"9656557505","name":"Restaurante Prato do Dia","tags":"amenity:restaurant","lat":-19.3187522,"lng":-40.0697289},{"id":"9656606821","name":"Supermercado Ferraço","tags":"shop:supermarket","lat":-19.3217089,"lng":-40.0705222},{"id":"9656606824","tags":"amenity:post_office,operator:Correios,operator:wikidata:Q3375004,operator:wikipedia:en:Correios","lat":-19.3224903,"lng":-40.0728513},{"id":"9711479396","name":"Restaurante Lagoa","tags":"amenity:restaurant","lat":-19.3355681,"lng":-40.0674916}]