[{"id":"1462033424","name":"Banco do Brasil","tags":"amenity:bank,atm:yes,brand:Banco do Brasil,brand:wikidata:Q610817,brand:wikipedia:en:Banco do Brasil","lat":-14.5038898,"lng":-42.2231735},{"id":"1611824380","name":"Bradesco","tags":"addr:city:Caculé,addr:postcode:46300-000,addr:street:Praça José Joaquim Seabra,addr:suburb:Centro,amenity:bank,atm:yes,brand:Bradesco,brand:wikidata:Q806181","lat":-14.5058167,"lng":-42.2225532},{"id":"1611836870","name":"Sorveteria","tags":"amenity:restaurant,cuisine:ice_cream","lat":-14.5031514,"lng":-42.2232446},{"id":"1611836872","name":"Farmácia Central","tags":"amenity:pharmacy,healthcare:pharmacy","lat":-14.5030801,"lng":-42.2234105},{"id":"1611901814","name":"Farmácia Santa Gema","tags":"addr:city:Caculé,addr:housenumber:85,addr:postcode:46300-000,addr:street:Praça Miguel Fernandes,amenity:pharmacy,healthcare:pharmacy,phone:+55 77 3455 1221","lat":-14.5062677,"lng":-42.2221772},{"id":"1618925702","name":"Caixa Econômica Federal","tags":"amenity:atm,brand:Caixa Econômica Federal,brand:wikidata:Q835283,operator:Caixa Econômica Federal,operator:wikidata:Q835283,operator:wikipedia:pt:Caixa Econômica Federal","lat":-14.5038759,"lng":-42.2233525},{"id":"1618978574","name":"Magazine Esplanada","tags":"shop:convenience","lat":-14.5060729,"lng":-42.2221917},{"id":"1619248786","name":"Coceb Supermercado","tags":"shop:supermarket","lat":-14.5051638,"lng":-42.2214132},{"id":"1619248791","name":"Mercadinho Alves","tags":"shop:convenience","lat":-14.5045845,"lng":-42.2218324},{"id":"1619248792","name":"Mercadinho Novo Mundo","tags":"shop:supermarket","lat":-14.5037899,"lng":-42.2208489},{"id":"1619248794","name":"Mercadinho Cruseiro","tags":"shop:supermarket","lat":-14.5114613,"lng":-42.2242144},{"id":"1619527443","name":"Pizzaria Caculé","tags":"amenity:restaurant,cuisine:pizza","lat":-14.5065217,"lng":-42.2240532},{"id":"1619636960","name":"Mercadinho JR","tags":"shop:supermarket","lat":-14.5023123,"lng":-42.2203597},{"id":"1638596106","name":"Correios","tags":"amenity:post_office,operator:Correios,operator:wikidata:Q3375004,operator:wikipedia:en:Correios","lat":-14.5069243,"lng":-42.2232638},{"id":"1643097023","tags":"shop:supermarket","lat":-14.5130667,"lng":-42.2225103},{"id":"1643097024","tags":"shop:supermarket","lat":-14.5130127,"lng":-42.2222865},{"id":"1751723899","name":"Supermercado Mota","tags":"addr:city:Caculé,addr:postcode:46300-000,addr:street:Praça Miguel Fernandes,shop:supermarket","lat":-14.5063696,"lng":-42.2219957},{"id":"4344768925","name":"Museu de Caculé","tags":"addr:housenumber:102,addr:street:Avenida Antônio Muniz,internet_access:wlan,phone:+55 31 4042-3774,tourism:museum,website:http://www.museudecacule.com.br","lat":-14.5074457,"lng":-42.2233473},{"id":"5202321622","name":"Paulo ernane meracdinho sao José","tags":"addr:street:rua rodrigo ferreira 105,shop:supermarket","lat":-14.5063252,"lng":-42.2298196},{"id":"5202359521","name":"Elma rosa supermercado pontual","tags":"addr:street:avenida antonio muniz,shop:supermarket","lat":-14.5092237,"lng":-42.2234531},{"id":"5202409228","name":"Thiago adriano cotrim super lismar","tags":"addr:street:rua joao rodruigues maciel,shop:supermarket","lat":-14.5127453,"lng":-42.2239482},{"id":"5764336353","name":"Cerealista coelho","tags":"addr:street:Avenida Cônego Miguel Monteiro,shop:supermarket","lat":-14.5027027,"lng":-42.2228119},{"id":"5968833085","tags":"addr:street:Rua Comandante Cortes,shop:convenience","lat":-14.504293,"lng":-42.2218326},{"id":"9714445974","name":"Salao Realce","tags":"beauty:hair,shop:beauty","lat":-14.5038892,"lng":-42.2229834},{"id":"9716727148","name":"Farmácia Básica Municipal","tags":"addr:city:Caculé,addr:street:Praça Coração de Jesus,addr:suburb:Centro,amenity:pharmacy,dispensing:yes,healthcare:pharmacy,operator:Secretaria Municipal de Saúde","lat":-14.5041714,"lng":-42.2223014},{"id":"9716727149","name":"Berçário Menino Jesus","tags":"addr:city:Caculé,addr:street:Praça Coração de Jesus,addr:suburb:Centro,amenity:childcare","lat":-14.5042565,"lng":-42.2222932},{"id":"9716727153","name":"Maria Estética e Belez Unissex","tags":"mobile:+55 77 9 8145 1138,shop:beauty","lat":-14.5049212,"lng":-42.2223387},{"id":"9716727154","name":"Drogaria Farma+","tags":"addr:city:Caculé,addr:street:Praça Coração de Jesus,addr:suburb:Centro,amenity:pharmacy,dispensing:yes,healthcare:pharmacy,phone:+55 77 3455 1388","lat":-14.5049206,"lng":-42.2224765},{"id":"9741199487","name":"Cercal Supermercado","tags":"phone:+55 77 3455 1014,shop:supermarket","lat":-14.5039549,"lng":-42.2238084},{"id":"9791454066","name":"Bar e Restaurante Novais","tags":"addr:city:Caculé,addr:postcode:46300-000,addr:street:Travessa Tamandaré,addr:suburb:Centro,amenity:restaurant,cuisine:regional,mobile:+55 77 9 8105 2304,payment:coins:only,phone:+55 77 3455 1503","lat":-14.5054948,"lng":-42.2224306},{"id":"9791460465","name":"Modelo Supermercado","tags":"addr:city:Caculé,addr:postcode:46300-000,addr:street:Rua Coronel Manoel Fernandes,brand:Rede 7,shop:supermarket","lat":-14.505747,"lng":-42.2215299}]