[{"id":"2937827842","name":"Supermercado Costa Caiçara","tags":"shop:supermarket","lat":-14.243151,"lng":-42.758865},{"id":"4353405198","name":"O Perdigão Supermercado","tags":"shop:supermarket","lat":-14.2385112,"lng":-42.7634494},{"id":"4514035985","name":"Spazio Fabi Bebé","tags":"addr:city:Guanambi,addr:housenumber:1205,addr:postcode:46430-000,addr:street:Avenida Deolinda Martins,addr:suburb:Santo Antônio,leisure:fitness_centre,sport:pilates","lat":-14.2387351,"lng":-42.7745749},{"id":"4514035986","name":"Lava Jato","tags":"addr:city:Guanambi,addr:postcode:46430-000,addr:street:Avenida Deolinda Martins,addr:suburb:Santo Antônio,amenity:car_wash,automated:no,phone:+55 77 9 8102 5476,self_service:no","lat":-14.238794,"lng":-42.7744235},{"id":"4514036108","name":"Mercado Emilia","tags":"addr:city:Guanambi,addr:housenumber:575,addr:postcode:46430-000,phone:+55 77 9 9157 5915,phone_1:+55 77 9 9811 9685,shop:convenience","lat":-14.2431613,"lng":-42.7658589},{"id":"4514036110","name":"Clube Esportivo Flamengo de Guanambi","tags":"leisure:sports_centre,sport:soccer","lat":-14.2425868,"lng":-42.7707727},{"id":"4840574465","name":"Churrascaria Chão de Brasa","tags":"amenity:restaurant,cuisine:steak_house,outdoor_seating:yes","lat":-14.2385527,"lng":-42.7667242},{"id":"4840574475","tags":"shop:beauty","lat":-14.2394431,"lng":-42.7671869},{"id":"5200349821","name":"Joel fernandes da silva ccasa de carnes ribeiro","tags":"addr:housenumber:336,addr:street:Rua 11,shop:supermarket","lat":-14.2385215,"lng":-42.7650043},{"id":"9046489616","name":"Supermercardo Júnior e Júlia","tags":"addr:city:Guanambi,addr:housenumber:326,addr:postcode:46430-000,addr:street:Rua Minas Gerais,addr:suburb:Brasília,shop:convenience","lat":-14.2384136,"lng":-42.767045}]