[{"id":"3548346136","name":"Supermercado Castro","tags":"addr:street:Avenida Campo Largo,shop:supermarket","lat":-14.4070623,"lng":-42.6099203},{"id":"3548366164","name":"Mercearia Souza","tags":"addr:district:Guirapá,addr:housenumber:47,addr:street:Rua Monteiro Lobato,opening_hours:Mo-Fr 06:30-19:00; Sa 07:00-12:00; Su 07:00-19:00,payment:coins:yes,payment:notes:yes,phone:+55 77 3667 5048,shop:supermarket,wheelchair:limited","lat":-14.4047923,"lng":-42.6149977},{"id":"3548396837","name":"PSF Vereador Franco Plínio Nogueira","tags":"addr:street:Rua Monteiro Lobato,amenity:hospital,old_name:Unidade de Saúde da Família","lat":-14.4046467,"lng":-42.6155958},{"id":"3548396840","name":"Restaurante Guirapá","tags":"addr:street:Avenida Campo Largo,amenity:restaurant,cuisine:regional,smoking:no","lat":-14.4040794,"lng":-42.6153179},{"id":"3641668914","tags":"shop:supermarket","lat":-14.4012942,"lng":-42.6179682},{"id":"3641668915","name":"Mercearia Alves","tags":"addr:city:Guirapá,addr:district:Guirapá,addr:housenumber:35,addr:postcode:46370-000,addr:street:Rua Pindaí,addr:suburb:Centro,opening_hours:Mo-Fr 07:00-19:00; Sa 07:00-12:00; Su 07:00-19:00,phone:+55 77 3667 5009,shop:supermarket,wheelchair:no","lat":-14.4018105,"lng":-42.618378},{"id":"3807050117","name":"Restaurante Paladar","tags":"addr:postcode:46370-000,addr:street:Praça da Feira,addr:suburb:Centro,amenity:restaurant,cuisine:regional","lat":-14.4012732,"lng":-42.6181261},{"id":"3807050118","tags":"addr:postcode:46370-000,addr:street:Rua do Prédio Rural,addr:suburb:Centro,amenity:restaurant","lat":-14.4011559,"lng":-42.618171},{"id":"3817457862","name":"Mercearia Nova Esperança","tags":"addr:city:Guirapá,addr:district:Guirapá,addr:postcode:46370-000,addr:street:Rua Israel Alves Cotrim,addr:suburb:São Sebastião,shop:convenience","lat":-14.4066141,"lng":-42.6146059},{"id":"4004199129","name":"Bar e Churrascaria T&T","tags":"addr:postcode:46370-000,addr:street:Rua da Gameleira,amenity:restaurant,cuisine:barbecue,district:Guirapá,outdoor_seating:yes,phone:+55 77 9 9158 6527","lat":-14.4017979,"lng":-42.6171113},{"id":"4268570596","name":"Sacolão Guirapá","tags":"addr:street:Avenida Campo Largo,shop:convenience","lat":-14.405829,"lng":-42.6115185},{"id":"4683528327","name":"Academia Castro","tags":"addr:postcode:46370-000,addr:street:Rua Pindaí,leisure:fitness_centre,opening_hours:Mo-Fr 07:00-11:00,14:00-22:00, Sa 07:00-11:00,16:00-19:00,sport:gymnastics","lat":-14.4023671,"lng":-42.6194599},{"id":"4705847960","name":"Espetinho Kigostoso","tags":"addr:postcode:46370-000,addr:street:Travessa do Socego,amenity:restaurant,cuisine:kebab","lat":-14.4042238,"lng":-42.6154496},{"id":"4819274612","tags":"amenity:place_of_worship,building:church,religion:christian","lat":-14.3798451,"lng":-42.6015869},{"id":"4819274833","tags":"shop:convenience","lat":-14.4015761,"lng":-42.6188496}]