[{"id":"2842454406","name":"Supermercado Kelly","tags":"shop:supermarket","lat":-14.2197269,"lng":-42.7875155},{"id":"2887782390","name":"Supermercado kaires","tags":"shop:supermarket","lat":-14.2232421,"lng":-42.7906403},{"id":"2887782393","name":"Supermercado Neves","tags":"shop:supermarket","lat":-14.2186084,"lng":-42.7871959},{"id":"2888193131","name":"Mercearia Bom Jesus","tags":"addr:city:Guanambi,addr:housenumber:36,addr:postcode:46430-000,addr:street:Rua Rio de Janeiro,addr:suburb:Centro,mobile:+55 77 9 9979 0394,shop:supermarket","lat":-14.2230616,"lng":-42.7822953},{"id":"2888193132","name":"Supermercado stella","tags":"shop:supermarket","lat":-14.2210466,"lng":-42.7825555},{"id":"2888208754","name":"Bar Duas Avenidas","tags":"amenity:bar","lat":-14.2192328,"lng":-42.7797747},{"id":"2888208755","name":"Bradesco","tags":"amenity:bank,brand:Bradesco,brand:wikidata:Q806181,brand:wikipedia:en:Banco Bradesco","lat":-14.2260218,"lng":-42.7790219},{"id":"2888208757","name":"Kamim Di Kasa Bar","tags":"amenity:bar","lat":-14.2180228,"lng":-42.7814557},{"id":"2888208758","name":"Farmácia Avenida","tags":"amenity:pharmacy","lat":-14.2169655,"lng":-42.7829478},{"id":"2888208759","tags":"amenity:pharmacy","lat":-14.2260828,"lng":-42.7792912},{"id":"2888208760","name":"Planalto Lanches e Petiscos","tags":"addr:housenumber:104,addr:postcode:46430-000,addr:street:Avenida Santos Dumont,amenity:bar","lat":-14.2188028,"lng":-42.7803749},{"id":"2888208761","name":"Farmácia Santa Rita","tags":"addr:city:Guanambi,addr:postcode:46430-000,addr:street:Rua Coronel Zequinha,addr:suburb:Centro,amenity:pharmacy,healthcare:pharmacy,opening_hours:Mo-Su 07:00-22:00,phone:+55 77 3451 3151","lat":-14.2281861,"lng":-42.7798384},{"id":"2888208764","name":"Farmácia Guanambi","tags":"amenity:pharmacy","lat":-14.2273802,"lng":-42.7795675},{"id":"2888208765","tags":"amenity:police","lat":-14.2257224,"lng":-42.7790719},{"id":"2888233991","name":"Hospital Policlinica","tags":"amenity:hospital","lat":-14.2199208,"lng":-42.7769979},{"id":"2888234015","name":"Caixa Econômica Federal","tags":"addr:city:Guanambi,addr:postcode:46430-000,addr:street:Praça Gercino Coelho,addr:suburb:Centro,amenity:bank,brand:Caixa Econômica Federal,brand:wikidata:Q835283,brand:wikipedia:pt:Caixa Econômica Federal,opening_hours:Mo-Fr 10:00-15:00,wheelchair:yes","lat":-14.2258774,"lng":-42.7786555},{"id":"2888234016","name":"Banco do Nordeste","tags":"addr:street:Rua Joaquim Manoel,amenity:bank","lat":-14.2276922,"lng":-42.7787788},{"id":"2888234017","name":"Itaú","tags":"amenity:bank,atm:yes,brand:Itaú Unibanco,brand:wikidata:Q1424293,brand:wikipedia:pt:Itaú Unibanco","lat":-14.2263688,"lng":-42.7794012},{"id":"2888234018","name":"Banco do Brasil","tags":"amenity:bank,brand:Banco do Brasil,brand:wikidata:Q610817,brand:wikipedia:en:Banco do Brasil","lat":-14.2257864,"lng":-42.7795487},{"id":"2888281187","name":"Hospital Polimeg","tags":"amenity:hospital,healthcare:hospital","lat":-14.2232626,"lng":-42.7827725},{"id":"2888294837","name":"D'artagnol Músic Bar","tags":"amenity:nightclub","lat":-14.2117996,"lng":-42.7914891},{"id":"2889293438","name":"Pronto Atendimento Covid-19","tags":"addr:city:Guanambi,addr:postcode:46430-000,addr:street:Praça José Ferreira,addr:suburb:Centro,amenity:hospital,contact:mobile:+55 77 99961-1617","lat":-14.226632,"lng":-42.7810267},{"id":"2889293439","name":"Hospital São Lucas","tags":"amenity:hospital","lat":-14.2241204,"lng":-42.7794416},{"id":"2889601305","name":"Farmácia Vieira","tags":"addr:city:Guanambi,addr:housenumber:141,addr:postcode:46430-000,addr:street:Rua Francisco José Fernades,addr:suburb:Centro,amenity:pharmacy,phone:+55 77 3451-2452,start_date:1978","lat":-14.2271702,"lng":-42.7794577},{"id":"2890045004","name":"Churrascaria los pampas","tags":"amenity:restaurant","lat":-14.2253727,"lng":-42.7809063},{"id":"2890052429","name":"Pague Menos","tags":"amenity:pharmacy,brand:Pague Menos,brand:wikidata:Q7124466,brand:wikipedia:pt:Pague Menos,dispensing:no,healthcare:pharmacy","lat":-14.2228364,"lng":-42.7770977},{"id":"2890054648","name":"Correios","tags":"amenity:post_office","lat":-14.2277897,"lng":-42.7812878},{"id":"2890059478","tags":"amenity:car_wash","lat":-14.2243188,"lng":-42.7899326},{"id":"2890059479","tags":"amenity:car_wash","lat":-14.2249324,"lng":-42.7887041},{"id":"2890059481","tags":"amenity:bar","lat":-14.2201224,"lng":-42.782755},{"id":"2890059482","tags":"amenity:car_wash","lat":-14.2251768,"lng":-42.7887685},{"id":"2893773161","name":"Supermercado União","tags":"shop:supermarket","lat":-14.2172635,"lng":-42.7890411},{"id":"2901948801","name":"Bar do Elizeu","tags":"amenity:restaurant","lat":-14.2207061,"lng":-42.7817285},{"id":"2905644277","name":"Bar 14 Bis","tags":"amenity:bar","lat":-14.2133763,"lng":-42.7878653},{"id":"2919236120","name":"Samu 192","tags":"amenity:hospital","lat":-14.2128713,"lng":-42.7677935},{"id":"2929692274","name":"Farmácia Martins","tags":"amenity:pharmacy","lat":-14.2193884,"lng":-42.779573},{"id":"2929707244","name":"Bar Lanchonete Hora Certa","tags":"amenity:bar","lat":-14.2188891,"lng":-42.7802489},{"id":"2929734098","name":"Bar Avenida","tags":"amenity:bar","lat":-14.2186084,"lng":-42.7806593},{"id":"2929734099","name":"Bar Churrascaria Krakattoa","tags":"amenity:restaurant","lat":-14.2189645,"lng":-42.780163},{"id":"2929743960","name":"Restaurante Sorgil","tags":"amenity:restaurant","lat":-14.2193642,"lng":-42.7838986},{"id":"2934695874","name":"Delegacia Territorial de Guanambi","tags":"amenity:police","lat":-14.2218467,"lng":-42.7627323},{"id":"2934716097","name":"Polícia Militar-Batalhão","tags":"amenity:police","lat":-14.2190002,"lng":-42.7974329},{"id":"2934719003","name":"Caixa Eletrônico BB","tags":"amenity:bank","lat":-14.2185963,"lng":-42.7976754},{"id":"2936039331","name":"Disk Tudo Bar Churrasco e Restaurante","tags":"amenity:restaurant","lat":-14.2210216,"lng":-42.7759448},{"id":"2936059792","name":"Mercado municipal","tags":"amenity:restaurant","lat":-14.2305399,"lng":-42.7800193},{"id":"2937785770","name":"Supermercado Costa","tags":"shop:supermarket","lat":-14.2219167,"lng":-42.7943762},{"id":"2938053974","name":"churrascaria do Ivan","tags":"amenity:restaurant","lat":-14.2276954,"lng":-42.7842077},{"id":"2942289138","name":"Centro de Saúde.Dep.Gercino Coelho","tags":"amenity:hospital","lat":-14.2214792,"lng":-42.7762124},{"id":"2942289139","name":"Posto de Saúde da Família São Francisco","tags":"amenity:hospital","lat":-14.2133254,"lng":-42.7681015},{"id":"2942303585","name":"Martins Conveniência","tags":"shop:convenience","lat":-14.2196566,"lng":-42.7796219},{"id":"2942682558","name":"Colégio E. Idalice Nunes","tags":"amenity:school","lat":-14.2287254,"lng":-42.7814009},{"id":"2942696590","name":"Centro Universitário FG - UniFG","tags":"addr:city:Guanambi,addr:postcode:46430-000,addr:street:Avenida Barão do Rio Branco,addr:suburb:Centro,amenity:university,internet_access:yes","lat":-14.2220799,"lng":-42.7765675},{"id":"2948687543","name":"Bar Terra do Sol","tags":"amenity:bar","lat":-14.217973,"lng":-42.7815519},{"id":"2955113026","name":"Colégio M.Prof.Enedina C.de Macedo","tags":"amenity:school","lat":-14.219253,"lng":-42.795556},{"id":"2955115945","name":"Supermercado Vanusa","tags":"shop:supermarket","lat":-14.220873,"lng":-42.7934373},{"id":"2955672099","name":"Panificadora Fraga e Confeitaria","tags":"amenity:cafe","lat":-14.2196401,"lng":-42.7752011},{"id":"2957106050","name":"Bar e Lanchonete de Lora","tags":"amenity:bar","lat":-14.2166948,"lng":-42.7833496},{"id":"2964319529","name":"Casa Della Mamma Pizzaria e Restaurante","tags":"amenity:restaurant","lat":-14.2178654,"lng":-42.7819754},{"id":"2964334033","name":"Zé Vieira Bar","tags":"amenity:bar","lat":-14.2205503,"lng":-42.7843444},{"id":"2966128668","name":"Pizzaria Opção","tags":"amenity:restaurant","lat":-14.21891,"lng":-42.800395},{"id":"2974258110","name":"Hotel Churrascaria Planalto","tags":"amenity:restaurant","lat":-14.2215395,"lng":-42.776104},{"id":"2975038210","name":"Hospital dos Rins","tags":"amenity:hospital","lat":-14.2115726,"lng":-42.7668727},{"id":"2977115229","name":"Bar Opção Churrascaria","tags":"amenity:restaurant","lat":-14.2187982,"lng":-42.7729345},{"id":"2990592361","name":"Risk e Rabisk Papelaria","tags":"addr:housenumber:71,addr:street:Avenida Otávio Mangabeira,amenity:library","lat":-14.2223505,"lng":-42.778295},{"id":"3030287102","name":"Posto de Saúde da Família São Sebastião","tags":"amenity:hospital","lat":-14.2029637,"lng":-42.7616268},{"id":"3039535505","name":"Churrascaria dos Pampas","tags":"amenity:restaurant","lat":-14.204785,"lng":-42.7592681},{"id":"3046481703","name":"Supermercado Nasimento","tags":"shop:supermarket","lat":-14.2155975,"lng":-42.7925522},{"id":"3048131589","name":"Bar Central","tags":"amenity:bar","lat":-14.2306489,"lng":-42.7803428},{"id":"3051999340","name":"Supermercado Silva","tags":"addr:city:Guanambi-ba,addr:postcode:46430-000,addr:street:Avenida Doutor José Humberto Nunes,addr:suburb:Bom Jesus,shop:supermarket","lat":-14.2202285,"lng":-42.7741525},{"id":"3064962560","name":"Restaurante o Favoritto","tags":"amenity:restaurant","lat":-14.2211226,"lng":-42.7825905},{"id":"3971795372","name":"Mercado das Artes","tags":"tourism:museum","lat":-14.2283355,"lng":-42.7790347},{"id":"3971795373","name":"Droga Center","tags":"addr:city:Guanambi,addr:housenumber:50,addr:street:Rua Coronel Zequinha,addr:suburb:Centro,amenity:pharmacy","lat":-14.2283849,"lng":-42.7801878},{"id":"3971795378","name":"Vale Ouro","tags":"addr:city:Guanambi,addr:street:Praça Jetúlio Vargas,addr:suburb:Centro,shop:pet","lat":-14.2281217,"lng":-42.7802496},{"id":"3971795390","name":"Livraria Mãe do salvador","tags":"addr:city:Guanambi,addr:street:Praça Jetúlio Vargas,addr:suburb:Centro,shop:books","lat":-14.2275458,"lng":-42.7806708},{"id":"3971795391","name":"Guavet","tags":"addr:city:Guanambi,addr:street:Praça Jetúlio Vargas,addr:suburb:Centro,amenity:veterinary,phone:+55 77 3451 4239,phone_1:+55 77 3451 2123,shop:pet","lat":-14.2275354,"lng":-42.7807466},{"id":"3971795399","name":"Farma Vida drogaria","tags":"addr:city:Guanambi,addr:street:Praça Jetúlio Vargas,addr:suburb:Centro,amenity:pharmacy","lat":-14.2281126,"lng":-42.7810195},{"id":"3992362100","name":"Compam","tags":"addr:city:Guanambi,addr:housenumber:87 A,addr:street:Rua Marcílio Dias,addr:suburb:Centro,phone:+55 77 99125-9428,phone_1:+55 77 98819 3999,shop:convenience","lat":-14.2269398,"lng":-42.7818686},{"id":"3992362107","name":"Farmácia Regional","tags":"addr:city:Guanambi,addr:housenumber:1635,addr:street:Avenida Doutor José Humberto Nunes,amenity:pharmacy","lat":-14.2135072,"lng":-42.7659666},{"id":"3992362108","name":"Farmácia do Trabalhador do Brasil","tags":"addr:city:Guanambi,addr:housenumber:36,addr:street:Rua Francisco José Fernades,amenity:pharmacy,short_name:FTB","lat":-14.2262608,"lng":-42.7791274},{"id":"3992362116","name":"Mary Cabelereira","tags":"phone:+55 77 3451 6446,shop:beauty","lat":-14.2127385,"lng":-42.7650278},{"id":"3992362119","name":"Murilo e Marquês Centro de Beleza","tags":"shop:beauty","lat":-14.2283702,"lng":-42.7803682},{"id":"3992362127","name":"Restaurante Mais Você","tags":"addr:city:Guanambi,addr:housenumber:30,addr:street:Praça da Bandeira,amenity:restaurant,cuisine:regional","lat":-14.2258945,"lng":-42.7813681},{"id":"3992362128","name":"Restaurante e Churrascaria Big Picanha","tags":"amenity:restaurant,cuisine:regional","lat":-14.2126075,"lng":-42.7652554},{"id":"3992362129","name":"Salão Suely","tags":"addr:city:Guanambi,addr:housenumber:1607,addr:street:Avenida Doutor José Humberto Nunes,addr:suburb:Paraíso,shop:beauty","lat":-14.21364,"lng":-42.7661195},{"id":"3992362130","name":"Styllo Hair","tags":"phone:+55 77 3451 2304,shop:beauty","lat":-14.226155,"lng":-42.7815689},{"id":"3992362132","name":"Unidade de Pronto Atendimento de Guanambi","tags":"amenity:hospital,emergency:yes,healthcare:hospital,short_name:UPA","lat":-14.2125636,"lng":-42.767665},{"id":"3992362133","name":"Unopar","tags":"addr:city:Guanambi,addr:housenumber:125,addr:street:Rua Olavo Bilac,addr:suburb:Centro,amenity:university,phone:+55 77 3451 5400","lat":-14.2268761,"lng":-42.7824125},{"id":"3992371272","tags":"addr:city:Guanambi,addr:street:Avenida Doutor José Humberto Nunes,addr:suburb:Paraíso,shop:convenience","lat":-14.2143105,"lng":-42.7666583},{"id":"4067090112","name":"Rotação","tags":"alt_name:Supermercado Neves,shop:supermarket","lat":-14.2177222,"lng":-42.7734983},{"id":"4214720800","name":"Prepara Cursos","tags":"addr:city:Guanambi,addr:housenumber:18,addr:street:Rua Rui Barbosa,amenity:school,phone:+55 77 3451 2778,training:tutoring","lat":-14.2262338,"lng":-42.7800832},{"id":"4353405199","name":"Sacolão Tropical","tags":"addr:housenumber:31,addr:street:Rua Rio Grande do Norte,phone:+55 77 9 9991 0400,shop:convenience","lat":-14.2377144,"lng":-42.7667217},{"id":"4363457802","name":"Pizzaria Martins","tags":"addr:city:Guanambi,addr:postcode:46430-000,addr:street:Avenida Deolinda Martins,addr:suburb:Santo Antônio,amenity:restaurant,cuisine:pizza","lat":-14.2359652,"lng":-42.7776465},{"id":"4363457803","name":"Salão de Beleza Edilene","tags":"addr:street:Rua Guilherme de Almeida,shop:beauty","lat":-14.2379007,"lng":-42.7751815},{"id":"4363457804","name":"Supermercado Rodrigo","tags":"addr:city:Guanambi,addr:housenumber:651,addr:postcode:46430-000,addr:street:Avenida Deolinda Martins,addr:suburb:Santo Antônio,phone:+5577 3451 1993,shop:supermarket","lat":-14.2353451,"lng":-42.7776639},{"id":"4363457821","tags":"amenity:place_of_worship,building:church,denomination:catholic,religion:christian","lat":-14.237603,"lng":-42.7740054},{"id":"4455111390","name":"Comercial Silveira","tags":"addr:housenumber:138,addr:postcode:46430000,addr:street:Avenida Guanabara,internet_access:wlan,name:pt:Comercial Silveira,opening_hours:Sa 06:20-18:30; Su 07:00-23:00,shop:supermarket","lat":-14.2206793,"lng":-42.7795419},{"id":"4482519587","name":"Bar e Restaurante Oriente","tags":"amenity:restaurant,cuisine:regional,phone:+55 77 9 9122 7574","lat":-14.2318294,"lng":-42.7663073},{"id":"4482519597","name":"Lava Jato MK","tags":"addr:city:Guanambi,addr:postcode:46430-000,addr:street:Avenida Prefeito José Neves,amenity:car_wash,automated:no,phone:+55 77 9 9853 8787,self_service:no","lat":-14.2342869,"lng":-42.7667903},{"id":"4482519608","name":"Restaurante Comida Caseira","tags":"addr:city:Guanambi,addr:housenumber:3339,addr:postcode:46430-000,addr:street:Avenida Prefeito José Neves,amenity:restaurant,phone:+55 77 9929 8415","lat":-14.2366605,"lng":-42.7692902},{"id":"4482519609","name":"Restaurante e Lanchonete Aconchego","tags":"addr:city:Guanambi,addr:housenumber:652,addr:postcode:46430-000,addr:street:Avenida Prefeito José Neves,amenity:restaurant","lat":-14.2143945,"lng":-42.7635608},{"id":"4514035066","name":"Mercearia Guanambi","tags":"addr:city:Guanambi,addr:postcode:46430-000,addr:street:Avenida Deolinda Martins,addr:suburb:Santo Antônio,mobile:+5577999790489,shop:convenience","lat":-14.2357817,"lng":-42.7773357},{"id":"4514035068","tags":"shop:beauty","lat":-14.2352441,"lng":-42.7777259},{"id":"4607137789","name":"Pizza na Pedra","tags":"amenity:restaurant,cuisine:pizza,name:pt:Pizza na Pedra","lat":-14.2359738,"lng":-42.7657978},{"id":"4608693089","name":"Pimentas","tags":"addr:housenumber:32,addr:postcode:46430-000,addr:street:Avenida Santos Dumont,amenity:restaurant,internet_access:wlan","lat":-14.2192071,"lng":-42.7798142},{"id":"4608778899","name":"Sorveteria Tropical","tags":"addr:postcode:46430-000,addr:street:Avenida Santos Dumont,amenity:restaurant,cuisine:ice_cream,name:pt:Sorveteria Tropical","lat":-14.2187121,"lng":-42.7804694},{"id":"4617443460","name":"Espaço Pet","tags":"shop:pet","lat":-14.2221685,"lng":-42.7802373},{"id":"4617443599","name":"Mediterrâneo","tags":"addr:city:Guanambi,addr:housenumber:112,addr:postcode:46430-000,addr:street:Rua Rui Barbosa,addr:suburb:Centro,amenity:restaurant,phone:+55 77 3451 9141","lat":-14.2224453,"lng":-42.7788504},{"id":"4617443607","name":"Restaurante Recife","tags":"amenity:restaurant","lat":-14.2233451,"lng":-42.7791597},{"id":"4617443614","name":"Sil Farma","tags":"addr:city:Guanambi,addr:housenumber:217,addr:postcode:46430-000,addr:street:Rua Rui Barbosa,addr:suburb:Centro,amenity:pharmacy,phone:+55 77 3451 6641","lat":-14.2244716,"lng":-42.7796412},{"id":"4617443615","name":"Restaurante Tempero Caseiro","tags":"amenity:restaurant","lat":-14.2245184,"lng":-42.779658},{"id":"4840574451","name":"Atelier Unhas Perfeitas","tags":"phone:+55 77 9 9178 0497,phone_1:+55 77 9 9825 5115,shop:beauty","lat":-14.2379501,"lng":-42.7662461},{"id":"4840574452","name":"MDD Bomboniere e Supermercado","tags":"email:mdd.doces@hotmail.com,phone:+55 77 3451 9992,phone_1:+55 77 9 9964 7661,phone_2:+55 77 9 9987 6105,shop:convenience","lat":-14.2380337,"lng":-42.7662924},{"id":"4840574454","name":"Fina Massa Pastelaria","tags":"amenity:restaurant","lat":-14.2380151,"lng":-42.7663265},{"id":"4840574456","name":"Oficina da Beleza","tags":"shop:beauty","lat":-14.2379995,"lng":-42.7663674},{"id":"4840574457","name":"Pizzaria Florença","tags":"addr:city:Guanambi,addr:housenumber:169,addr:postcode:46430-000,addr:street:Rua Rio Grande Norte,addr:suburb:Brasília,amenity:restaurant,cuisine:pizza,outdoor_seating:yes","lat":-14.2378878,"lng":-42.7663579},{"id":"4840574459","name":"Farmácia Saúde","tags":"addr:city:Guanambi,addr:housenumber:168,addr:postcode:46430-000,addr:street:Rua Rio Grande Norte,addr:suburb:Brasília,amenity:pharmacy,phone:+55 77 3451 9230","lat":-14.237976,"lng":-42.7664244},{"id":"4840574461","name":"Beu Star","tags":"phone:+55 77 3451 4603,shop:beauty","lat":-14.2380034,"lng":-42.7665877},{"id":"4840574462","name":"Supermercado Econômico","tags":"addr:city:Guanambi,addr:housenumber:181,addr:postcode:46430-000,addr:street:Rua Bahia,addr:suburb:Brasília,phone:+55 77 3451 4603,shop:convenience","lat":-14.2381716,"lng":-42.7665331},{"id":"4840574463","tags":"shop:beauty","lat":-14.2381775,"lng":-42.7666786},{"id":"5048865475","name":"RC Cereais","tags":"addr:city:Guanambi,addr:postcode:46430-000,addr:street:Rua Hermes da Fonseca,addr:suburb:Santo Antônio,alt_name:Supermercado e Hortifruti Meira,contact:phone:+55 77 9 9994 9218,phone:+55 77 9 9182 5732,shop:supermarket","lat":-14.2358204,"lng":-42.77529},{"id":"5048865476","name":"Bar do Bone","tags":"addr:city:Guanambi,addr:postcode:46430-000,addr:street:Praça Antônio Teixeira,addr:suburb:Santo Antônio,amenity:restaurant,cuisine:regional,outdoor_seating:no","lat":-14.2360349,"lng":-42.7751103},{"id":"5200302544","name":"Fraga confeitaria","tags":"addr:street:avenida barao do rio branco,shop:supermarket","lat":-14.2195913,"lng":-42.7751795},{"id":"5511761241","tags":"amenity:car_wash","lat":-14.2119682,"lng":-42.7641776},{"id":"5511761243","name":"Mega Cabelereira","tags":"addr:city:Guanambi,addr:housenumber:410,addr:postcode:46430-000,addr:street:Praça Antônio Teixeira,addr:suburb:Santo Antônio,contact:phone:+55 77 9 8101 7110,phone:+55 77 9 9931 9474,shop:beauty","lat":-14.23721,"lng":-42.7745242},{"id":"5511761251","name":"Salão Damares","tags":"addr:city:Guanambi,addr:housenumber:150,addr:postcode:46430-000,addr:street:Rua Hermes da Fonseca,addr:suburb:Santo Antônio,phone:+55 77 9 9905 4811,shop:beauty","lat":-14.2351887,"lng":-42.7760571},{"id":"5511761262","name":"Destak Bealt Hair","tags":"addr:city:Guanambi,addr:housenumber:64,addr:postcode:46430-000,addr:street:Rua Troiano de Freitas,addr:suburb:Santo Antônio,shop:beauty","lat":-14.2339134,"lng":-42.775404},{"id":"5511761264","name":"Restaurante Frigideira","tags":"addr:city:Guanambi,addr:housenumber:625,addr:postcode:46430-000,addr:street:Avenida Sandoval Moraes,addr:suburb:Santo Antônio,amenity:restaurant","lat":-14.2329398,"lng":-42.7757071},{"id":"5511761278","name":"Salão de Beleza Stein Hair","tags":"addr:city:Guanambi,addr:postcode:46430-000,addr:street:Avenida Joaquim Chaves,addr:suburb:Santo Antônio,phone:+5511946157486,shop:beauty","lat":-14.2348806,"lng":-42.7776745},{"id":"5511761287","name":"Boteco de Mulher","tags":"addr:city:Guanambi,addr:postcode:46430-000,addr:street:Avenida Deolinda Martins,addr:suburb:Santo Antônio,shop:beauty","lat":-14.237964,"lng":-42.7761698},{"id":"6261984674","name":"Correios","tags":"addr:city:Guanambi,addr:housenumber:360,addr:postcode:46430-000,addr:street:Avenida Senador Nilo Coelho,addr:suburb:Centro,amenity:post_office","lat":-14.225881,"lng":-42.7767465},{"id":"6372442574","name":"Instituto Norte Mineiro de Educação Profissional","tags":"addr:city:Guanambi,addr:housenumber:378,addr:postcode:46430-000,addr:street:Rua Joaquim Manoel,addr:suburb:Centro,amenity:school,contact:facebook:https://www.facebook.com/inmep.guanambi,fee:yes,short_name:INMEP,website:http://www.inmep.com.br/","lat":-14.2245674,"lng":-42.7778146},{"id":"6372442582","name":"Tempeiro de Casa Restaurante","tags":"addr:city:Guanambi,addr:housenumber:258,addr:postcode:46430-000,addr:street:Rua Joaquim Manoel,addr:suburb:Centro,amenity:restaurant","lat":-14.2256808,"lng":-42.7781244},{"id":"6372442583","name":"Restaurante Fogão a Lenha","tags":"addr:city:Guanambi,addr:housenumber:236,addr:postcode:46430-000,addr:street:Rua Joaquim Manoel,addr:suburb:Centro,amenity:restaurant,contact:facebook:https://www.facebook.com/FogaoALenhaGuanambi/,phone:+55 77 3451 7496","lat":-14.2257874,"lng":-42.7781667},{"id":"6377110107","name":"Raphael Zilio Academia","tags":"addr:city:Guanambi,addr:housenumber:62,addr:postcode:46430-000,addr:street:Rua João Pessoa,addr:suburb:Municipal,contact:phone:+55 77 99175-9000,leisure:fitness_centre,opening_hours:Mo-Fr 05:00-23:00; Sa 07:00-12:00,16:00-19:00; Su 09:00-12:00,phone:+55 77 3452-3625","lat":-14.2119786,"lng":-42.7912863},{"id":"6528515121","name":"Recanto Bar e Restaurante","tags":"amenity:restaurant","lat":-14.2279857,"lng":-42.7607363},{"id":"6528570068","name":"Lava Jato JF","tags":"addr:housenumber:875,addr:street:Avenida Joaquim Dias Guimarães,amenity:car_wash","lat":-14.2130557,"lng":-42.7729652},{"id":"6578484691","tags":"amenity:car_wash","lat":-14.2278336,"lng":-42.7607122},{"id":"6684703198","name":"Farmácia Santa Aliança","tags":"addr:city:Guanambi,addr:housenumber:357,addr:postcode:46430-000,addr:street:Avenida Castelo Branco,addr:suburb:Aeroporto Velho,amenity:pharmacy,contact:phone:+55 77 9 9935 7152,phone:+55 77 3452 0608","lat":-14.2185847,"lng":-42.7850271},{"id":"6684703221","name":"Mercearia Castelo Branco","tags":"shop:convenience","lat":-14.2172321,"lng":-42.7865016},{"id":"6684703239","name":"Marcos Restaurante","tags":"addr:city:Guanambi,addr:postcode:46430-000,addr:street:Rua Raposa Tavares,addr:suburb:Santa Luzia,amenity:restaurant","lat":-14.215685,"lng":-42.7898276},{"id":"6691332787","name":"Restaurante e Lanchonete Saborear","tags":"addr:street:BR030,amenity:restaurant,internet_access:wlan,name:en:Portugues,opening_hours:24/7,phone:+55 77 9 9933 7818","lat":-14.2112126,"lng":-42.7918625},{"id":"6793971086","name":"Restaurante e Lanchonete Saborear","tags":"addr:street:BR030,amenity:restaurant,internet_access:wlan,name:en:Portugues,opening_hours:24/7,phone:+55 77 9 9933 7818","lat":-14.2110095,"lng":-42.7921581},{"id":"6909437677","name":"Academia Roberto Audi","tags":"addr:city:Guanambi,addr:postcode:46430-000,addr:street:Avenida Sandoval Moraes,addr:suburb:Santo Antônio,leisure:fitness_centre","lat":-14.2358516,"lng":-42.7692094},{"id":"7008303478","name":"Essencial Idiomas","tags":"addr:housenumber:340,addr:street:Rua Humberto de Campos,amenity:school,training:language","lat":-14.2226141,"lng":-42.7779997},{"id":"7008305191","name":"Carla Santiago Ateliê de Beleza","tags":"shop:beauty","lat":-14.2171892,"lng":-42.784901},{"id":"7008305192","name":"Gorillaz","tags":"amenity:restaurant","lat":-14.2170787,"lng":-42.78506},{"id":"7008305208","tags":"shop:convenience","lat":-14.2157955,"lng":-42.774303},{"id":"7008305214","name":"Mini Mercado Quebra Galho","tags":"shop:convenience","lat":-14.2219238,"lng":-42.7689533},{"id":"7050403892","name":"Vila Animal","tags":"email:vilaanimalgbi@gmail.com,phone:+55 77 3451 3054,shop:pet,wheelchair:limited","lat":-14.2271959,"lng":-42.7803259},{"id":"7050403908","name":"Primícias Livraria Evangélica","tags":"shop:books","lat":-14.226531,"lng":-42.7801522},{"id":"7050613562","name":"Cross Exerience Guanambi","tags":"addr:city:Guanambi,addr:housenumber:50,addr:street:Rua João Pessoa,leisure:fitness_centre","lat":-14.2127469,"lng":-42.7919143},{"id":"7050613564","name":"Salão de Beleza Semre Bela","tags":"phone:+55 77 9 9156 4359,shop:beauty","lat":-14.2123621,"lng":-42.7917977},{"id":"7050613565","name":"Instituto de Beleza Visual","tags":"addr:city:Guanambi,addr:housenumber:79,addr:street:Rua João Pessoa,phone:+55 77 9 9963 3031; +55 77 9 9972 6438,shop:beauty","lat":-14.2122659,"lng":-42.7917306},{"id":"7050613571","name":"Cris Gomes Esaço de Beleza","tags":"shop:beauty","lat":-14.2118005,"lng":-42.7911399},{"id":"7050613579","name":"Chico Rei","tags":"addr:city:Guanambi,addr:housenumber:543,addr:street:Avenida Beneval Boa Sorte,amenity:restaurant","lat":-14.2152287,"lng":-42.78771},{"id":"7050613580","name":"Lucidalva Rodrigues Make e Hair","tags":"addr:city:Guanambi,addr:housenumber:470,addr:street:Avenida Beneval Boa Sorte,shop:beauty","lat":-14.2154127,"lng":-42.7869295},{"id":"7050613581","name":"Diferencial Fitnes","tags":"addr:city:Guanambi,addr:housenumber:470,addr:street:Avenida Beneval Boa Sorte,leisure:fitness_centre","lat":-14.2153925,"lng":-42.7869583},{"id":"7050613584","name":"Uniasselvi Educação a Distancia","tags":"addr:city:Guanambi,addr:housenumber:450,addr:street:Avenida Beneval Boa Sorte,amenity:university","lat":-14.2156954,"lng":-42.7870461},{"id":"7050663203","name":"Farmácia Ultra Econômica","tags":"addr:city:Guanambi,addr:housenumber:33,addr:street:Rua Coronel Zequinha,amenity:pharmacy","lat":-14.2283613,"lng":-42.7799477},{"id":"7050663209","name":"FarmaMed","tags":"amenity:pharmacy,phone:+55 77 9 9855 1900","lat":-14.2285713,"lng":-42.7800476},{"id":"7050663217","name":"Farmácia Nossa Senhora de Fátima","tags":"amenity:pharmacy","lat":-14.2289099,"lng":-42.7801723},{"id":"8416383000","name":"status Centro de Estética","tags":"addr:street:Rua Juscelino Gomes Cardoso (1),shop:beauty","lat":-14.2282898,"lng":-42.7773052},{"id":"8416394487","name":"Farmácia Ultra Econômica","tags":"addr:street:Avenida Barão do Rio Branco,amenity:pharmacy,phone:+557734511985","lat":-14.2256654,"lng":-42.7784749},{"id":"8420574334","name":"Bahia Rações","tags":"addr:city:Guanambi,addr:housenumber:856,addr:postcode:46430-000,addr:street:Avenida Deolinda Martins,addr:suburb:Santo Antônio,phone:+55 77 99994-9023,shop:pet,wheelchair:limited","lat":-14.2356103,"lng":-42.7782365},{"id":"8588300044","name":"Escola Padre José de Anchieta","tags":"addr:city:Guanambi,addr:postcode:46430-000,addr:street:Avenida Deolinda Martins,addr:suburb:Santo Antônio,amenity:school,email:escolaanchietagbi@gmail.com,phone:+55 77 3451 5059","lat":-14.2340239,"lng":-42.7786387},{"id":"8710148267","name":"Lava Rápido Oliveira","tags":"addr:city:Guanambi,addr:postcode:46430-000,addr:street:Avenida Deolinda Martins,addr:suburb:Santo Antônio,amenity:car_wash,contact:mobile:+55 77 9 9994 1550,mobile:+55 77 9 9905 2279","lat":-14.2320285,"lng":-42.7800375},{"id":"8710148289","name":"Restaurante Prediletto","tags":"addr:city:Guanambi,addr:postcode:46430-000,addr:street:Avenida Deolinda Martins,addr:suburb:Santo Antônio,amenity:restaurant","lat":-14.2328091,"lng":-42.779654},{"id":"8710148301","name":"Sacolão Santo Antônio","tags":"addr:city:Guanambi,addr:postcode:46430-000,addr:street:Rua Hermes da Fonseca,addr:suburb:Santo Antônio,shop:convenience","lat":-14.2330165,"lng":-42.7789713},{"id":"8710153321","name":"Restaurante Pimenta de Cheiro","tags":"addr:city:Guanambi,addr:housenumber:51,addr:postcode:46430-000,addr:street:Avenida Deolinda Martins,addr:suburb:Santo Antônio,amenity:restaurant","lat":-14.2343106,"lng":-42.7784409},{"id":"8710153330","name":"Restaurante e Lanchonete Ki Delícia","tags":"addr:city:Guanambi,addr:housenumber:554,addr:postcode:46430-000,addr:street:Avenida Deolinda Martins,addr:suburb:Santo Antônio,amenity:restaurant,mobile:+55 77 9 9137 3888","lat":-14.2347568,"lng":-42.7782891},{"id":"8710153332","name":"Isabela Monteiro Makeup Hair","tags":"addr:city:Guanambi,addr:postcode:46430-000,addr:street:Avenida Deolinda Martins,addr:suburb:Santo Antônio,mobile:+55 77 9 9701 1952,shop:beauty","lat":-14.2348445,"lng":-42.7782347},{"id":"8710687808","name":"NB Farma","tags":"addr:city:Guanambi,addr:housenumber:162,addr:postcode:46430-000,addr:street:Rua Manoel Vitorino,addr:suburb:Centro,amenity:pharmacy,healthcare:pharmacy,phone:+55 77 3451-3033","lat":-14.2301213,"lng":-42.7807132},{"id":"8710687810","name":"Farmácia Beija-flor","tags":"addr:city:Guanambi,addr:housenumber:150,addr:postcode:46430-000,addr:street:Rua Manoel Vitorino,addr:suburb:Centro,amenity:pharmacy,healthcare:pharmacy,mobile:+557734512283","lat":-14.2300272,"lng":-42.7806999},{"id":"8712933699","tags":"amenity:car_wash","lat":-14.2237875,"lng":-42.7778819},{"id":"8712962600","name":"Universidade Aberta do Brasil","tags":"addr:city:Guanambi,addr:housenumber:146,addr:postcode:46430-000,addr:street:Avenida Deolinda Martins,amenity:university,operator:Universidade Federal da Bahia,short_name:UAB,website:https://sead.ufba.br/","lat":-14.2320323,"lng":-42.7803634},{"id":"8737211299","name":"Supermercado Arcanjo","tags":"addr:city:Guanambi,addr:postcode:46430-000,addr:street:Avenida Joaquim Chaves,addr:suburb:Santo Antônio,shop:convenience","lat":-14.2335034,"lng":-42.7765186},{"id":"8743868730","name":"Liria da Feijoada","tags":"addr:street:Avenida Governador Valdir Pires,amenity:restaurant,cuisine:regional,outdoor_seating:yes,phone:+55 77 3451-5054,takeaway:yes","lat":-14.2255435,"lng":-42.7916565},{"id":"8744095538","tags":"amenity:bar","lat":-14.2209368,"lng":-42.7949902},{"id":"8744095584","name":"Sacolão e Mercearia Vieira","tags":"addr:city:Guanambi,addr:postcode:46430-000,addr:street:Avenida Governador Valdir Pires,shop:convenience","lat":-14.2249767,"lng":-42.7932739},{"id":"8744095598","name":"mercearia Nakita","tags":"addr:city:Guanambi,addr:postcode:46430-000,addr:street:Avenida Governador Valdir Pires,shop:convenience","lat":-14.2249491,"lng":-42.7927666},{"id":"8744095599","name":"Supermercado Vieira","tags":"addr:city:Guanambi,addr:postcode:46430-000,addr:street:Avenida Governador Valdir Pires,shop:supermarket","lat":-14.2248653,"lng":-42.7936158},{"id":"8744301277","name":"Supermercado Leal","tags":"shop:convenience","lat":-14.2324029,"lng":-42.7847756},{"id":"8798090384","name":"Salão Leiliane","tags":"addr:city:Guanambi,addr:postcode:46460-000,addr:street:Rua Leonor Freitas,phone:+55 77 9 9902 6978,shop:beauty","lat":-14.2086611,"lng":-42.7629358},{"id":"8853830453","name":"Beleza Spress e Agilize","tags":"beauty:hair;cosmetics,shop:beauty","lat":-14.2361471,"lng":-42.7770552},{"id":"8857657131","name":"Pizzaria Mama Sinhá","tags":"amenity:restaurant,cuisine:pizza,outdoor_seating:yes,takeaway:yes","lat":-14.218823,"lng":-42.7803337},{"id":"8857657138","name":"Krakatoa Bar e Cervejaria","tags":"amenity:bar,outdoor_seating:yes","lat":-14.2188441,"lng":-42.7802978},{"id":"8857657157","name":"Performance Acadêmia","tags":"addr:housenumber:186,addr:postcode:46430000,addr:street:Avenida Guanabara,leisure:fitness_centre","lat":-14.2202316,"lng":-42.7797039},{"id":"8863570017","name":"Salão Novo Visual","tags":"addr:postcode:46430-000,addr:street:Rua Dez de Novembro,addr:suburb:Centro,beauty:hair,shop:beauty","lat":-14.2278269,"lng":-42.7784537},{"id":"9027312065","name":"Escola de Cabelereiro Novo Visual Arte em Beleza","tags":"addr:city:Guanambi,addr:postcode:46430-000,addr:street:Travessa Osvaldo Cruz,addr:suburb:Centro,amenity:school,training:hairdressing","lat":-14.2236075,"lng":-42.7828999},{"id":"9027312085","name":"Nair Salão de Beleza","tags":"addr:city:Guanambi,addr:housenumber:11,addr:postcode:46430-000,addr:street:Travessa Osvaldo Cruz,addr:suburb:Centro,beauty:hair,phone:+55 77 3451 4148,shop:beauty","lat":-14.2238598,"lng":-42.7831162},{"id":"9029185863","tags":"addr:city:Guanambi,addr:housenumber:19,addr:postcode:46430-000,addr:street:Rua Rio de Janeiro,addr:suburb:Centro,amenity:cafe","lat":-14.2230419,"lng":-42.7824246},{"id":"9029185868","name":"Farmácia São Roque","tags":"addr:city:Guanambi,addr:housenumber:446,addr:postcode:46430-000,addr:street:Rua Casemiro de Abreu,addr:suburb:Centro,amenity:pharmacy,dispensing:yes,healthcare:pharmacy,phone:+55 77 3451 2965","lat":-14.2228495,"lng":-42.7822918},{"id":"9029202695","name":"Farmácia Básica","tags":"addr:city:Guanambi,addr:street:Rua Alto da Boa Vista,amenity:pharmacy,dispensing:no,healthcare:pharmacy","lat":-14.2231436,"lng":-42.7832771},{"id":"9029288091","name":"Escola Passo a Passo","tags":"amenity:school","lat":-14.2243235,"lng":-42.7815822},{"id":"9046296663","name":"Farrmácia Saúde","tags":"addr:city:Guanambi,addr:housenumber:21,addr:postcode:46430-000,addr:street:Rua 2 de Julho,addr:suburb:Centro,amenity:pharmacy,dispensing:yes,healthcare:pharmacy,phone:+557734515068","lat":-14.2275683,"lng":-42.7796537},{"id":"9046296672","tags":"shop:convenience","lat":-14.2277898,"lng":-42.7786583},{"id":"9254795443","name":"Restaurante Cheiro Verde","tags":"addr:city:Guanambi,addr:housenumber:960,addr:postcode:46430-000,addr:suburb:São Francisco,amenity:restaurant,contact:instagram:https://instagram.com/novocheiroverde?utm_medium=copy_link,contact:whatsapp:https://api.whatsapp.com/send/?phone=5577999665383&text&app_absent=0,cuisine:regional,delivery:yes,level:1,mobile:+55 77999665383,outdoor_seating:yes,phone:+55 7791001898,self_service:yes,takeaway:yes,website:https://linktr.ee/restaurantecheiroverde,wheelchair:limited","lat":-14.2183307,"lng":-42.7742493},{"id":"9443429307","name":"Restaurante do Chef","tags":"amenity:restaurant,mobile:+55 77 9 9848 4783; +55 77 9 9801 9399","lat":-14.2142771,"lng":-42.7630256},{"id":"4482519618","name":"Elly Restaurante","tags":"addr:city:Guanambi,addr:housenumber:2860,addr:postcode:46430-000,addr:street:Avenida Prefeito José Neves,amenity:restaurant,phone:+55 77 3451 3652","lat":-14.2328258,"lng":-42.7668994},{"id":"10307698556","name":"Divino Sabor Restaurante","tags":"amenity:restaurant","lat":-14.2356146,"lng":-42.7668893},{"id":"10311559801","name":"Jaq Supermercado","tags":"contact:mobile:+5577999684370,level:0,shop:supermarket","lat":-14.2370691,"lng":-42.7625712},{"id":"10311559807","name":"Panificadora Ló e Supermercado","tags":"addr:city:Guanambi,addr:postcode:46430-000,addr:street:Avenida Mato Grosso do Sul,addr:suburb:Brasília,contact:mobile:+5577999092185,level:0,shop:supermarket","lat":-14.2342351,"lng":-42.7644213},{"id":"10311560212","name":"Lolla Beleza Inteligente","tags":"addr:city:Guanambi,addr:housenumber:382,addr:postcode:46430-000,addr:street:Avenida Mato Grosso do Sul,addr:suburb:Brasília,beauty:hair,contact:instagram:https://instagram.com/lolla_beleza?igshid=YmMyMTA2M2Y=,contact:whatsapp:https://api.whatsapp.com/send?phone=5577999608563,level:0,shop:beauty","lat":-14.2359547,"lng":-42.763449},{"id":"10316614419","name":"Supermercado Fialho 2","tags":"addr:housenumber:79,addr:street:Rua Goiás,contact:mobile:+5577992105866,shop:supermarket","lat":-14.2376403,"lng":-42.7694334},{"id":"10544284740","name":"Restaurante Irmãos Unidos","tags":"amenity:restaurant","lat":-14.2064855,"lng":-42.7615216},{"id":"10544284747","name":"Dom Carrera","tags":"amenity:restaurant,contact:facebook:https://l.instagram.com/?u=http%3A%2F%2Fwww.facebook.com%2Fdoncarreiragbi%2F&e=AT1KAvr2bx0KXbtWXDEhyFEQHZ7yaUIfCVawD5kCv25D0J-z0xtdaTt_EZZZwrxMHWbENdVhrQ8e0cTML-5Ld8nDclRYVugjlianQA,contact:instagram:https://www.instagram.com/doncarreiragbi/,contact:mobile:+55 77 9 9874 3527,cuisine:pizza","lat":-14.2046876,"lng":-42.7603551}]