[{"id":"3115589441","name":"Praça Barão do Rio Branco","tags":"leisure:park","lat":-14.8519653,"lng":-40.8389846},{"id":"4232530193","name":"Escola Estadual Nossa Senhora Aparecia","tags":"addr:street:Santa Cecilia,amenity:school","lat":-14.8400138,"lng":-40.8471161},{"id":"4312414592","name":"Pizzaria Della Mama","tags":"addr:street:Avenida São Geraldo,amenity:restaurant","lat":-14.848578,"lng":-40.8300037},{"id":"4312459189","name":"77 ª CIPM","tags":"addr:street:Rua 7 de Setembro,amenity:police,operator:Polícia Militar da Bahia,operator:short:PMBA,operator:wikidata:Q10351014,operator:wikipedia:pt:Polícia Militar de Alagoas","lat":-14.8507,"lng":-40.8400269},{"id":"4312459289","name":"Colégio Adelmario Pinheiro","tags":"addr:street:Professora Maria Leal,amenity:school","lat":-14.8473371,"lng":-40.8296781},{"id":"4380596991","name":"Hospital das Clinicas - HCC","tags":"amenity:hospital,name:pt:Hospital das Clinicas - HCC","lat":-14.853117,"lng":-40.8384152},{"id":"4578392291","name":"Posto Manancial","tags":"addr:street:Rua Euclides Dantas,amenity:car_wash,name:pt:Posto Manancial","lat":-14.8496382,"lng":-40.8468124},{"id":"4986685392","name":"Golfinho Aquários","tags":"pet:fish,shop:pet","lat":-14.8529905,"lng":-40.8401889},{"id":"5885342186","name":"Comercial Arco Íris","tags":"addr:street:Rua Nilo Peçanha,shop:supermarket","lat":-14.8485793,"lng":-40.8441986},{"id":"5892704986","name":"Jose antonio cardoso mercadinho cardoso","tags":"addr:street:Avenida Pará,shop:supermarket","lat":-14.8469581,"lng":-40.8545426},{"id":"5892707185","name":"Mogiano com gen alimentícios","tags":"addr:street:Avenida Amazonas,shop:supermarket","lat":-14.844649,"lng":-40.8582505},{"id":"5892810887","name":"Andréia brito oliveira","tags":"shop:supermarket","lat":-14.8495144,"lng":-40.8304373},{"id":"5892810888","name":"Evelyn peixoto mercado miro","tags":"addr:street:Rua Grimaldo Estrela,shop:supermarket","lat":-14.8413803,"lng":-40.8406567},{"id":"5901778086","name":"Super sales almeida","tags":"addr:street:Avenida Lapa,shop:supermarket","lat":-14.8504655,"lng":-40.8587368},{"id":"5901778385","name":"Noe oliveira black street","tags":"addr:street:Avenida Barrreiras,shop:supermarket","lat":-14.8534576,"lng":-40.8605771},{"id":"5902386486","name":"Ednaldo alves boa massa","tags":"addr:street:Rua A,shop:supermarket","lat":-14.8520978,"lng":-40.8637594},{"id":"5902451586","name":"I c silva santos me neca utilidades","tags":"addr:street:Rua Nova Cidade,shop:supermarket","lat":-14.8388947,"lng":-40.8582473},{"id":"5903753486","tags":"shop:supermarket","lat":-14.8504547,"lng":-40.842746},{"id":"5904054785","name":"SS Costa","tags":"addr:street:Travessa Lauro de Freitas,shop:supermarket","lat":-14.8522609,"lng":-40.8420352},{"id":"5904561585","name":"Mercearia renys renival","tags":"shop:supermarket","lat":-14.8386114,"lng":-40.857349},{"id":"5904561586","name":"Eliene ribeiro do santos mercado eleien","tags":"addr:street:Rua m,shop:supermarket","lat":-14.8390752,"lng":-40.8591047},{"id":"5904592986","name":"Diogenes sampaio santos mercado sampaio","tags":"addr:street:Rua 6,shop:supermarket","lat":-14.8522186,"lng":-40.8638983},{"id":"5906163285","name":"Alcionita freire mercado petropolis","tags":"addr:street:Avenida Itabuna,shop:supermarket","lat":-14.8459127,"lng":-40.8528046},{"id":"5906188686","name":"Alcionita mercado peteopolis","tags":"addr:street:Avenida Itabuna,shop:supermarket","lat":-14.8453091,"lng":-40.8514435},{"id":"5906203985","name":"Jorge alves leite mercado jomarc","tags":"addr:street:Avenida Caetité,shop:supermarket","lat":-14.8483965,"lng":-40.8558497},{"id":"5907941086","name":"Gleydson rocha supermarcado leve mas","tags":"addr:street:Rua Pedro Alvares Cabral,shop:supermarket","lat":-14.8418964,"lng":-40.8508361},{"id":"5907953188","name":"Marcio venicius vira lata pet shop","tags":"addr:street:Avenida Pará,shop:pet","lat":-14.8468158,"lng":-40.8561852},{"id":"5908060086","name":"Hermes silva Assunção","tags":"addr:street:Rua Eduardo Daltro,shop:supermarket","lat":-14.849879,"lng":-40.8297514},{"id":"5911581485","tags":"addr:street:Avenida Centenário,shop:supermarket","lat":-14.8503328,"lng":-40.8427686},{"id":"5913794785","tags":"shop:supermarket","lat":-14.8500232,"lng":-40.8404842},{"id":"5913794885","tags":"shop:convenience","lat":-14.8508361,"lng":-40.8424921},{"id":"5915886486","name":"G bom supermercado","tags":"addr:street:Avenida Rondônia,shop:supermarket","lat":-14.8434902,"lng":-40.8564509},{"id":"5915982685","name":"Dalva do santos rodrigues mercado da dalva","tags":"addr:street:Rua Euricledes Zerbini,shop:supermarket","lat":-14.8437399,"lng":-40.8621173},{"id":"5916046085","name":"Supermercado do gordo","tags":"addr:street:Rua A,shop:supermarket","lat":-14.8506641,"lng":-40.865208},{"id":"5922386585","name":"Merc teixeira","tags":"addr:street:Travessa Ceará,name:pt:Merc teixeira de souza,shop:supermarket","lat":-14.8528989,"lng":-40.8528679},{"id":"5931305585","name":"Adamilde carvalho prado e gilmar","tags":"addr:street:Rua B,name:en:E gilmar mercado pinguim,shop:supermarket","lat":-14.8395677,"lng":-40.845822},{"id":"5931329885","name":"Diorgenes sampaio santos","tags":"addr:street:Rua Nilton Gonçalves,name:pt:Diorgenes sampaio santos super sampaio,shop:supermarket","lat":-14.8426703,"lng":-40.8452399},{"id":"5933880691","name":"Gilcelia ribeiro nolasco","tags":"addr:street:Rua Olávo Ramos,name:pt:Gilcelia ribeiro nolasco mercadinho nolasco,shop:supermarket","lat":-14.8400909,"lng":-40.8409727},{"id":"5933880692","name":"Comercio de generos alimentícios Pereira","tags":"addr:street:Rua Eduardo Daltro,shop:supermarket","lat":-14.8465125,"lng":-40.8323659},{"id":"5933880693","name":"Baianinho pet shop","tags":"addr:street:Avenida Presidente Vargas,shop:pet","lat":-14.8525483,"lng":-40.8295441},{"id":"8894930085","name":"Mercado Progresso","tags":"addr:city:Vitória da Conquista,addr:housenumber:2,addr:postcode:40352000,addr:street:Rua I,addr:suburb:Urbis IV,opening_hours:07:00-19:00,payment:cash:yes,payment:credit_cards:yes,payment:debit_cards:yes,payment:mastercard:yes,phone:+55 77 3423 7464,shop:supermarket","lat":-14.8445504,"lng":-40.8684119},{"id":"9422132119","name":"Rancho Carro de Boi","tags":"amenity:restaurant","lat":-14.8508465,"lng":-40.8402682},{"id":"9422132120","tags":"amenity:restaurant","lat":-14.8533973,"lng":-40.8404451},{"id":"9422132121","name":"Estação Herzem Gusmão","tags":"amenity:bus_station","lat":-14.8533316,"lng":-40.8411097},{"id":"9422132318","tags":"amenity:restaurant","lat":-14.8497568,"lng":-40.8392797},{"id":"9422132518","tags":"amenity:bar","lat":-14.8501294,"lng":-40.8406442},{"id":"9452082218","tags":"amenity:restaurant","lat":-14.8511984,"lng":-40.8424541},{"id":"9633891617","name":"Genecy","tags":"amenity:restaurant","lat":-14.8522109,"lng":-40.8313921}]