[{"id":"1448470658","name":"Viação Novo Horizonte - Ponto de Apoio","tags":"amenity:bus_station","lat":-14.2039836,"lng":-41.6578627},{"id":"1779368041","name":"Viação Novo Horizonte - Garagem de Brumado","tags":"amenity:parking,parking:surface","lat":-14.2039586,"lng":-41.6575672},{"id":"1833527419","name":"Polícia Rodoviária Federal","tags":"amenity:police,police:traffic_police","lat":-14.2272923,"lng":-41.6331738},{"id":"1875255007","name":"Solar","tags":"shop:supermarket","lat":-14.2032982,"lng":-41.6598544},{"id":"5829130785","name":"Comercial luar do sertão","tags":"addr:street:Rua sabino,shop:supermarket","lat":-14.1997701,"lng":-41.6533401},{"id":"5829168487","name":"Lourival silva","tags":"addr:street:Rua sabino,name:pt:Lourival silva comercial bom sucesso,shop:supermarket","lat":-14.1998328,"lng":-41.6528066},{"id":"6170187019","name":"Supermercado Silva","tags":"shop:supermarket","lat":-14.2020517,"lng":-41.6593653}]