[{"id":"6427982185","name":"3313 merc matheu s","tags":"shop:supermarket","lat":-14.6344565,"lng":-39.5572768},{"id":"6427982186","name":"6075 Maria damiana","tags":"shop:supermarket","lat":-14.636567,"lng":-39.5555192},{"id":"6427982385","name":"69 a Lúcia bispo de Sousa","tags":"name:en:Sup família,shop:supermarket","lat":-14.6372812,"lng":-39.555712},{"id":"6427982885","name":"4066 sacolao do povo","tags":"shop:supermarket","lat":-14.6374928,"lng":-39.5555482},{"id":"6427983185","name":"5085 welton neres dos santos","tags":"addr:street:Avenida são pedro,shop:supermarket","lat":-14.6350508,"lng":-39.5562406},{"id":"6428122185","name":"Supermercado o Barateiro","tags":"alt_name:6326 a m m de Jesus minimerca,shop:supermarket","lat":-14.6379993,"lng":-39.5537173},{"id":"6428366286","name":"3527 nivaldo barbosa","tags":"shop:supermarket","lat":-14.6398271,"lng":-39.5512591},{"id":"6428456986","name":"Mercadinho e Panificadora GR","tags":"alt_name:6710 Gilvan ramos de oliveira,shop:supermarket","lat":-14.634465,"lng":-39.5537111},{"id":"6428467785","name":"Supermercado Terra do Sol","tags":"alt_name:732 Cármen vital de Oliveira,shop:supermarket","lat":-14.6363737,"lng":-39.5526348},{"id":"6428467786","name":"1565 f b dos Santos","tags":"addr:street:Rua Silvério,shop:supermarket","lat":-14.6344811,"lng":-39.5542257}]