[{"id":"3690743648","name":"Colégio Deputado José Rocha","tags":"addr:city:Matina,addr:street:Rua Primeiro de Janeiro,amenity:school","lat":-13.9078326,"lng":-42.8400203},{"id":"3690743662","tags":"addr:city:Matina,amenity:hospital,emergency:yes","lat":-13.9102692,"lng":-42.8433483},{"id":"3690743663","tags":"addr:city:Matina,amenity:school","lat":-13.9098824,"lng":-42.8435211},{"id":"3690743666","tags":"addr:city:Matina,amenity:school","lat":-13.9107686,"lng":-42.8446585},{"id":"3690747945","name":"Banco do Brasil","tags":"addr:city:Matina,amenity:bank,atm:no","lat":-13.9110069,"lng":-42.8455805},{"id":"3690747946","name":"Samu","tags":"addr:city:Matina,amenity:hospital","lat":-13.908287,"lng":-42.8454118}]