[{"id":"3675837868","name":"Lava jato","tags":"amenity:car_wash","lat":-13.5516468,"lng":-42.4858426},{"id":"3675837870","name":"Ginásio de esportes","tags":"leisure:sports_centre","lat":-13.5568931,"lng":-42.4905472},{"id":"3675837873","name":"Bar do Helio","tags":"amenity:bar","lat":-13.5528828,"lng":-42.4853973},{"id":"3675837875","name":"Colégio Estadual de Tanque Novo","tags":"amenity:school","lat":-13.5514278,"lng":-42.4859928},{"id":"3675837877","name":"Delegacia de Polícia Cívil","tags":"amenity:police","lat":-13.5504833,"lng":-42.4867492},{"id":"3675837878","tags":"amenity:post_office","lat":-13.5503732,"lng":-42.4868342},{"id":"3675837880","name":"Centro Educacional Prof. Alzira Alves Carneiro - Cepaac","tags":"amenity:school","lat":-13.5490759,"lng":-42.4869196},{"id":"3675837906","name":"Biblioteca Pública","tags":"amenity:library","lat":-13.5473097,"lng":-42.4893368},{"id":"3675837908","name":"Bradesco","tags":"amenity:bank","lat":-13.547844,"lng":-42.4901464},{"id":"3675837909","name":"Banco do Brasil","tags":"amenity:bank","lat":-13.5480297,"lng":-42.4900234},{"id":"3675837911","name":"Supermercado Irmãos Ribeiro","tags":"shop:supermarket","lat":-13.5468087,"lng":-42.4907699},{"id":"3678042369","name":"Escola Municipal Prof. Dulce Viana Cardoso","tags":"addr:city:Tanque Novo,amenity:school","lat":-13.5446794,"lng":-42.4922829},{"id":"3678380308","name":"Grupo Escolar Paulinho Cardoso Pimenta","tags":"addr:city:Tanque Novo,addr:street:Travessa dos Pimentas 1,amenity:school","lat":-13.5523195,"lng":-42.4832913},{"id":"3678380309","tags":"addr:city:Tanque Novo,addr:street:Travessa dos Pimentas 1,amenity:hospital","lat":-13.5526716,"lng":-42.483683},{"id":"3678380317","tags":"addr:city:Tanque Novo,addr:street:Rua Ângelo Marques da silva,amenity:hospital,emergency:yes","lat":-13.5503812,"lng":-42.491796},{"id":"3678380540","name":"Escola Agrícola","tags":"addr:city:Tanque Nono,amenity:school","lat":-13.5426457,"lng":-42.4851619},{"id":"3678380546","name":"Escola Municipal do Bairro Tio Juca","tags":"addr:city:Tanque Novo,addr:street:Avenida Brasil,addr:suburb:Tio Juca,amenity:school","lat":-13.5454385,"lng":-42.4807652}]