[{"id":"3799735089","name":"Restaurante e Pizzaria da Rose","tags":"addr:city:São Desidério,addr:housenumber:170,addr:postcode:47820000,addr:street:R. Custódia Guimarães de Souza,addr:suburb:Tangará,amenity:restaurant,cuisine:pizza;comida_caseira;lanches;tira_gotos;bebidas_em_geral,phone:+5577981091874,website:https://instagram.com/restaurantepizzariadarose","lat":-12.3567809,"lng":-44.9789189},{"id":"4848178321","name":"Edivan arcajo de abreu comercial cereais","tags":"addr:street:JK,name:pt:Edivan arcajo de abreu comercial cereais,shop:supermarket","lat":-12.3615238,"lng":-44.9748039},{"id":"4848178322","name":"Leo guedes comercial araujo","tags":"addr:street:avenida jk,shop:supermarket","lat":-12.3571598,"lng":-44.9787281},{"id":"5520561421","name":"Rodoviária de São Desidério","tags":"amenity:bus_station,bus:yes,public_transport:station","lat":-12.3634488,"lng":-44.9749518},{"id":"5567348765","name":"Polícia Militar","tags":"amenity:police","lat":-12.361105,"lng":-44.9751152},{"id":"5840511439","tags":"amenity:parking","lat":-12.35865,"lng":-44.9805255},{"id":"9733388499","name":"Praça Abelardo Alencar","tags":"addr:city:São Desidério,addr:postcode:47820000,addr:street:Avenida JK,addr:suburb:Centro,leisure:park","lat":-12.3615763,"lng":-44.9742242},{"id":"9733401749","name":"Quadra de Areia","tags":"leisure:park","lat":-12.3632448,"lng":-44.9723045},{"id":"9733407217","name":"Praça Emerson Barbosa","tags":"addr:city:São Desidério,addr:postcode:47820000,addr:suburb:Centro,leisure:park","lat":-12.3645534,"lng":-44.9766782}]