[{"id":"1416739568","name":"B. do Brasil","tags":"alt_name:Banco do Brasil,amenity:bank,atm:yes,name:en:Banco do Brasil,name:pt:Banco do Brasil","lat":-13.0068538,"lng":-41.3705145},{"id":"1416739569","name":"Café.com","tags":"amenity:cafe","lat":-13.0064987,"lng":-41.3701967},{"id":"1416739570","name":"Pizza D'Lucas","tags":"amenity:restaurant,cuisine:italian","lat":-13.0058315,"lng":-41.3700595},{"id":"1416739571","name":"Posto Serra Verde","tags":"amenity:restaurant","lat":-13.0024541,"lng":-41.3789916},{"id":"1416739652","name":"Sabor e Arte","tags":"amenity:restaurant,cuisine:regional","lat":-13.0065716,"lng":-41.3697585},{"id":"1852261186","name":"Museu do Garimpo Vivo","tags":"tourism:museum","lat":-12.9964718,"lng":-41.3545012},{"id":"1852346055","name":"Est. Museu do Garimpo Vivo","tags":"amenity:parking,parking:surface","lat":-12.993356,"lng":-41.353087},{"id":"1880889485","name":"Est. Pousada Refúgio na Serra","tags":"amenity:parking,parking:surface","lat":-13.0042406,"lng":-41.3688656},{"id":"4557924990","name":"Pizza da Garagem","tags":"amenity:restaurant,cuisine:pizza,internet_access:wlan","lat":-13.0049133,"lng":-41.3692386},{"id":"6437388089","name":"Escolas Reunidas Dr. Rodrigues Lima","tags":"amenity:school","lat":-13.0053015,"lng":-41.3723147},{"id":"6437388091","name":"Delegacia de Mucugê","tags":"amenity:police","lat":-13.0063862,"lng":-41.3689676},{"id":"6437388287","name":"Iphome Pizzaria","tags":"amenity:restaurant","lat":-13.0051442,"lng":-41.3731117},{"id":"6439962487","name":"Deguste Delicatessen","tags":"amenity:cafe,internet_access:wlan","lat":-13.0054246,"lng":-41.372133},{"id":"6439962488","name":"Bar de Rosa","tags":"amenity:bar","lat":-13.0047249,"lng":-41.3727923},{"id":"6439962490","name":"O Matuto","tags":"amenity:restaurant,internet_access:wlan,opening_hours:Mo-Sa 18:30-23:30","lat":-13.0068332,"lng":-41.3700902},{"id":"6439962494","name":"Correios","tags":"amenity:post_office","lat":-13.006854,"lng":-41.3701119},{"id":"6439962495","name":"Mercadinho Gruli","tags":"shop:supermarket","lat":-13.0069436,"lng":-41.3701886},{"id":"6439962785","name":"Monte Serrat","tags":"amenity:restaurant,cuisine:regional,email:monteserrat@gmail.com,internet_access:wlan,opening_hours:Mo-Su 11:30-22:00,operator:Darly Pimentel,phone:+55 75 9 9121-0781","lat":-13.0059911,"lng":-41.3685559},{"id":"6439962786","name":"Mistura 80","tags":"amenity:bar,opening_hours:Mo-Su 10:30-13:30","lat":-13.0066728,"lng":-41.370278},{"id":"6439962787","name":"Bradesco","tags":"amenity:bank","lat":-13.0066901,"lng":-41.3702295},{"id":"6439962791","name":"Café.com","tags":"amenity:cafe","lat":-13.006694,"lng":-41.3700969},{"id":"6441381894","name":"Academia Fitness & Saúde","tags":"leisure:fitness_centre","lat":-13.0071994,"lng":-41.3710707},{"id":"6441382588","name":"Oliveira","tags":"name:pt:Supermercado Oliveira,shop:supermarket","lat":-13.0064598,"lng":-41.3708554},{"id":"6441383586","name":"Museu do Garimpo","tags":"name:pt:Museu do Garimpo e Acervo Público,tourism:museum","lat":-13.0074871,"lng":-41.3697791},{"id":"6441383592","name":"Farmácia Mucugê","tags":"amenity:pharmacy","lat":-13.0063836,"lng":-41.369813},{"id":"6441874486","name":"Cemitério Bizantino","tags":"tourism:attraction","lat":-13.0072468,"lng":-41.376786},{"id":"6441879586","name":"Parada da Emtram","tags":"amenity:bus_station","lat":-13.0066757,"lng":-41.3703513},{"id":"6441886686","name":"Parada da Cidade Sol","tags":"amenity:bus_station","lat":-13.0053148,"lng":-41.3722493},{"id":"6550553786","name":"Início da trilha do Córrego de Pedras","tags":"tourism:attraction","lat":-12.9996223,"lng":-41.3923306},{"id":"7006266214","tags":"amenity:school","lat":-13.0055602,"lng":-41.3745753},{"id":"9796554917","name":"Poço redondo","tags":"name:es:Poso redondo,tourism:attraction","lat":-12.9650315,"lng":-41.3798825}]