[{"id":"3828348460","tags":"amenity:school","lat":-13.8548073,"lng":-39.7436454},{"id":"3828348462","tags":"amenity:school","lat":-13.8599843,"lng":-39.7422077},{"id":"3828348464","tags":"amenity:police","lat":-13.8570414,"lng":-39.7428354},{"id":"3828348465","tags":"amenity:school","lat":-13.8526979,"lng":-39.7446164},{"id":"6044789299","name":"Jaldo calheira santos","tags":"addr:street:Rua dobrando,shop:pet","lat":-13.8568184,"lng":-39.7450252},{"id":"6044789390","name":"Sup Jr apuarema","tags":"addr:street:Rua Otacílio Pinheiro,shop:supermarket","lat":-13.8567965,"lng":-39.7447398},{"id":"6044789391","name":"Rafaela souza santos","tags":"addr:street:Rua Otacílio Pinheiro,shop:supermarket","lat":-13.8561229,"lng":-39.7456212},{"id":"6044789392","name":"Taiane marques santos","tags":"addr:street:Bairro novo,shop:supermarket","lat":-13.8538911,"lng":-39.7464067},{"id":"6044789393","name":"Murilo","tags":"shop:supermarket","lat":-13.8560365,"lng":-39.7440545},{"id":"6044827885","name":"Eliosmar Sampaio","tags":"addr:street:Rua Otacílio Pinheiro,shop:supermarket","lat":-13.8561919,"lng":-39.7454752},{"id":"6754361786","name":"4568 vanilza amparo de oliveira","tags":"name:en:Cesta do povao,shop:supermarket","lat":-13.855674,"lng":-39.7463659},{"id":"6754361787","name":"7106 e li Fernandes","tags":"shop:supermarket","lat":-13.8554051,"lng":-39.7422149},{"id":"6754365986","name":"6570 a.eunicio de Sousa","tags":"shop:supermarket","lat":-13.864172,"lng":-39.7455942}]