[{"id":"5300853978","name":"Mercado Municipal","tags":"shop:supermarket","lat":-13.6041504,"lng":-39.492228},{"id":"6443960086","name":"3300 mercado centro teolandia","tags":"shop:supermarket","lat":-13.6029878,"lng":-39.4923233},{"id":"6511531889","name":"1154 dienefen santos perreira","tags":"name:en:Sup vaz,shop:supermarket","lat":-13.6033746,"lng":-39.4917556},{"id":"6511531890","name":"2264 jildacira da silva","tags":"shop:supermarket","lat":-13.6036464,"lng":-39.4940487},{"id":"6511547585","name":"6051 João Batista","tags":"shop:supermarket","lat":-13.6005894,"lng":-39.4910164},{"id":"6757018985","name":"7185 jair pinheiro da silva","tags":"name:en:Jair gás,shop:supermarket","lat":-13.6026165,"lng":-39.4921699},{"id":"6757021485","name":"5683 Fernando José costa","tags":"shop:supermarket","lat":-13.5970168,"lng":-39.4919583}]