[{"id":"10712653860","name":"Restaurante Paraíso","tags":"amenity:restaurant","lat":-11.6696176,"lng":-40.6060963},{"id":"10712653862","name":"Canela Conveniência","tags":"shop:convenience","lat":-11.6699328,"lng":-40.6063646},{"id":"10712653871","name":"Canela Conveniência","tags":"shop:convenience","lat":-11.6729258,"lng":-40.6062184},{"id":"10712653872","name":"Farmácia Mais Saúde Medicamentos","tags":"amenity:pharmacy,healthcare:pharmacy","lat":-11.6731956,"lng":-40.6062581},{"id":"10712653878","name":"Escola João Paulo II","tags":"amenity:school","lat":-11.6699281,"lng":-40.6069016},{"id":"10712653893","tags":"leisure:fitness_centre","lat":-11.6730417,"lng":-40.606191}]