[{"id":"1348206942","name":"Escola Mundai","tags":"amenity:school","lat":-16.4086795,"lng":-39.0516199},{"id":"4227395513","name":"Memorial da Epopéia do Descobrimento","tags":"tourism:attraction,wheelchair:yes,wikidata:Q56693700","lat":-16.4292445,"lng":-39.0609696},{"id":"6134603785","name":"Haddasa e Frossad","tags":"addr:street:Rua da Embaúba,shop:supermarket","lat":-16.3936784,"lng":-39.041466},{"id":"6134781941","name":"Farmácia Taperapuan","tags":"addr:street:Avenida Beira Mar,amenity:pharmacy,healthcare:pharmacy","lat":-16.3946086,"lng":-39.0405829},{"id":"6851627620","name":"Restaurante Estrela do Mar","tags":"amenity:restaurant","lat":-16.398868,"lng":-39.0418532},{"id":"6851627625","name":"Barraca Malibu","tags":"amenity:restaurant","lat":-16.400654,"lng":-39.0423055},{"id":"6851647807","name":"Restaurante O Gauchão","tags":"amenity:restaurant","lat":-16.4299656,"lng":-39.0638287}]