[{"id":"1018917598","name":"Rondelli","tags":"shop:supermarket","lat":-16.4422133,"lng":-39.0624397},{"id":"1018917617","name":"Porto Import","tags":"addr:housenumber:304,addr:street:Avenida dos Navegantes,shop:supermarket","lat":-16.4446079,"lng":-39.0644002},{"id":"1033235135","name":"Centro Educacional Osmar Oliveira Silva","tags":"amenity:school","lat":-16.4512732,"lng":-39.0636331},{"id":"1107498405","tags":"amenity:restaurant","lat":-16.4449365,"lng":-39.063295},{"id":"1107498420","tags":"amenity:bar","lat":-16.4450126,"lng":-39.0634482},{"id":"3074473308","name":"Restaurante Portinha","tags":"amenity:restaurant","lat":-16.4540959,"lng":-39.0644449},{"id":"4067549482","name":"Coveniência do Gaucho","tags":"shop:convenience","lat":-16.4547624,"lng":-39.0654399},{"id":"4067555393","name":"Restaurante da Japonesa","tags":"addr:housenumber:67,addr:street:Rua do Cais,amenity:restaurant,phone:+55 73 3288 2592","lat":-16.4550145,"lng":-39.0652079},{"id":"4067555394","name":"Salão de Beleza Gracinha","tags":"addr:housenumber:21,addr:street:Rua do Cais,phone:+55 73 3288 4915,shop:beauty","lat":-16.454972,"lng":-39.0649839},{"id":"4067557034","name":"vintage Salão e Estética","tags":"addr:housenumber:23,addr:street:Rua do Cais,shop:beauty","lat":-16.4549977,"lng":-39.0651073},{"id":"4227395505","name":"Farmácia D'Ajuda","tags":"addr:city:Porto Seguro,addr:housenumber:630 A,addr:street:Avenida dos Navegantes,amenity:pharmacy,phone:+55 73 3288 4554","lat":-16.4434851,"lng":-39.0669697},{"id":"4227395506","name":"Farmácias Santamaria","tags":"amenity:pharmacy,phone:+55 73 3288 4888","lat":-16.4435867,"lng":-39.0672607},{"id":"4227395511","name":"Mama's Buffet e Pizzaria","tags":"amenity:restaurant,cuisine:pizza","lat":-16.4433076,"lng":-39.0673452},{"id":"4227395523","name":"Restaurante Mirage","tags":"amenity:restaurant,cuisine:regional,outdoor_seating:yes,wheelchair:yes","lat":-16.442186,"lng":-39.0633635},{"id":"4408390416","name":"Pizzaria Amormio","tags":"amenity:restaurant,cuisine:italian_pizza;pasta,name:en:Pizzaria Amormio","lat":-16.4439337,"lng":-39.0623286},{"id":"4408390417","name":"Churrascaria & Pizzaria Navegantes","tags":"amenity:restaurant,cuisine:brazilian;regional;grill;pizza,name:en:Churrascaria & Pizzaria Navegantes","lat":-16.4447659,"lng":-39.0622891},{"id":"4408451000","name":"Restaurante Saborear","tags":"amenity:restaurant,cuisine:brazilian;regional,name:en:Restaurante Saborear","lat":-16.4483023,"lng":-39.0632873},{"id":"4408452991","name":"Point Açaí","tags":"amenity:cafe,cuisine:brazilian;cake,name:en:Point Açaí","lat":-16.4499551,"lng":-39.0642055},{"id":"4408452992","name":"Pizzaria Patente","tags":"amenity:restaurant,cuisine:pizza,name:en:Pizzaria Patente","lat":-16.4493785,"lng":-39.0649545},{"id":"4408452993","name":"Luso & Brasileira Restaurante","tags":"amenity:restaurant,cuisine:brazilian,name:en:Luso & Brasileira Restaurante","lat":-16.4479452,"lng":-39.0637913},{"id":"4408486726","name":"Grill & Cia","tags":"amenity:restaurant,cuisine:brazilian;burger;regional;sandwich;seafood,name:en:Grill & Cia","lat":-16.4452964,"lng":-39.06196},{"id":"4408486803","name":"Sucão Tropical","tags":"amenity:cafe,name:en:Sucão Tropical","lat":-16.4483892,"lng":-39.0625433},{"id":"4408486920","name":"Pizza Rao's","tags":"amenity:restaurant,cuisine:pizza,name:en:Pizza Rao's","lat":-16.4462315,"lng":-39.0626243},{"id":"4408486921","name":"Cafe HR","tags":"amenity:cafe,name:en:Cafe HR","lat":-16.4458097,"lng":-39.061632},{"id":"4408487000","name":"Tetha's Grill","tags":"amenity:restaurant,cuisine:grill,name:en:Tetha's Grill","lat":-16.4445916,"lng":-39.0621156},{"id":"4408491205","tags":"shop:convenience","lat":-16.4495689,"lng":-39.0635799},{"id":"4408514902","name":"O Popular","tags":"amenity:restaurant,cuisine:brazilian;regional,name:en:O Popular","lat":-16.4481876,"lng":-39.0634045},{"id":"4408515192","name":"Farmacia Vera Cruz","tags":"amenity:pharmacy,healthcare:pharmacy,name:en:Farmacia Vera Cruz","lat":-16.4486585,"lng":-39.0647974},{"id":"4408515193","name":"Pāo Companhia - Padaria & Creperia","tags":"amenity:cafe,name:en:Pāo Companhia - Padaria & Creperia","lat":-16.448141,"lng":-39.0643782},{"id":"4408516193","name":"Açaí do Neno","tags":"amenity:cafe,cuisine:brazilian;coffee_shop;pizza;sandwich,name:en:Açaí do Neno","lat":-16.4489181,"lng":-39.0650036},{"id":"4408519889","name":"Rabanete","tags":"amenity:restaurant,cuisine:brazilian;regional,name:en:Rabanete","lat":-16.4540202,"lng":-39.0642935},{"id":"4408530589","name":"Mr Trigo","tags":"amenity:cafe,name:en:Mr Trigo","lat":-16.4486378,"lng":-39.0630273},{"id":"5223601721","tags":"amenity:atm,opening_hours:24/7,operator:24 Horas","lat":-16.4456671,"lng":-39.062651},{"id":"5223628621","name":"Bradesco","tags":"amenity:bank","lat":-16.4509976,"lng":-39.0647685},{"id":"5226520425","name":"Farmácia Indiana","tags":"amenity:pharmacy","lat":-16.4449291,"lng":-39.0620576},{"id":"5676289061","name":"R a carvalho com lacn","tags":"addr:street:Rua 13 de Maio,name:en:Mini mercado cafe com pao,shop:supermarket","lat":-16.4488951,"lng":-39.0665297},{"id":"6078855585","name":"supermercado rondelli","tags":"shop:supermarket","lat":-16.4470592,"lng":-39.0666446},{"id":"6093902889","name":"Cambui da navegantes","tags":"addr:street:Avenida dos Navegantes,shop:supermarket","lat":-16.4448723,"lng":-39.0642859},{"id":"6247535489","name":"3751 r a carvalho com","tags":"shop:supermarket","lat":-16.4489416,"lng":-39.0664941},{"id":"6286780385","name":"Acpl sups","tags":"shop:supermarket","lat":-16.4490569,"lng":-39.0639517},{"id":"6388429585","name":"Valentino","tags":"addr:housenumber:100,addr:street:Estrada para Arraial d'Ajuda,amenity:restaurant,cuisine:italian_pizza,opening_hours:Mo-Su 18:00-23:00,phone:+55 73 999591063","lat":-16.4618652,"lng":-39.0618417},{"id":"6588819586","name":"7294 porto import distribuição","tags":"shop:supermarket","lat":-16.4429248,"lng":-39.0670834},{"id":"7241509251","name":"Balsa para Arraial D'ájuda","tags":"amenity:ferry_terminal,ferry:yes,public_transport:station","lat":-16.4543427,"lng":-39.0656145}]