[{"id":"3910941068","tags":"amenity:school","lat":-14.3171262,"lng":-39.3203317},{"id":"3910941083","tags":"amenity:school","lat":-14.3166685,"lng":-39.3243121},{"id":"3910941127","tags":"amenity:school","lat":-14.3177288,"lng":-39.3254655},{"id":"3910941134","tags":"amenity:hospital","lat":-14.3175472,"lng":-39.3228906},{"id":"3910941139","tags":"amenity:hospital","lat":-14.3178424,"lng":-39.3272435},{"id":"5703408622","name":"Jamily da silva supermercado pegue e pague","tags":"addr:street:Praça da Feira,shop:supermarket","lat":-14.31428,"lng":-39.3261435},{"id":"5703408623","name":"R do santos comercial rb","tags":"addr:street:Praça da Feira,shop:supermarket","lat":-14.3138307,"lng":-39.3263234},{"id":"5703408624","name":"A m mota do santos","tags":"addr:street:Avenida Presidente Getúlio Vargas,shop:supermarket","lat":-14.3136971,"lng":-39.3162654},{"id":"5703412822","name":"Ams costs quirino","tags":"shop:supermarket","lat":-14.3173657,"lng":-39.3183646},{"id":"5703416421","name":"M leide do santos","tags":"shop:supermarket","lat":-14.3174894,"lng":-39.3170424},{"id":"5703416422","name":"Elenildes mini mercado","tags":"addr:street:Castro alguma coisa,shop:supermarket","lat":-14.3113874,"lng":-39.326076},{"id":"5703416423","name":"J da silva correa supermercado armandao","tags":"addr:street:Rua manoel Gusmão,shop:supermarket","lat":-14.3051779,"lng":-39.3219195},{"id":"5703416424","name":"V n do santos novo mercado dois irmaos","tags":"addr:street:Rua do comércio,shop:supermarket","lat":-14.3083178,"lng":-39.289838},{"id":"5703417221","name":"Antonio franscisco","tags":"shop:supermarket","lat":-14.3142132,"lng":-39.3252824},{"id":"5711969021","name":"Marlene sanches","tags":"addr:street:Avenida Walter Passos,name:pt:Marlene sanches mercado super mar,shop:supermarket","lat":-14.3133462,"lng":-39.3196341},{"id":"5719792721","name":"A aguir comércio de bebidas","tags":"shop:supermarket","lat":-14.3135507,"lng":-39.3229557},{"id":"5723391422","name":"M amaral ribeiro mercado adonai","tags":"addr:street:Rua artur ribeiro,shop:supermarket","lat":-14.3110415,"lng":-39.3301424},{"id":"6046705485","name":"M Vaz perreira","tags":"addr:street:Avenida Vasco Neto,shop:supermarket","lat":-14.3116972,"lng":-39.323995},{"id":"6047168786","name":"R de j dos santos","tags":"addr:street:Rua Leonil Neves,shop:supermarket","lat":-14.3172279,"lng":-39.3227791},{"id":"6047168886","name":"Maiana evangelista dos santos","tags":"addr:street:Rua Leonil Neves,shop:pet","lat":-14.3172365,"lng":-39.3228409},{"id":"6520889687","name":"Joanice","tags":"shop:supermarket","lat":-14.313703,"lng":-39.3178683},{"id":"6520934586","name":"7181 rn magno de ubaitaba","tags":"addr:street:Avenida Vasco Neto,name:en:Atacadao dubai,shop:supermarket","lat":-14.3110626,"lng":-39.3240258},{"id":"6520936885","name":"2658 l b de Sousa bidu","tags":"name:en:Pague menos,shop:supermarket","lat":-14.310822,"lng":-39.3240349},{"id":"6695798586","name":"As de moraeis","tags":"shop:supermarket","lat":-14.3140796,"lng":-39.3254653},{"id":"6697821986","name":"7264 marquês cleito n","tags":"name:en:Mf bebidas,shop:supermarket","lat":-14.3175987,"lng":-39.3214309},{"id":"6697821987","name":"A c texeira perfumaria","tags":"shop:supermarket","lat":-14.3130975,"lng":-39.3239295},{"id":"6697821988","name":"2098 j Fagundes pereira","tags":"name:en:Mercado estrela,shop:supermarket","lat":-14.3135798,"lng":-39.32632},{"id":"6697824685","name":"7094 sheilla morais coelho","tags":"name:en:Gs mini mercado,shop:supermarket","lat":-14.3175776,"lng":-39.3205874},{"id":"6697824687","name":"7323 José Jorge costa","tags":"name:en:Comercial jm,shop:supermarket","lat":-14.3155623,"lng":-39.3276324},{"id":"6757964685","name":"7462 Helena de jesus","tags":"shop:supermarket","lat":-14.3072648,"lng":-39.320564},{"id":"6766003188","name":"7452 m das graças da silva","tags":"name:en:Bruna supermercado,shop:supermarket","lat":-14.3173156,"lng":-39.3224498},{"id":"6766031785","name":"7482 florisvaldo de Jesus","tags":"shop:supermarket","lat":-14.3070476,"lng":-39.3219332},{"id":"6766032085","name":"7218 gilson Ferreira do Rosário","tags":"shop:supermarket","lat":-14.319184,"lng":-39.3276017}]