[{"id":"3845353247","name":"Escola Municipal Engenheiro Cezar Rego","tags":"amenity:school","lat":-12.898637,"lng":-38.6609734},{"id":"3845409461","name":"Escola Municipal Porto dos Santos","tags":"amenity:school","lat":-12.9164903,"lng":-38.6289746},{"id":"3845410834","name":"Escola Municipal Dr José Viana Sampaio","tags":"amenity:school","lat":-12.9061922,"lng":-38.6679837},{"id":"3847079688","name":"Escola Municipal Antonieta Maria da Conceição de Oliveira","tags":"amenity:school","lat":-12.9057278,"lng":-38.635415},{"id":"3847146302","name":"Escola Municipal Dr. José Frenando Montenegro figueiredo","tags":"amenity:school","lat":-12.903246,"lng":-38.6477087},{"id":"7993277888","name":"Mercearia Angelin","tags":"shop:convenience","lat":-12.9003855,"lng":-38.6717884},{"id":"7993277986","name":"Praia de Ponta de Areia","tags":"tourism:attraction","lat":-12.8935329,"lng":-38.666342}]