[{"id":"991950930","tags":"amenity:restaurant","lat":-12.9635656,"lng":-38.6075305},{"id":"1997691482","name":"Barraca do Gaucho","tags":"amenity:bar,wifi:no","lat":-12.9579646,"lng":-38.605609},{"id":"3845139272","name":"Colégio Estadual Desembargador Júlio Virgílio de Santanna","tags":"amenity:school","lat":-12.9604715,"lng":-38.6093402},{"id":"3845176835","name":"Escola Municipal Raimundo Sacramento","tags":"amenity:school","lat":-12.9292223,"lng":-38.6255794},{"id":"4672059052","name":"Churrasqaria Brasão","tags":"amenity:restaurant","lat":-12.9335575,"lng":-38.6238222},{"id":"4672108035","name":"Itaú","tags":"amenity:bank,brand:Itaú Unibanco,brand:wikidata:Q1424293,brand:wikipedia:pt:Itaú Unibanco","lat":-12.9634421,"lng":-38.6076799},{"id":"4672108433","name":"Banco do Brasil","tags":"amenity:bank,atm:yes,brand:Banco do Brasil,brand:wikidata:Q610817,brand:wikipedia:en:Banco do Brasil","lat":-12.9632702,"lng":-38.6073024},{"id":"4733180222","name":"Terminal Marítimo de Mar Grande","tags":"amenity:ferry_terminal,ferry:yes,public_transport:station","lat":-12.9630487,"lng":-38.605882},{"id":"5329778311","name":"Drogaria Cavalcante","tags":"amenity:pharmacy,healthcare:pharmacy","lat":-12.9625559,"lng":-38.6080919},{"id":"5329778312","name":"Todo Dia","tags":"shop:supermarket","lat":-12.9622389,"lng":-38.6089939},{"id":"5329778433","name":"Budegga da Praça","tags":"amenity:restaurant","lat":-12.9629213,"lng":-38.6070356},{"id":"5329778435","name":"Caixa Econômica Federal","tags":"amenity:bank,atm:yes,brand:Caixa Econômica Federal,brand:wikidata:Q835283,brand:wikipedia:pt:Caixa Econômica Federal","lat":-12.9621909,"lng":-38.6092586},{"id":"5329778436","name":"24° Delegacia Territorial","tags":"amenity:police","lat":-12.9633051,"lng":-38.6076784},{"id":"6518718815","name":"UPA Mar Grande","tags":"amenity:hospital,healthcare:hospital","lat":-12.9622963,"lng":-38.6084241},{"id":"6518718816","name":"Pizzaria do Luiz","tags":"amenity:restaurant,cuisine:pizza","lat":-12.9617684,"lng":-38.609599},{"id":"9219720817","name":"Farmácia Boa Farma","tags":"amenity:pharmacy,healthcare:pharmacy,survey:date:2021-11-02","lat":-12.9324914,"lng":-38.6236144},{"id":"9219720818","name":"Bar e Restaurante do Tetê","tags":"amenity:restaurant,cuisine:regional,survey:date:2021-11-02","lat":-12.9302409,"lng":-38.6217415},{"id":"9219720917","tags":"amenity:atm,currency:BRL:yes,drive_through:no,network:Banco 24 Horas,survey:date:2021-11-02","lat":-12.9328912,"lng":-38.6236949},{"id":"9219720918","name":"Bar e Estacionamento do Cícero","tags":"amenity:bar,survey:date:2021-11-02","lat":-12.9299043,"lng":-38.6213513},{"id":"9219721017","name":"Bar e Restaurante Estrela","tags":"amenity:restaurant,cuisine:regional,survey:date:2021-11-02","lat":-12.9298192,"lng":-38.6212639},{"id":"9219721018","name":"Nova Opção","tags":"amenity:restaurant,cuisine:barbecue,survey:date:2021-11-02","lat":-12.9299912,"lng":-38.6215211},{"id":"9219721817","name":"Bar e Estacionamento do Cícero","tags":"amenity:bar,survey:date:2021-11-02","lat":-12.9299043,"lng":-38.6213513},{"id":"9219721818","name":"24 Horas","tags":"shop:convenience,survey:date:2021-11-02","lat":-12.9301819,"lng":-38.6216983},{"id":"9219721819","name":"Restaurante e Churrascaria da Praça","tags":"amenity:restaurant,cuisine:barbecue,survey:date:2021-11-02","lat":-12.9303141,"lng":-38.6217982},{"id":"9219721917","name":"Bar e Restaurante Bom Sucesso","tags":"amenity:restaurant,cuisine:regional,survey:date:2021-11-02","lat":-12.9300719,"lng":-38.6215774}]