[{"id":"740240633","name":"São Pedro","tags":"shop:supermarket","lat":-12.7010327,"lng":-38.1313345},{"id":"740240645","name":"Beira Mar","tags":"shop:supermarket","lat":-12.7016554,"lng":-38.1322018},{"id":"740240648","tags":"amenity:pharmacy,dispensing:yes","lat":-12.7022831,"lng":-38.1326567},{"id":"740240671","name":"Jacuipe Supermercado","tags":"shop:supermarket","lat":-12.7060381,"lng":-38.1369031},{"id":"937567409","name":"Mercado Jacuipé","tags":"shop:supermarket","lat":-12.7046769,"lng":-38.1322467},{"id":"938575727","name":"Mercado Oliveira","tags":"shop:convenience","lat":-12.7021401,"lng":-38.1339786},{"id":"938575734","name":"Pont do Feijão","tags":"amenity:restaurant","lat":-12.7026539,"lng":-38.1337751},{"id":"1132335299","name":"LAN House","tags":"amenity:cafe,internet_access:terminal","lat":-12.7033804,"lng":-38.1346423},{"id":"1654318731","name":"Escola Municipal de Barra do Jacuípe","tags":"amenity:school","lat":-12.7027431,"lng":-38.1347081},{"id":"3248691468","name":"Bar-Resturante Tia Chica","tags":"amenity:restaurant","lat":-12.7050773,"lng":-38.1316325},{"id":"3248696479","name":"Bar e Restaurante da Lola","tags":"amenity:restaurant","lat":-12.7053337,"lng":-38.1316593},{"id":"4382649810","tags":"amenity:restaurant","lat":-12.7088623,"lng":-38.1396094},{"id":"4450325364","name":"Mix Bahia","tags":"shop:supermarket","lat":-12.7040734,"lng":-38.1344152}]