[{"id":"1230126143","name":"Mercadinho Ponto Certo","tags":"shop:supermarket","lat":-12.5999101,"lng":-38.9650319},{"id":"1249355286","name":"Colégio Estadual da Cachoeira","tags":"amenity:school","lat":-12.6003859,"lng":-38.9614644},{"id":"1352812348","name":"Correios","tags":"amenity:post_office,operator:Correios,operator:wikidata:Q3375004,operator:wikipedia:en:Correios,wheelchair:yes","lat":-12.6029727,"lng":-38.9630538},{"id":"1352942970","name":"Aclamação","tags":"amenity:restaurant,cuisine:regional,wheelchair:no","lat":-12.6052538,"lng":-38.9626802},{"id":"1352942983","name":"Polícia Militar","tags":"amenity:police","lat":-12.6048928,"lng":-38.9626899},{"id":"1352942985","tags":"addr:housenumber:15,addr:street:Avenida Antônio Carlos Magalhaes,amenity:bank,atm:yes,operator:Banco do Brasil,wheelchair:yes","lat":-12.6009802,"lng":-38.9670974},{"id":"1352942986","name":"Caixa Econômica Federal","tags":"addr:street:Rua Maestro Irineu Sacramento,amenity:bank,atm:yes,brand:Caixa Econômica Federal,brand:wikidata:Q835283,brand:wikipedia:pt:Caixa Econômica Federal,operator:Caixa,wheelchair:yes","lat":-12.6010423,"lng":-38.9667652},{"id":"1352942988","name":"Bradesco","tags":"amenity:bank,atm:yes,operator:Bradesco,wheelchair:yes","lat":-12.6026112,"lng":-38.9628898},{"id":"1352942998","name":"Maktub","tags":"addr:housenumber:26,addr:street:Rua Dr. João Vieira Lopes,amenity:restaurant,cuisine:regional,phone:+55 75 3425 1536","lat":-12.6029973,"lng":-38.9627846},{"id":"1353028015","name":"Supermercado Vieira","tags":"addr:postcode:44300-000,addr:street:Rua Prisco Paraiso,addr:suburb:Centro,shop:supermarket","lat":-12.6020629,"lng":-38.9644996},{"id":"1353028017","name":"Vale Ouro","tags":"shop:supermarket","lat":-12.6022016,"lng":-38.964686},{"id":"1353028019","name":"Flamboyant","tags":"addr:street:Rua Maestro Irineu Sacramento,amenity:restaurant,cuisine:regional","lat":-12.6012859,"lng":-38.9664952},{"id":"1362106232","name":"Rodoviária de São Félix","tags":"amenity:bus_station,bus:yes,public_transport:station","lat":-12.6055452,"lng":-38.9692291},{"id":"1362208903","name":"Centro Cultural Dannemann","tags":"tourism:museum,wheelchair:limited","lat":-12.6060157,"lng":-38.9684229},{"id":"1362209012","name":"Restaurante dos Ferroviários","tags":"amenity:restaurant,cuisine:regional,wheelchair:no","lat":-12.6076988,"lng":-38.9681118},{"id":"1362245452","name":"Santa Casa de Misericórdia","tags":"addr:city:Cachoeira,amenity:hospital,emergency:yes,healthcare:hospital,phone:+55 75 3425 1019","lat":-12.6018424,"lng":-38.9632246},{"id":"1362245509","name":"PQTRLV - Bar de Zé Miúdo","tags":"amenity:restaurant,cuisine:regional,internet_access:no,wheelchair:no","lat":-12.6027985,"lng":-38.9634241},{"id":"1362249370","tags":"amenity:bar","lat":-12.6062045,"lng":-38.9636414},{"id":"1362251503","name":"Bombar","tags":"amenity:restaurant,cuisine:regional,internet_access:no","lat":-12.5998111,"lng":-38.9644019},{"id":"1362251509","name":"Bradesco","tags":"amenity:atm,brand:Bradesco,brand:wikidata:Q806181,brand:wikipedia:en:Banco Bradesco,operator:Bradesco,operator:wikidata:Q806181,operator:wikipedia:en:Banco Bradesco","lat":-12.6023517,"lng":-38.9647374},{"id":"1365428466","name":"Pereira","tags":"amenity:pharmacy,healthcare:pharmacy","lat":-12.6017215,"lng":-38.9660571},{"id":"1365428467","tags":"amenity:restaurant,cuisine:regional","lat":-12.6011301,"lng":-38.9670437},{"id":"1365428468","name":"Pereira","tags":"shop:supermarket","lat":-12.6016987,"lng":-38.9661442},{"id":"1365428471","name":"Cordeiro","tags":"amenity:pharmacy,healthcare:pharmacy","lat":-12.6026073,"lng":-38.9637096},{"id":"1365428509","name":"Cesta do Povo","tags":"shop:supermarket","lat":-12.6017689,"lng":-38.9654746},{"id":"1365461232","name":"Doces & Delícias","tags":"amenity:restaurant,cuisine:regional,wheelchair:no","lat":-12.6056347,"lng":-38.9621922},{"id":"1448571196","name":"Armazém Souza","tags":"shop:supermarket","lat":-12.6023884,"lng":-38.9641755},{"id":"1448571198","name":"Bar do Reggae","tags":"amenity:bar","lat":-12.6052499,"lng":-38.963812},{"id":"1448571201","name":"Farmácia Nossa Senhora do Rosário","tags":"amenity:pharmacy,healthcare:pharmacy,phone:+55 75 3425 1256","lat":-12.6028792,"lng":-38.9633096},{"id":"1455490078","name":"Isamar","tags":"shop:supermarket","lat":-12.6073178,"lng":-38.9691454},{"id":"1455490080","name":"Maktub","tags":"amenity:restaurant,cuisine:regional,internet_access:no","lat":-12.6061241,"lng":-38.9702532},{"id":"1455490083","name":"Polícia Militar","tags":"amenity:police,wheelchair:no","lat":-12.6059829,"lng":-38.9704891},{"id":"1455490141","tags":"amenity:parking,parking:surface","lat":-12.6064069,"lng":-38.9697837},{"id":"1455490169","name":"Banco do Brasil","tags":"amenity:bank,atm:yes,brand:Banco do Brasil,brand:wikidata:Q610817,brand:wikipedia:en:Banco do Brasil,opening_hours:Mo-Fr 10:00-15:00,operator:Banco do Brasil,wheelchair:yes","lat":-12.6074146,"lng":-38.9684212},{"id":"1484052025","name":"Museu Casa Hansen Bahia","tags":"tourism:museum","lat":-12.6085584,"lng":-38.9706465},{"id":"1511418970","tags":"amenity:bar","lat":-12.6110868,"lng":-38.9598668},{"id":"1511418982","tags":"amenity:bar","lat":-12.6117063,"lng":-38.959553},{"id":"1516716462","tags":"shop:supermarket","lat":-12.6007071,"lng":-38.9638081},{"id":"1583026541","name":"Restaurante Lagoa Encantada","tags":"amenity:restaurant,internet_access:no","lat":-12.5864056,"lng":-38.9429617},{"id":"1627557000","name":"Jeilza Drink's e Restaurante","tags":"amenity:restaurant,cuisine:regional,opening_hours:Th-Su 10:00-24:00","lat":-12.6041941,"lng":-38.9643667},{"id":"1627557001","name":"Recanto Misticismo","tags":"amenity:restaurant,cuisine:pizza","lat":-12.6055628,"lng":-38.9622814},{"id":"1627557002","tags":"amenity:bar","lat":-12.6061098,"lng":-38.9618273},{"id":"1627557004","name":"Shambalah","tags":"addr:housenumber:12-A,amenity:restaurant","lat":-12.6057758,"lng":-38.9619837},{"id":"1627557005","name":"Colégio Simonton","tags":"amenity:school","lat":-12.6005015,"lng":-38.9673323},{"id":"1627557006","name":"Mercadinho e Lanchonete Preto Velho","tags":"alt_name:Bar de Paulo Lomba,name:pt:Bar de Lomba,shop:convenience","lat":-12.6053288,"lng":-38.9628848},{"id":"1659977240","tags":"amenity:bar","lat":-12.6036111,"lng":-38.9655636},{"id":"1659977246","name":"Irmandade da Boa Morte","tags":"tourism:museum","lat":-12.6037781,"lng":-38.9638734},{"id":"1659977255","name":"Cabana do Doidão","tags":"amenity:bar","lat":-12.6053825,"lng":-38.9630534},{"id":"1659977256","name":"Restaurante Baleia","tags":"amenity:restaurant,cuisine:regional","lat":-12.6032211,"lng":-38.9646881},{"id":"1659977257","name":"Palácio da Cultura","tags":"amenity:bar","lat":-12.6034437,"lng":-38.9641697},{"id":"1661211572","name":"Paraguassu","tags":"amenity:restaurant,cuisine:regional","lat":-12.6076364,"lng":-38.9658106},{"id":"1661211574","name":"Polícia Civil","tags":"amenity:police","lat":-12.5954727,"lng":-38.9693599},{"id":"1662911728","name":"Farmácia Souza","tags":"amenity:pharmacy,dispensing:no,healthcare:pharmacy","lat":-12.6020657,"lng":-38.9650104},{"id":"1665068412","name":"Mini Barbosa","tags":"shop:supermarket","lat":-12.6065934,"lng":-38.9689726},{"id":"1693604365","name":"Sabor da Terra","tags":"amenity:restaurant,cuisine:regional,phone:+55 75 3425 2515","lat":-12.6014046,"lng":-38.964338},{"id":"1695068915","name":"Mercadinho Comercial Caquende","tags":"shop:convenience","lat":-12.6086206,"lng":-38.960041},{"id":"1722106197","name":"Casa Grande","tags":"amenity:restaurant,cuisine:pizza;regional","lat":-12.5684381,"lng":-38.9728343},{"id":"1748618930","name":"Ginásio de Esportes Cândido dos Santos","tags":"leisure:sports_centre,sport:multi","lat":-12.6094444,"lng":-38.9648954},{"id":"1777146717","name":"Posto 3 Riachos","tags":"shop:convenience","lat":-12.5923462,"lng":-38.9686263},{"id":"1890842527","tags":"amenity:parking","lat":-12.6026793,"lng":-38.9632054},{"id":"1934011394","name":"Arena Fitness","tags":"leisure:sports_centre","lat":-12.6010614,"lng":-38.9670582},{"id":"1934011397","name":"Estação Sabor","tags":"amenity:restaurant,cuisine:regional","lat":-12.6017983,"lng":-38.9663617},{"id":"1934011398","name":"Mr. Pither","tags":"amenity:restaurant,cuisine:regional","lat":-12.6013807,"lng":-38.965465},{"id":"1944319603","name":"Livros & Cia","tags":"shop:books","lat":-12.6022514,"lng":-38.9665717},{"id":"1944319612","name":"Galeria Museu Hansen Bahia","tags":"phone:+55 75 3425 1453,tourism:museum,wheelchair:limited","lat":-12.6045111,"lng":-38.9636057},{"id":"1944319618","name":"NUDOC - UFRB","tags":"amenity:university,operator:UFRB - Universidade Federal do Recôncavo da Bahia,website:https://www.ufrb.edu.br/nudoc/","lat":-12.6042784,"lng":-38.9628793},{"id":"1944319621","name":"Pós-Graduação - CAHL / UFRB","tags":"amenity:university,operator:CAHL - Centro de Artes, Humanidades e Letras (UFRB),phone:+55 75 3425 2242,wheelchair:limited","lat":-12.6044385,"lng":-38.9636509},{"id":"1944319622","name":"TodoDia","tags":"addr:housenumber:18,amenity:restaurant","lat":-12.6044661,"lng":-38.9626605},{"id":"1944352566","name":"FarmaVida","tags":"addr:housenumber:09,addr:street:Praça Maciel,amenity:pharmacy,dispensing:yes,healthcare:pharmacy,phone:+55 75 3425 5575","lat":-12.6023375,"lng":-38.964331},{"id":"1944352580","name":"Polycenter","tags":"addr:street:Rua Benjamin Constant,amenity:school","lat":-12.6045191,"lng":-38.9615343},{"id":"1953042530","name":"Pizzaria Casa Verde","tags":"amenity:restaurant,cuisine:pizza","lat":-12.6043344,"lng":-38.9642624},{"id":"1962661572","name":"Dcomer","tags":"amenity:restaurant,cuisine:pizza;regional","lat":-12.6044151,"lng":-38.9724858},{"id":"1962661577","name":"Colégio Munipal Carlos Marques","tags":"amenity:school","lat":-12.6035437,"lng":-38.9743144},{"id":"2014161568","name":"Central","tags":"amenity:restaurant,cuisine:regional","lat":-12.6029871,"lng":-38.9632209},{"id":"2014161572","tags":"amenity:car_wash","lat":-12.6030226,"lng":-38.9656384},{"id":"2038136450","name":"Branco24Horas","tags":"amenity:atm,brand:Banco24Horas,brand:wikidata:Q4854069,brand:wikipedia:pt:Banco24Horas,operator:Banco 24 Horas","lat":-12.6016882,"lng":-38.9661862},{"id":"2039847938","name":"Escola Pirlimpimpim","tags":"amenity:school","lat":-12.6049458,"lng":-38.96224},{"id":"2051400995","name":"Biblioteca Municipal","tags":"amenity:library,wheelchair:no","lat":-12.6065493,"lng":-38.969857},{"id":"2059732934","name":"Escola Balão Mágico","tags":"amenity:school","lat":-12.6085766,"lng":-38.9689215},{"id":"2059732935","name":"Estádio de São Félix","tags":"leisure:stadium,sport:soccer","lat":-12.6107465,"lng":-38.9634336},{"id":"2059732939","name":"Monumento dos Milagres","tags":"tourism:attraction","lat":-12.6079527,"lng":-38.9707002},{"id":"2060244312","name":"Colégio Municipal Deiro Lefundes","tags":"amenity:school","lat":-12.6038457,"lng":-38.9731004},{"id":"2060252419","name":"Deus Menino","tags":"amenity:pharmacy,dispensing:yes,healthcare:pharmacy","lat":-12.6055309,"lng":-38.9699351},{"id":"2060252420","tags":"amenity:pharmacy,dispensing:yes,healthcare:pharmacy","lat":-12.6068658,"lng":-38.9687253},{"id":"2060253393","name":"Cesta do Povo","tags":"shop:supermarket","lat":-12.6070936,"lng":-38.9690768},{"id":"2163896117","name":"Garagem Macarrão Ao Vivo","tags":"addr:housenumber:01,addr:street:Rua 13 de Março,amenity:restaurant,internet_access:no,website:https://www.facebook.com/garagemmacarraoaovivo,wheelchair:yes","lat":-12.6027524,"lng":-38.9634909},{"id":"2229256989","name":"A Confraria","tags":"amenity:restaurant","lat":-12.6064558,"lng":-38.9613363},{"id":"2229259012","name":"Casa de Caldos 20 ver","tags":"amenity:bar","lat":-12.6053524,"lng":-38.9629627},{"id":"2245007564","name":"Restaurante Fristtcck Grill","tags":"amenity:restaurant","lat":-12.6053345,"lng":-38.9637276},{"id":"2245127019","name":"Museu do IPHAN","tags":"tourism:museum","lat":-12.605411,"lng":-38.9625146},{"id":"2290390314","name":"Casarão Gourmet","tags":"amenity:restaurant,cuisine:regional","lat":-12.602862,"lng":-38.963897},{"id":"2290589229","name":"M&S","tags":"amenity:restaurant,cuisine:regional","lat":-12.6017326,"lng":-38.9662987},{"id":"2387655687","name":"Casa di Taipa","tags":"amenity:restaurant,cuisine:regional","lat":-12.6026365,"lng":-38.9657309},{"id":"2389875105","tags":"shop:convenience","lat":-12.6018741,"lng":-38.9656203},{"id":"2603566162","name":"Faculdade Adventista da Bahia - IAENE","tags":"addr:housename:BR-101, km197 - Estrada de Capoeiruçu, s/n,amenity:university,phone:+55 75 3425 8000,website:http://www.adventista.edu.br,wikidata:Q10279213,wikipedia:pt:IAENE","lat":-12.57044,"lng":-38.9699397},{"id":"2606667285","tags":"leisure:sports_centre","lat":-12.5714243,"lng":-38.9681675},{"id":"2606667292","name":"Correios","tags":"amenity:post_office","lat":-12.5690263,"lng":-38.9672985},{"id":"5304006666","name":"Pereira","tags":"shop:supermarket","lat":-12.6017525,"lng":-38.964442},{"id":"5627634131","name":"Super Souza","tags":"shop:supermarket","lat":-12.601898,"lng":-38.964918},{"id":"5764844115","name":"Praça do Canhão","tags":"leisure:park","lat":-12.6054516,"lng":-38.9619708},{"id":"5764850812","name":"Restaurante Pai Thomaz","tags":"amenity:restaurant","lat":-12.6051773,"lng":-38.9633464},{"id":"5764850813","name":"Museu do Cinema da Bahia (Roque Araújo)","tags":"tourism:museum","lat":-12.6051271,"lng":-38.9631041}]