[{"id":"2556940689","name":"Escola Antônio Carlos Magalhães","tags":"amenity:school","lat":-12.6242652,"lng":-38.9871404},{"id":"2556949193","name":"Hospital Maternidade Lucila Fraga","tags":"amenity:hospital,emergency:yes,healthcare:hospital,healthcare:speciality:maternity;gynaecology","lat":-12.620718,"lng":-38.9866927},{"id":"4824020023","name":"Caixa Econômica Federal","tags":"amenity:bank,atm:yes,brand:Caixa Econômica Federal,brand:wikidata:Q835283,brand:wikipedia:pt:Caixa Econômica Federal","lat":-12.6239911,"lng":-38.9926494},{"id":"5192620153","name":"Correios","tags":"amenity:post_office,brand:Correios,brand:wikidata:Q3375004,brand:wikipedia:en:Correios","lat":-12.6233709,"lng":-38.9902524},{"id":"6128115585","name":"Recanto Mota","tags":"tourism:attraction","lat":-12.6124614,"lng":-39.022291}]