[{"id":"1782569223","name":"Hikarí","tags":"amenity:restaurant","lat":-12.2162631,"lng":-38.9512085},{"id":"1782569226","name":"La Petitosa","tags":"amenity:restaurant,cuisine:pizza","lat":-12.2163643,"lng":-38.9516264},{"id":"2392802953","name":"Cidade da Cultura","tags":"addr:city:Feira de Santana,addr:housenumber:170,addr:street:Rua H,addr:suburb:Mangabeira,amenity:restaurant,cuisine:regional,description:Ponto de Memória da Caatinga,phone:+55 75 3483-2740,website:https://cidadedacultura.wixsite.com/cidadedacultura","lat":-12.2165166,"lng":-38.9487284},{"id":"2517880272","name":"Fifó","tags":"amenity:restaurant","lat":-12.2045987,"lng":-38.971753},{"id":"2517948726","name":"Cantina do módulo 7 - UEFS","tags":"amenity:restaurant","lat":-12.2014782,"lng":-38.9750405},{"id":"2518091705","name":"Quatro Estações","tags":"amenity:bar","lat":-12.2065462,"lng":-38.9668689},{"id":"2518091708","name":"A República","tags":"amenity:bar","lat":-12.206541,"lng":-38.967003},{"id":"2518091711","tags":"amenity:pharmacy","lat":-12.2064885,"lng":-38.9693419},{"id":"2522261788","name":"SESU","tags":"amenity:hospital,emergency:yes","lat":-12.2005129,"lng":-38.974262}]