[{"id":"4579717038","name":"Parque da Cidade","tags":"leisure:park","lat":-12.5308834,"lng":-38.2987737},{"id":"5586036129","name":"Colégio Estadual Getúlio Vargas","tags":"amenity:school","lat":-12.5300701,"lng":-38.2974181},{"id":"5586036133","name":"Colégio Municipal Monsenhor Barbosa","tags":"amenity:school","lat":-12.533944,"lng":-38.2964322},{"id":"5586036163","name":"Banco do Brasil","tags":"amenity:bank,atm:yes","lat":-12.5318858,"lng":-38.2974347},{"id":"5586036164","name":"Walmart","tags":"shop:supermarket","lat":-12.5324092,"lng":-38.2976683},{"id":"5586036165","name":"Supermercado Supernorte","tags":"shop:supermarket","lat":-12.5309824,"lng":-38.2972082},{"id":"5586036168","name":"Supermercado Max Compras","tags":"shop:supermarket","lat":-12.5291229,"lng":-38.2963979},{"id":"5586036169","name":"Hospital Municipal Dr. Eurico Goulart de Freitas","tags":"addr:city:Mata de São João,addr:street:Rua Murilo Moreira,addr:suburb:Centro,amenity:hospital,healthcare:hospital,phone:+55 71 3635-1458","lat":-12.5279835,"lng":-38.2973339},{"id":"5586036172","name":"Supermercado da Feira","tags":"shop:supermarket","lat":-12.5293755,"lng":-38.2928302},{"id":"5586051912","tags":"amenity:school","lat":-12.531292,"lng":-38.2992825},{"id":"5586051913","tags":"amenity:post_office","lat":-12.5318612,"lng":-38.2979395},{"id":"5586051918","name":"Farmácia Charme","tags":"amenity:pharmacy,dispensing:yes,healthcare:pharmacy","lat":-12.5300414,"lng":-38.2960566},{"id":"5586051919","name":"Farmácia da Praça","tags":"amenity:pharmacy,dispensing:yes,healthcare:pharmacy","lat":-12.5297299,"lng":-38.2954799},{"id":"5586051920","tags":"amenity:pharmacy,dispensing:yes,healthcare:pharmacy","lat":-12.528803,"lng":-38.2958206},{"id":"5586052124","name":"Colegio Cenosel","tags":"amenity:school","lat":-12.5297403,"lng":-38.2998707},{"id":"5586052126","name":"Universidade de Mata de São João","tags":"amenity:university","lat":-12.5302876,"lng":-38.2999002}]