[{"id":"612557499","name":"Farmácias Santa Clara","tags":"addr:city:Camaçari,addr:street:Rua Bom Jesus,addr:suburb:Monte Gordo,amenity:pharmacy,dispensing:yes,healthcare:pharmacy","lat":-12.6437722,"lng":-38.0929428},{"id":"612557527","name":"Supermercado São Rafael","tags":"addr:city:Camaçari,addr:suburb:Monte Gordo,phone:+55 71 3674 1626,shop:convenience","lat":-12.6437547,"lng":-38.092835},{"id":"612557589","name":"Mercadinho Paderia Central","tags":"shop:convenience","lat":-12.6429032,"lng":-38.0911556},{"id":"612557696","name":"Mercadinho do Helio","tags":"shop:convenience","lat":-12.6398419,"lng":-38.0964832},{"id":"612558194","tags":"addr:city:Camaçari,addr:street:Rua Senhor do Bomfim,addr:suburb:Monte Gordo,amenity:pharmacy,healthcare:pharmacy,opening_hours:Mo-Fr 08:00-19:00; Sa 08:00-12:00","lat":-12.6427413,"lng":-38.0887328},{"id":"612560843","tags":"amenity:atm","lat":-12.6438137,"lng":-38.0750052},{"id":"612560918","name":"Macroserv","tags":"addr:city:Camaçari,addr:suburb:Guarajuba,phone:+55 71 3674 1319,shop:supermarket","lat":-12.6496309,"lng":-38.0712895},{"id":"612560919","name":"Farmatend","tags":"amenity:pharmacy,healthcare:pharmacy","lat":-12.6497501,"lng":-38.0710858},{"id":"612560920","name":"Beach Point","tags":"addr:city:Camaçari,addr:street:Praça da Juventude,addr:suburb:Guarajuba,phone:+55 71 3674 2128,shop:supermarket","lat":-12.6498358,"lng":-38.0709383},{"id":"612560921","name":"Comida a Kilo","tags":"amenity:restaurant","lat":-12.6501057,"lng":-38.0705036},{"id":"612560922","tags":"amenity:atm","lat":-12.6426277,"lng":-38.0889096},{"id":"613000123","tags":"amenity:restaurant,cuisine:brazilian","lat":-12.6441295,"lng":-38.0834285},{"id":"615789801","tags":"shop:mall","lat":-12.6483868,"lng":-38.0728278},{"id":"615790730","name":"Farmácia Santa Clara","tags":"addr:city:Camaçari,addr:street:Alameda Humaitá,addr:suburb:Guarajuba,amenity:pharmacy,dispensing:yes,healthcare:pharmacy,opening_hours:Mo-Su 06:30-23:30,phone:+55 71 3674 2250","lat":-12.6484518,"lng":-38.072984},{"id":"615791093","name":"Pizzeria","tags":"addr:city:Camaçari,addr:housenumber:112,addr:street:Rua Bom Jesus,addr:suburb:Monte Gordo,amenity:restaurant,cuisine:pizza","lat":-12.6434917,"lng":-38.0926644},{"id":"615840139","tags":"amenity:parking","lat":-12.6485386,"lng":-38.0731685},{"id":"619006638","name":"Le Chevalier Presentes","tags":"shop:gift,tourism:attraction","lat":-12.6484721,"lng":-38.0726907},{"id":"619006644","tags":"amenity:car_wash,opening_hours:Su 08:00-12:00","lat":-12.6441228,"lng":-38.0912989},{"id":"619006646","name":"Posto Médico de Monte Gordo","tags":"addr:city:Camaçari,addr:street:Rua Senhor do Bomfim,addr:suburb:Monte Gordo,amenity:hospital,healthcare:hospital,opening_hours:24/7","lat":-12.6445228,"lng":-38.0830995},{"id":"619007638","tags":"access:permissive,amenity:parking,fee:no","lat":-12.6480148,"lng":-38.0736951},{"id":"619007639","tags":"amenity:fountain,tourism:attraction","lat":-12.6500996,"lng":-38.0710622},{"id":"619074725","tags":"amenity:parking","lat":-12.6516949,"lng":-38.0681819},{"id":"619074784","tags":"amenity:parking","lat":-12.6451317,"lng":-38.0612017},{"id":"619075907","name":"Policia Militar","tags":"amenity:police","lat":-12.6512397,"lng":-38.0691119},{"id":"620153853","tags":"amenity:parking","lat":-12.6425922,"lng":-38.0902252},{"id":"622396560","tags":"access:permissive,amenity:parking","lat":-12.6473908,"lng":-38.0799415},{"id":"622396664","tags":"amenity:school","lat":-12.6534942,"lng":-38.0972074},{"id":"622396665","tags":"amenity:school","lat":-12.6483609,"lng":-38.0970974},{"id":"622551704","name":"Bar do Prefeitinho Jr","tags":"addr:city:Camaçari,addr:street:Praça da Juventude,addr:suburb:Guarajuba,amenity:restaurant,cuisine:regional;brazilian,phone:+55 71 3674 0286,website:http://bardoprefeitinhojr.com.br/","lat":-12.6518369,"lng":-38.0683901},{"id":"626781257","name":"Torre de Pizza","tags":"amenity:restaurant,cuisine:pizza","lat":-12.6514892,"lng":-38.0686115},{"id":"626796893","name":"Policia Civil","tags":"amenity:police","lat":-12.6429153,"lng":-38.0855216},{"id":"626797005","tags":"amenity:parking","lat":-12.6424212,"lng":-38.0860252},{"id":"651754634","name":"Farmácia Fred","tags":"addr:city:Camaçari,addr:suburb:Monte Gordo,amenity:pharmacy,healthcare:pharmacy,phone:+55 71 3674 2466","lat":-12.6424539,"lng":-38.0902855},{"id":"651754782","name":"Pet Shop","tags":"addr:city:Camaçari,addr:street:Rua Bom Jesus,addr:suburb:Monte Gordo,phone:+55 71 3674 2131,shop:pet","lat":-12.6421481,"lng":-38.0901163},{"id":"651764355","name":"Banco do Brasil","tags":"amenity:atm,operator:BdB","lat":-12.6437247,"lng":-38.0749971},{"id":"651765214","name":"Mercadinho e Panificadora de Monte Gordo","tags":"shop:convenience","lat":-12.6423621,"lng":-38.09024},{"id":"651768290","name":"Galeto do Robson","tags":"amenity:restaurant,cuisine:barbecue","lat":-12.6419434,"lng":-38.0889089},{"id":"725872516","tags":"amenity:parking","lat":-12.6421481,"lng":-38.0897982},{"id":"725872517","name":"LAN House","tags":"amenity:cafe,internet_access:terminal","lat":-12.6421809,"lng":-38.089763},{"id":"725872518","name":"LAN House","tags":"amenity:cafe,internet_access:terminal","lat":-12.6430342,"lng":-38.0916719},{"id":"745788161","name":"Pingo Doce","tags":"addr:city:Camaçari,addr:suburb:Guarajuba,amenity:restaurant,contact:phone:+55 71 99742 4272,internet_access:wlan,phone:+55 71 99742 4272","lat":-12.648253,"lng":-38.0730713},{"id":"745788375","name":"Varanda","tags":"amenity:restaurant","lat":-12.6483556,"lng":-38.073215},{"id":"760755271","name":"Styles","tags":"shop:beauty","lat":-12.6416508,"lng":-38.0895118},{"id":"788969975","name":"Supermercado Beco da Cebola","tags":"shop:convenience","lat":-12.6527828,"lng":-38.0933022},{"id":"792618966","tags":"shop:convenience","lat":-12.6550637,"lng":-38.0949696},{"id":"826537235","name":"Restaurante da Linda","tags":"amenity:restaurant,phone:+55 71 36742253","lat":-12.6440958,"lng":-38.0936269},{"id":"871806522","name":"Escola Arco Iris","tags":"amenity:school","lat":-12.6366068,"lng":-38.0857062},{"id":"871806525","name":"Depósito de Bebidas da Cascalheira","tags":"amenity:bar","lat":-12.6371661,"lng":-38.0864088},{"id":"871806531","name":"Mercado da Ingazeira","tags":"shop:convenience","lat":-12.6389106,"lng":-38.0906185},{"id":"938901409","name":"Shopping dos Animais","tags":"shop:pet","lat":-12.6417966,"lng":-38.0896939},{"id":"1072682903","name":"Boxer Hill","tags":"dogs:boxer,pets:dogs,shop:pet","lat":-12.655833,"lng":-38.0762432},{"id":"1072684367","name":"Mercado 2 Irmãos","tags":"shop:convenience","lat":-12.6509596,"lng":-38.0977398},{"id":"1081482911","tags":"amenity:car_wash","lat":-12.6499341,"lng":-38.0966529},{"id":"1081482921","name":"Polícia Militar Rodoviária","tags":"amenity:police,police:traffic_police","lat":-12.6473125,"lng":-38.0786283},{"id":"1110759300","tags":"shop:convenience","lat":-12.6418247,"lng":-38.0885463},{"id":"1110759304","name":"Casa do Raçao","tags":"amenity:veterinary,shop:pet","lat":-12.6417853,"lng":-38.0886126},{"id":"1187412570","tags":"shop:convenience","lat":-12.6498377,"lng":-38.0629481},{"id":"3234612170","tags":"amenity:bank","lat":-12.6515982,"lng":-38.0681219},{"id":"4408737552","tags":"amenity:police","lat":-12.6277325,"lng":-38.0636956},{"id":"5039957969","name":"BAR DO CHINA","tags":"addr:city:Monte Gordo,addr:housenumber:0,addr:postcode:42820-000,addr:street:Rua do Ouro,amenity:restaurant,capacity:50,cuisine:regional,delivery:yes,opening_hours:07:00-20:00,smoking:separated,takeaway:no","lat":-12.6404562,"lng":-38.089486},{"id":"5213005512","name":"AGC - Agência Correio Comunitária de Monte Gordo","tags":"addr:city:Camaçari,addr:housenumber:00,addr:postcode:42820-000,addr:street:Rua Senhor do Bomfim,addr:suburb:Monte Gordo,amenity:post_office,opening_hours:Mo-Fr 08:00-16:00","lat":-12.6423763,"lng":-38.0881042},{"id":"6015715885","name":"Farmácia Santa Clara","tags":"addr:city:Camaçari,amenity:pharmacy,healthcare:pharmacy","lat":-12.6443775,"lng":-38.0752784},{"id":"8850280164","name":"Cassiano's","tags":"amenity:restaurant,cuisine:pizza;regional,delivery:yes","lat":-12.6484535,"lng":-38.0765957},{"id":"8855277115","name":"Farmácia GBarbosa","tags":"amenity:pharmacy,dispensing:yes,healthcare:pharmacy","lat":-12.6424697,"lng":-38.0737445}]