[{"id":"1654910011","name":"Correios","tags":"amenity:post_office","lat":-11.2708551,"lng":-37.4390622},{"id":"1654910052","tags":"amenity:restaurant","lat":-11.2696436,"lng":-37.4376482},{"id":"1654910116","name":"Escola Nossa Senhora de Guadalupe","tags":"amenity:school","lat":-11.2741101,"lng":-37.4381039},{"id":"1654910172","name":"Itaú","tags":"amenity:bank,brand:Itaú Unibanco,brand:wikidata:Q1424293,brand:wikipedia:pt:Itaú Unibanco","lat":-11.2701868,"lng":-37.4390375},{"id":"1654910196","tags":"amenity:restaurant","lat":-11.2694868,"lng":-37.43804},{"id":"1654910204","name":"Colégio Sagrado Coração","tags":"amenity:school","lat":-11.2669184,"lng":-37.43705},{"id":"1654910276","name":"Farmácia Alagoas","tags":"amenity:pharmacy","lat":-11.2563782,"lng":-37.4358377},{"id":"3881058792","name":"Hiper GBarbosa","tags":"shop:supermarket","lat":-11.2676867,"lng":-37.43976},{"id":"3881058793","name":"Hospital Regional Amparo de Maria","tags":"amenity:hospital,healthcare:hospital","lat":-11.2700597,"lng":-37.4403427},{"id":"3881058794","name":"Centro Ambulatorial Amparo de Maria","tags":"amenity:hospital,emergency:yes,healthcare:hospital","lat":-11.2702783,"lng":-37.4404736},{"id":"3881058796","name":"Supermercado Bombom","tags":"shop:supermarket","lat":-11.2684747,"lng":-37.4390227},{"id":"3881058797","name":"Supermercado Todo Dia","tags":"shop:supermarket","lat":-11.2678443,"lng":-37.4388246},{"id":"3882754232","name":"Farmacia JB","tags":"amenity:pharmacy","lat":-11.2698853,"lng":-37.4402128},{"id":"3886790332","tags":"amenity:library","lat":-11.2710822,"lng":-37.4345485},{"id":"3886790341","name":"Delegacia Regional","tags":"amenity:police","lat":-11.265765,"lng":-37.4378247},{"id":"3886790342","name":"Escola Criativa","tags":"amenity:school","lat":-11.2651081,"lng":-37.4400264},{"id":"3886790344","name":"Escola Haroldo Rocha","tags":"amenity:school","lat":-11.270176,"lng":-37.4358974},{"id":"3886790347","name":"Escola Municipal Givelda Santos Martins","tags":"amenity:school","lat":-11.2514132,"lng":-37.4311106},{"id":"3886790350","name":"Escola Municipal de Ensino Fundamental João Nascimento Filho","tags":"amenity:school","lat":-11.2675372,"lng":-37.4349678},{"id":"3886790356","name":"Mercadinho Alencar","tags":"shop:convenience","lat":-11.2718716,"lng":-37.4321294},{"id":"3886790558","name":"Pre Escola Professor José Dias de Oliveira","tags":"amenity:school","lat":-11.2670592,"lng":-37.4345503},{"id":"3937969566","tags":"amenity:pharmacy","lat":-11.2662978,"lng":-37.4366304},{"id":"7916555666","name":"Banco do Brasil","tags":"amenity:bank,brand:Banco do Brasil,brand:wikidata:Q610817,brand:wikipedia:en:Banco do Brasil","lat":-11.2719106,"lng":-37.4401954},{"id":"7916555667","name":"Banco do Nordeste","tags":"amenity:bank,brand:Banco do Nordeste,brand:wikidata:Q4854137,brand:wikipedia:en:Banco do Nordeste","lat":-11.2721027,"lng":-37.4402576},{"id":"7916555668","name":"Caixa Econômica Federal","tags":"amenity:bank,brand:Caixa Econômica Federal,brand:wikidata:Q835283,brand:wikipedia:pt:Caixa Econômica Federal","lat":-11.2726606,"lng":-37.4401201},{"id":"7916555669","name":"Bradesco","tags":"amenity:bank,brand:Bradesco,brand:wikidata:Q806181,brand:wikipedia:en:Banco Bradesco","lat":-11.2701392,"lng":-37.438796},{"id":"7916555670","name":"Banese","tags":"amenity:bank","lat":-11.2713786,"lng":-37.4400297}]