[{"id":"6614966470","name":"Univasf - Campus Serra da Capivara","tags":"addr:city:São Raimundo Nonato,addr:housenumber:s/n,addr:postcode:64770-000,addr:street:Rua João F. dos Santos,addr:suburb:Campestre,amenity:university,operator:UNIVASF,operator:type:public,website:https://portais.univasf.edu.br/campi/campus-sao-raimundo-nonato","lat":-9.0307176,"lng":-42.7026268},{"id":"6878103214","tags":"leisure:park","lat":-9.0184579,"lng":-42.6883064},{"id":"6879416917","tags":"amenity:pharmacy,dispensing:yes,healthcare:pharmacy","lat":-9.0261325,"lng":-42.6880804},{"id":"6879416918","tags":"amenity:car_wash","lat":-9.0266269,"lng":-42.6880942},{"id":"9448436104","name":"Educandario Talita","tags":"amenity:school","lat":-9.0137116,"lng":-42.6984327},{"id":"9448439227","name":"Escola Peniel - Educacao Infantil E Fundamental","tags":"amenity:school","lat":-9.0144189,"lng":-42.6979981},{"id":"9448450159","name":"Creche Tia Remedios","tags":"addr:city:São Raimundo Nonato,addr:housenumber:274,addr:postcode:64770-000,addr:street:Rua Virgílio Deusdara,addr:suburb:Centro,amenity:school","lat":-9.0140321,"lng":-42.694691},{"id":"9448453419","name":"Creche Nossa Senhora Das Merces","tags":"amenity:school","lat":-9.0153566,"lng":-42.6993339},{"id":"9451422985","name":"alto brilho","tags":"amenity:car_wash","lat":-9.0309622,"lng":-42.687824},{"id":"9702346463","name":"Academia Pública","tags":"leisure:fitness_centre,sport:fitness","lat":-9.010894,"lng":-42.6936878}]