[{"id":"6980615761","name":"Bradesco","tags":"amenity:bank,atm:yes,brand:Bradesco,brand:wikidata:Q806181,brand:wikipedia:en:Banco Bradesco,email:1077.gerencia@bradesco.com.br,phone:+55 99 3552 1827,website:https://banco.bradesco","lat":-6.0257258,"lng":-44.2486292},{"id":"9039018811","name":"CINEC","tags":"addr:city:Colinas,addr:postcode:65690-000,addr:street:Avenida Doutor Osano Brandão,addr:suburb:Centro,amenity:school","lat":-6.0268749,"lng":-44.2468183},{"id":"9123212206","name":"Centro Educa Mais Maria José Macedo Costa","tags":"amenity:school","lat":-6.0295396,"lng":-44.2432375},{"id":"9123257094","name":"UI Maria do Socorro S Macedo","tags":"amenity:school","lat":-6.0372437,"lng":-44.2370752},{"id":"9123276026","name":"Escola O Bom Pastor","tags":"addr:city:Colinas,addr:postcode:65690-000,addr:street:Rua Rio Branco,addr:suburb:Centro,amenity:school","lat":-6.0272136,"lng":-44.2484008},{"id":"9123291372","name":"Centro de Ensino Rosa Camara","tags":"addr:city:Colinas,addr:postcode:65690-000,addr:suburb:Centro,amenity:school","lat":-6.027243,"lng":-44.2506994},{"id":"9123298110","name":"Instituto Educação Betel","tags":"addr:city:Colinas,addr:postcode:65690-000,addr:street:Rua Odorico Mendes,addr:suburb:Centro,amenity:school","lat":-6.0291368,"lng":-44.2466573},{"id":"9123305825","name":"UI Mariana Moreira Mota","tags":"amenity:school","lat":-6.0370135,"lng":-44.2501469},{"id":"9123306348","name":"Creche Maria Neusa Pereira de Oliveira","tags":"amenity:school","lat":-6.0276523,"lng":-44.2504431},{"id":"9123306651","name":"Centro de Ensino João Pessoa","tags":"addr:city:Colinas,addr:postcode:65690-000,addr:street:Avenida Doutor Osano Brandão,addr:suburb:Centro,amenity:school","lat":-6.0266295,"lng":-44.2483713},{"id":"9123309806","name":"Educandario Elizabetta Renzi","tags":"amenity:school","lat":-6.0316815,"lng":-44.2375298},{"id":"9123315609","name":"Centro de Ensino Dr Antônio Jorge Dino","tags":"amenity:school","lat":-6.0242822,"lng":-44.2470141},{"id":"9123320268","name":"UI Professora Leda Costa","tags":"amenity:school","lat":-6.0500804,"lng":-44.2355185},{"id":"9123328068","name":"Centro de Educação Favo de Mel","tags":"amenity:school","lat":-6.0282404,"lng":-44.2511808},{"id":"9123329189","name":"Creche Portal do Saber","tags":"amenity:school","lat":-6.0506551,"lng":-44.2348749}]