[{"id":"6981441908","name":"Bradesco","tags":"addr:city:Fortuna,addr:housenumber:147,addr:postcode:65695-000,addr:street:Rua Primeiro de Maio,addr:suburb:Centro,amenity:bank,atm:yes,brand:Bradesco,brand:wikidata:Q806181,brand:wikipedia:en:Banco Bradesco,email:5256.gerencia@bradesco.com.br,phone:+55 99 3574 1135,website:https://banco.bradesco/","lat":-5.7367502,"lng":-44.1613676},{"id":"8685810963","name":"JI Pequeno Príncipe","tags":"addr:city:Fortuna,addr:postcode:65695-000,addr:street:Rua Santa Isabel,addr:suburb:Piauí,amenity:school","lat":-5.7316886,"lng":-44.1511439},{"id":"8685870179","name":"UE Vidal Pereira","tags":"addr:city:Fortuna,addr:postcode:65695-000,addr:street:Rua Vinte e Um de Abril,addr:suburb:Piauí,amenity:school","lat":-5.7297793,"lng":-44.1471232},{"id":"8685875800","name":"UI Elizeu Soares","tags":"addr:city:Fortuna,addr:postcode:65695-000,addr:street:Rua de Colinas,addr:suburb:Piauí,amenity:school","lat":-5.740351,"lng":-44.1518891},{"id":"8685886864","name":"UE Deputado Edson Lobão","tags":"addr:city:Fortuna,addr:postcode:65695-000,addr:street:Rua Dom Pedro II,addr:suburb:Centro,amenity:school","lat":-5.7338911,"lng":-44.1569806},{"id":"8685887050","name":"Escola Comunitária de Fortuna","tags":"addr:city:Fortuna,addr:postcode:65695-000,addr:street:Avenida Governador Newton Bello,addr:suburb:Centro,amenity:school","lat":-5.733776,"lng":-44.1567638},{"id":"8685890901","name":"JI Sete Anões","tags":"addr:city:Fortuna,addr:postcode:65695-000,addr:street:Rua João Lisboa,addr:suburb:Maranhão,amenity:school","lat":-5.7352293,"lng":-44.1579098},{"id":"8685892824","name":"UE Doutor Getúlio Vargas","tags":"addr:city:Fortuna,addr:postcode:65695-000,addr:street:Rua 7 de Setembro,addr:suburb:Centro,amenity:school","lat":-5.7369857,"lng":-44.1604953},{"id":"8685896104","name":"UE Professora Socorro Lopes","tags":"addr:city:Fortuna,addr:postcode:65695-000,amenity:school","lat":-5.7229049,"lng":-44.1481922},{"id":"9118028393","name":"UI Ditador Medici","tags":"amenity:school","lat":-5.7351926,"lng":-44.1516963}]