[{"id":"6980615762","name":"Bradesco","tags":"amenity:bank,atm:yes,brand:Bradesco,brand:wikidata:Q806181,brand:wikipedia:en:Banco Bradesco,email:5224.gerencia@bradesco.com.br,phone:+55 99 3572 0563","lat":-5.837368,"lng":-43.8304149},{"id":"8429423913","name":"Unidade Escolar Menino Jesus","tags":"addr:city:Buriti Bravo,addr:postcode:65685-000,addr:street:Praça Lurdita Raposo,amenity:school,phone:+55 99 3572 0494","lat":-5.8379627,"lng":-43.8373494},{"id":"8429424630","name":"UE Noca Coelho","tags":"addr:city:Buriti Bravo,addr:postcode:65685-000,addr:street:Avenida Máximo Ferreira,amenity:school","lat":-5.8365755,"lng":-43.8353323},{"id":"8429427520","name":"Unidade Integrada Moacir Coelho","tags":"addr:city:Buriti Bravo,addr:postcode:65685-000,addr:street:Praça Carneiro Frade,amenity:school","lat":-5.8382468,"lng":-43.8417386},{"id":"8432281250","name":"UE Benedito Leite Ii","tags":"addr:city:Buriti Bravo,addr:postcode:65685-000,addr:street:Rua Duque de Caxias,amenity:school","lat":-5.8397263,"lng":-43.8356475},{"id":"8432293669","name":"UE Marly Sarney","tags":"addr:city:Buriti Bravo,addr:postcode:65685-000,addr:street:Rua Rio Branco,amenity:school","lat":-5.8410141,"lng":-43.8301325},{"id":"8432309556","name":"Escola Crista Evangelica","tags":"addr:city:Buriti Bravo,addr:postcode:65685-000,addr:street:Rua São Mateus,addr:suburb:Centro,amenity:school","lat":-5.8341417,"lng":-43.8349171},{"id":"8432315518","name":"Creche Santa Clara","tags":"addr:city:Buriti Bravo,addr:postcode:65685-000,addr:street:Rua Fazenda Nova,addr:suburb:Fazenda Nova,amenity:school","lat":-5.8409446,"lng":-43.8244912},{"id":"8432322372","name":"Ue João Coimbra","tags":"addr:city:Buriti Bravo,addr:postcode:65685-000,addr:street:Rua Fazenda Nova,addr:suburb:Fazenda Nova,amenity:school","lat":-5.8412871,"lng":-43.824519},{"id":"8432322412","name":"Colegio Presidente Kennedy","tags":"addr:city:Buriti Bravo,addr:postcode:65685-000,addr:street:Rua da Bandeira,addr:suburb:Centro,amenity:school","lat":-5.8341492,"lng":-43.8332082},{"id":"8432335264","name":"Escola Educacional Betel","tags":"addr:city:Buriti Bravo,addr:housenumber:376,addr:postcode:65685-000,addr:street:Rua da Bandeira,addr:suburb:Centro,amenity:school","lat":-5.8349456,"lng":-43.8333892},{"id":"8432372178","name":"UE Laranjeiras","tags":"addr:city:Buriti Bravo,addr:postcode:65685-000,addr:street:Rua da Bandeira,amenity:school","lat":-5.8312335,"lng":-43.8315002},{"id":"8432390676","name":"Centro de Apoio Educação Criança Cidadã","tags":"addr:city:Buriti Bravo,addr:postcode:65685-000,addr:street:Rua Macário Dias,amenity:school","lat":-5.8386595,"lng":-43.8337596},{"id":"8432393037","name":"Escolinha Infantil Recanto Do Saber","tags":"addr:city:Buriti Bravo,addr:postcode:65685-000,addr:street:Rua das Violetas,amenity:school","lat":-5.8432705,"lng":-43.8374711},{"id":"8432394244","name":"Centro de Ensino Professora Zuleica Santos","tags":"addr:city:Buriti Bravo,addr:postcode:65685-000,addr:street:Praça Zuza Paiva,amenity:school","lat":-5.8395737,"lng":-43.8295813},{"id":"8432421924","name":"Centro de Ensino Senador Carvalho Guimarães","tags":"addr:city:Buriti Bravo,addr:postcode:65685-000,addr:street:Rua da Glória I,amenity:school","lat":-5.835965,"lng":-43.8354579},{"id":"8432428907","name":"Ue Benedito Leite","tags":"addr:city:Buriti Bravo,addr:postcode:65685-000,amenity:school","lat":-5.8353436,"lng":-43.8365716},{"id":"8432460403","name":"Creche Mundica Raposo","tags":"addr:city:Buriti Bravo,addr:postcode:65685-000,addr:street:Rua Santa Luzia,amenity:school","lat":-5.8397073,"lng":-43.8330741},{"id":"8432488457","name":"Escola Infantil Mundo Encantado","tags":"addr:city:Buriti Bravo,addr:postcode:65685-000,addr:street:Rua Doutor Américo Costa,amenity:school","lat":-5.8343875,"lng":-43.8317446},{"id":"8432504249","name":"Escola Crista Maranata","tags":"addr:city:Buriti Bravo,addr:postcode:65685-000,addr:street:Avenida Máximo Ferreira,amenity:school","lat":-5.8364054,"lng":-43.8383479}]