[{"id":"8743806746","name":"Point do Açaí Amarante-PI","tags":"addr:city:Amarante,addr:postcode:64400-000,addr:street:Avenida Francisco Lira,amenity:restaurant","lat":-6.2428282,"lng":-42.8457355},{"id":"8796745338","name":"Restaurante Tia Julia","tags":"addr:city:Amarante,addr:postcode:64400-000,addr:street:Avenida Afrânio Filho,addr:suburb:Escalvado,amenity:restaurant","lat":-6.2420036,"lng":-42.8453762},{"id":"8828185011","name":"Pizzaria Ramos","tags":"amenity:restaurant,cuisine:pizza","lat":-6.2467425,"lng":-42.8390851},{"id":"8828202022","name":"Caipira Churrascaria & Lanchonete","tags":"amenity:restaurant","lat":-6.2464913,"lng":-42.8375449},{"id":"8828236928","name":"Restaurante Serra Azul","tags":"amenity:restaurant","lat":-6.2458669,"lng":-42.8284655},{"id":"8828236943","name":"Restaurante MN","tags":"amenity:restaurant","lat":-6.2453046,"lng":-42.8284167},{"id":"8828236986","name":"Samu Hospital","tags":"addr:city:Amarante,addr:postcode:64400-000,addr:street:BR 343,addr:suburb:Novo Amarante,amenity:hospital,healthcare:hospital","lat":-6.2469505,"lng":-42.8400213}]