[{"id":"1687936378","name":"Terminal de Integração do Marcos Freire - \"Franklin de Oliveira Ribeiro\"","tags":"amenity:bus_station,bus:yes,operator:Viação Atalaia;Prefeitura Municipal de Nossa Senhora do Socorro,public_transport:station","lat":-10.8473534,"lng":-37.0645199},{"id":"2598964636","name":"Feirão da Economia","tags":"shop:supermarket","lat":-10.8487183,"lng":-37.0641232},{"id":"4499183991","name":"Restaurante Popular Padre Pedro","tags":"amenity:restaurant","lat":-10.8527194,"lng":-37.0816445},{"id":"4499218190","name":"Léo fitness","tags":"leisure:fitness_centre,name:pt:Léo fitness","lat":-10.8492581,"lng":-37.0674895},{"id":"4505290191","name":"Colégio Concenal","tags":"amenity:school,name:pt:Colégio Concenal","lat":-10.8449325,"lng":-37.0687175},{"id":"4519474895","name":"Farmácia Sandes","tags":"addr:street:Avenida Governador Sebastião Celso de Carvalho,amenity:pharmacy,healthcare:pharmacy","lat":-10.8487784,"lng":-37.0673422},{"id":"4519547390","name":"Farmácia 24h","tags":"addr:city:Nossa Senhora do Socorro,addr:postcode:49160-000,addr:street:Avenida Governador Sebastião Celso de Carvalho,addr:suburb:Marcos Freire 1,amenity:pharmacy,healthcare:pharmacy,opening_hours:Su-Th,Ph,Sa 00:00-23:59","lat":-10.8502288,"lng":-37.0691242},{"id":"4519610289","name":"Farmácia do Trabalhador Predileta","tags":"amenity:pharmacy,healthcare:pharmacy","lat":-10.8494287,"lng":-37.068488},{"id":"4522469189","name":"Colégio Concenal pré","tags":"amenity:school,name:pt:Colégio Concenal pré","lat":-10.8448496,"lng":-37.0686375},{"id":"4538142189","name":"Escola Municipal Cepro","tags":"amenity:school,name:pt:Escola Municipal Cepro","lat":-10.8529739,"lng":-37.0750434},{"id":"4607184296","name":"Banco do Nordeste","tags":"amenity:bank,brand:Banco do Nordeste,brand:wikidata:Q4854137,brand:wikipedia:en:Banco do Nordeste","lat":-10.8525471,"lng":-37.0792995},{"id":"5207579021","name":"A Bodeguita","tags":"addr:housenumber:476,addr:postcode:49160-000,addr:street:Avenida Coletora C,addr:suburb:Conjunto Marcos Freire II,amenity:restaurant,internet_access:wlan,opening_hours:We-Mo 10:00-24:00; Tu 10:00-15:00; PH off","lat":-10.8509487,"lng":-37.0611137},{"id":"5335637321","name":"Farmácias FM","tags":"amenity:pharmacy,healthcare:pharmacy","lat":-10.8348252,"lng":-37.0668256},{"id":"5335637323","name":"Super JG","tags":"shop:supermarket","lat":-10.8350678,"lng":-37.0668661},{"id":"5379692823","name":"Mercearia Trindade","tags":"shop:supermarket","lat":-10.8349902,"lng":-37.0671127},{"id":"7923617720","name":"Pizzaria e Boteco Itabaiana","tags":"amenity:restaurant,cuisine:pizza","lat":-10.84827,"lng":-37.0646167},{"id":"8534280233","name":"Farmácia Martins","tags":"addr:street:Avenida Governador Sebastião Celso de Carvalho,amenity:pharmacy,dispensing:yes,healthcare:pharmacy","lat":-10.8479613,"lng":-37.0659061},{"id":"8534280234","name":"Farmácia do Trabalhador Socorrense","tags":"addr:street:Avenida Governador Sebastião Celso de Carvalho,amenity:pharmacy,dispensing:yes,healthcare:pharmacy,opening_hours:Mo-Fr 09:00-18:00,shop:stationery","lat":-10.8480232,"lng":-37.0660301},{"id":"8534280235","name":"Farmácias Castro","tags":"addr:street:Avenida Governador Sebastião Celso de Carvalho,amenity:pharmacy,dispensing:yes,healthcare:pharmacy","lat":-10.8480681,"lng":-37.0661206},{"id":"9077990981","name":"GBarbosa","tags":"branch:Shopping Prêmio,brand:GBarbosa,brand:wikidata:Q10287817,brand:wikipedia:pt:GBarbosa,opening_hours:Mo-Su 07:00-22:00,operator:GBarbosa,shop:supermarket","lat":-10.8502479,"lng":-37.0778302},{"id":"9264623407","name":"Farmácia Saracura","tags":"addr:housenumber:305,addr:street:Avenida Coletora C,addr:suburb:Conjunto Marcos Freire II,amenity:pharmacy,dispensing:yes,drive_through:no,healthcare:pharmacy,phone:+55 79 3256 7233","lat":-10.8495696,"lng":-37.0619878}]