[{"id":"2051676108","name":"Agência dos Correios de Carira","tags":"amenity:post_office","lat":-10.359181,"lng":-37.7026944},{"id":"3567472358","name":"Banco do Brasil","tags":"amenity:bank,atm:yes","lat":-10.3603389,"lng":-37.7015163},{"id":"3781995026","name":"Banese","tags":"amenity:bank,atm:yes,wheelchair:yes","lat":-10.3619563,"lng":-37.6995685},{"id":"3781995027","name":"Boticário","tags":"shop:beauty","lat":-10.3602775,"lng":-37.7018284},{"id":"3781995030","name":"Farmácia Nova Vida","tags":"amenity:pharmacy","lat":-10.3595865,"lng":-37.7027496},{"id":"3781995031","name":"Farmácia Vida Nova","tags":"amenity:pharmacy","lat":-10.358842,"lng":-37.702306},{"id":"3781996779","tags":"amenity:restaurant","lat":-10.3540595,"lng":-37.7034572},{"id":"9768216342","name":"Caixa Econômica Federal","tags":"amenity:bank,brand:Caixa Econômica Federal,brand:wikidata:Q835283","lat":-10.3600655,"lng":-37.7019196}]