[{"id":"2543436141","name":"PC-TRAN ( PMBA )","tags":"amenity:police,police:traffic_police","lat":-9.4013613,"lng":-38.2371443},{"id":"10230919105","name":"Mercadinho Maria Quitanda","tags":"shop:convenience","lat":-9.3771262,"lng":-38.2406776},{"id":"10230937469","name":"Caixa Econômica","tags":"amenity:atm,brand:Caixa Econômica Federal,brand:wikidata:Q835283,operator:Caixa Econômica Federal,operator:wikidata:Q835283","lat":-9.376533,"lng":-38.240798},{"id":"10230945098","name":"Drogaria Farmavida","tags":"amenity:pharmacy,healthcare:pharmacy","lat":-9.3765848,"lng":-38.2407942},{"id":"10230947804","name":"Escola Municipal Guiomar Pereira","tags":"amenity:school","lat":-9.3751685,"lng":-38.243731},{"id":"10230949973","name":"Drogaria Bem Estar Farma","tags":"amenity:pharmacy,healthcare:pharmacy","lat":-9.3719744,"lng":-38.2442302},{"id":"10230971942","name":"Comercial Moraes","tags":"shop:supermarket","lat":-9.371959,"lng":-38.2438881},{"id":"10230994015","name":"Kapellas Supermercado","tags":"shop:supermarket","lat":-9.3718938,"lng":-38.2445022},{"id":"10231035948","name":"Mini Mercado Oliveira","tags":"shop:convenience","lat":-9.3819681,"lng":-38.2400281}]