[{"id":"3249200762","name":"Escola de Ensino Fundamento Coronel Pedro Suruagy","tags":"amenity:school","lat":-9.7495064,"lng":-36.6442465},{"id":"5237123610","name":"Atacadão","tags":"addr:street:Rodovia AL220,shop:supermarket","lat":-9.7472159,"lng":-36.6352245},{"id":"5237124133","name":"Polícia Rodoviária Estadual","tags":"amenity:police,name:en:Police,police:traffic_police","lat":-9.7478131,"lng":-36.6328716},{"id":"5237124134","name":"Restaurante e Churrascaria do Marquinho","tags":"amenity:restaurant","lat":-9.7538729,"lng":-36.6355335},{"id":"5237321621","name":"Complexo Hospitalar Manoel Andre - CHAMA","tags":"addr:housenumber:344,addr:street:Rodovia AL220, Km 2, Senador Arnon de Melo,amenity:hospital,internet_access:wlan,opening_hours:24/7,phone:+55 82 3524-4781","lat":-9.7448367,"lng":-36.6361849},{"id":"8822706991","name":"Haraf's Café","tags":"addr:city:Arapiraca,addr:housenumber:1179, loja 05,addr:postcode:57312-675,addr:street:Avenida Deputada Ceci Cunha,addr:suburb:Novo Horinzonte,amenity:cafe,cuisine:cafe;cafetaria;drinks,internet_access:yes,opening_hours:Mo-Su 08:00-21:00,opening_hours:covid19:open,phone:+55 82 99841 4343,website:harafs cafe,wheelchair:yes","lat":-9.7451142,"lng":-36.642653},{"id":"9387066660","name":"Massagueirinha Arapiraca - Restaurante de Frutos do Mar","tags":"addr:city:Arapiraca,addr:housenumber:848,addr:postcode:57314-105,addr:street:Avenida Deputada Ceci Cunha,addr:suburb:Itapoã,amenity:restaurant,bar:yes,brewery:various;yes,cuisine:regional;seafood,diet:diabetes:yes,diet:meat:yes,diet:pescetarian:yes,diet:vegetarian:yes,opening_hours:11:00-00:00,outdoor_seating:yes,wheelchair:yes","lat":-9.7474789,"lng":-36.6465048},{"id":"9514879419","name":"Área Verde - Santa Esmeralda","tags":"addr:city:Arapiraca,addr:suburb:Santa Esmeralda,leisure:park","lat":-9.7364695,"lng":-36.6483137},{"id":"9514993220","name":"UPA - Noel Macedo","tags":"addr:city:Arapiraca,addr:street:Avenida Minervina Franscisca da Conceição,addr:suburb:Itapoã,amenity:hospital,healthcare:hospital","lat":-9.7494069,"lng":-36.6437217},{"id":"10053615869","name":"Corredor Área Verde (Ampliação)","tags":"leisure:park","lat":-9.7376311,"lng":-36.6478631}]