[{"id":"2359587267","name":"Cadeia Pública de Inajá","tags":"amenity:police","lat":-8.9013198,"lng":-37.8250033},{"id":"2359600089","name":"Cemitério Santo Antônio","tags":"landuse:cemetery","lat":-8.9018378,"lng":-37.8260815},{"id":"2359622310","name":"Banco do Brasil","tags":"amenity:bank","lat":-8.9009027,"lng":-37.8213626},{"id":"2359622336","name":"Bradesco","tags":"addr:street:Rua Cícero Torres,amenity:bank,brand:Bradesco,brand:wikidata:Q806181,brand:wikipedia:en:Banco Bradesco,operator:Private","lat":-8.9014013,"lng":-37.8241722},{"id":"2359648550","name":"Pista de Pouso de Inajá","tags":"aeroway:aerodrome","lat":-8.882397,"lng":-37.8301528},{"id":"2380677898","name":"Escola Municipal Olímpia Maria de Oliveira","tags":"amenity:school","lat":-8.9062673,"lng":-37.8314625},{"id":"2380677899","name":"Colégio Municipal de Inajá","tags":"amenity:school","lat":-8.9063521,"lng":-37.8314196},{"id":"2380677928","name":"Escola Municipal Maria de Jesus","tags":"amenity:school","lat":-8.9018305,"lng":-37.8266372},{"id":"2380677929","name":"Escola Municipal Izabel Batista de Araújo","tags":"amenity:school","lat":-8.9004707,"lng":-37.828822}]