[{"id":"5366858806","name":"Pedra do Dragao","tags":"natural:rock,tourism:attraction","lat":-8.5339885,"lng":-37.2524393},{"id":"7156765872","name":"Loca das Cinzas","tags":"tourism:attraction","lat":-8.5539242,"lng":-37.2334639},{"id":"7156766032","name":"Torres","tags":"tourism:attraction","lat":-8.5656726,"lng":-37.2441158},{"id":"7156766156","name":"Casa de farinha","tags":"description:gruta com pinturas rupestres,tourism:attraction","lat":-8.5573159,"lng":-37.2328371},{"id":"7156766179","name":"Torre","tags":"tourism:attraction","lat":-8.5668524,"lng":-37.2456763}]