[{"id":"2827958626","name":"Escola Municipal Coronel Adauto G. Barbosa","tags":"addr:hamlet:Sítio Areia Vermelha,addr:number:25SMS,addr:postcode:57260000,addr:street:Sítio Areia Vermelha,amenity:school","lat":-9.716247,"lng":-36.463543},{"id":"2827958629","name":"Escola de Primeiro Grau Antônio Garcia","tags":"addr:hamlet:Sítio Oiti,addr:number:9SMS,addr:postcode:57260000,addr:street:Sítio Oiti,amenity:school","lat":-9.754667,"lng":-36.4663019},{"id":"2830030534","name":"Escola Municipal Francisco Melo","tags":"addr:hamlet:Sítio Pau Ferro,addr:number:30,addr:postcode:57260000,addr:street:Sítio Pau Ferro,amenity:school","lat":-9.751992,"lng":-36.442323},{"id":"2830030535","name":"Escola Municipal Governador Lamenha Filho","tags":"addr:hamlet:Sítio Papa Farinha,addr:number:0SN,addr:postcode:57260000,addr:street:Sítio Papa Farinha,amenity:school","lat":-9.752938,"lng":-36.449208},{"id":"2830030540","name":"Escola Municipal Juvenal Francisco de Souza","tags":"addr:hamlet:Sítio Gravatá,addr:number:0SN,addr:postcode:57260000,addr:street:Sítio Gravatá,amenity:school","lat":-9.7130052,"lng":-36.4738486},{"id":"2830030543","name":"Escola Municipal Nenita Moreira do Carmo","tags":"addr:hamlet:Canto I,addr:number:64SMS,addr:postcode:57260000,addr:street:Sítio Canto I,amenity:school","lat":-9.7278908,"lng":-36.4472492}]