[{"id":"2775485486","tags":"amenity:post_office,operator:Correios,operator:wikidata:Q3375004,operator:wikipedia:en:Correios","lat":-9.1608499,"lng":-36.0321359},{"id":"2776377942","name":"Colégio José Correia Vianna","tags":"amenity:school","lat":-9.1585004,"lng":-36.0309381},{"id":"2776482689","name":"Hospital Geral da União","tags":"amenity:hospital","lat":-9.1572497,"lng":-36.0294742},{"id":"2776482757","tags":"amenity:police","lat":-9.1567184,"lng":-36.0273401},{"id":"2776906052","name":"Hospital São Vicente","tags":"amenity:hospital","lat":-9.1596253,"lng":-36.0288474},{"id":"2852691616","name":"Escola Alfredo Gomes da Silva","tags":"amenity:school","lat":-9.1770666,"lng":-36.0338448},{"id":"6011381901","name":"Polícia Rodoviária Federal","tags":"amenity:police,opening_hours:24/7,operator:Polícia Rodoviária Federal,operator:wikidata:Q1158853,operator:wikipedia:pt:Polícia Rodoviária Federal,phone:+55 82 3214 4112,police:traffic_police","lat":-9.1718012,"lng":-36.0259002},{"id":"7787467627","name":"Terminal Rodoviário","tags":"addr:city:União dos Palmares,addr:state:AL,amenity:bus_station,public_transport:station","lat":-9.1593887,"lng":-36.0319875}]