[{"id":"616554906","name":"Terminal do Eustáquio Gomes","tags":"amenity:bus_station","lat":-9.5418704,"lng":-35.783226},{"id":"625848973","name":"Terminal do Osman Loureiro","tags":"amenity:bus_station,bus:yes,public_transport:station","lat":-9.5795605,"lng":-35.7779432},{"id":"635428825","name":"Terminal do Rio Novo","tags":"amenity:bus_station","lat":-9.5740257,"lng":-35.8122395},{"id":"795973250","tags":"amenity:parking","lat":-9.5538644,"lng":-35.7730051},{"id":"795977444","tags":"amenity:parking","lat":-9.5539326,"lng":-35.7738393},{"id":"795978165","tags":"amenity:parking","lat":-9.5572971,"lng":-35.7804054},{"id":"2124586086","name":"Banco do Brasil","tags":"amenity:bank,atm:yes,brand:Banco do Brasil,brand:wikidata:Q610817,brand:wikipedia:en:Banco do Brasil","lat":-9.5552291,"lng":-35.7781208},{"id":"2213104250","name":"Bira","tags":"amenity:restaurant","lat":-9.5517304,"lng":-35.775333},{"id":"2693638301","tags":"amenity:parking,capacity:9,fee:no,parking:surface","lat":-9.553345,"lng":-35.7767129},{"id":"2693638328","name":"Santander","tags":"amenity:bank,atm:yes","lat":-9.5549521,"lng":-35.7775796},{"id":"2695728773","name":"Supermercado Multicompra","tags":"shop:supermarket","lat":-9.5408642,"lng":-35.7866608},{"id":"2907917545","tags":"amenity:police","lat":-9.5790297,"lng":-35.7787482},{"id":"3719156212","name":"Restaurante do CEDU","tags":"amenity:restaurant,internet_access:no,smoking:no,wheelchair:yes","lat":-9.5554129,"lng":-35.7755497},{"id":"3719156213","name":"Restaurante do CSAU","tags":"amenity:restaurant","lat":-9.5568315,"lng":-35.7753649},{"id":"4996330622","name":"Caixa Econômica Federal","tags":"amenity:bank,brand:Caixa Econômica Federal,brand:wikidata:Q835283,brand:wikipedia:pt:Caixa Econômica Federal,name:pt:Caixa Econômica","lat":-9.5754052,"lng":-35.7716707},{"id":"7119146213","name":"Rio Novo","tags":"light_rail:yes,public_transport:station,railway:station,station:light_rail","lat":-9.5793951,"lng":-35.8103916},{"id":"9588847330","name":"Supermercado São Domingos","tags":"addr:city:Satuba,addr:postcode:57120-000,addr:suburb:Satuba Nova,opening_hours:Mo-Sa 07:00-21:00; Su 07:00-19:00,operator:Rede de Supermercados São Domingos,payment:cash:yes,payment:credit_cards:yes,payment:debit_cards:yes,phone:+55 82 9 8884-5153,shop:supermarket","lat":-9.5439367,"lng":-35.81274},{"id":"9976464543","name":"Instituto de Educação Física e Esporte (IEFE-UFAL)","tags":"addr:city:Maceió,addr:postcode:57072-900,addr:street:Av. Lourival Melo Mota, S/N,addr:suburb:Cidade Universitária,amenity:university,internet_access:yes,website:https://iefe.ufal.br/","lat":-9.55583,"lng":-35.7786659}]