[{"id":"2830897190","name":"Lumar","tags":"shop:supermarket","lat":-8.7511249,"lng":-35.0973927},{"id":"2830897193","name":"O Rei dos Crustáceos","tags":"amenity:restaurant","lat":-8.7513009,"lng":-35.0975346},{"id":"2830898312","tags":"amenity:bank,brand:Banco do Brasil,opening_hours:Mo-Fr 10:00-15:00,wheelchair:yes","lat":-8.7555032,"lng":-35.1019496},{"id":"2854046380","name":"Preço Bom","tags":"shop:supermarket","lat":-8.7579275,"lng":-35.1058375},{"id":"2854046381","name":"Noronha","tags":"amenity:restaurant","lat":-8.7530783,"lng":-35.098822},{"id":"2856754906","name":"Farol","tags":"amenity:restaurant,cuisine:italian","lat":-8.7540494,"lng":-35.0948847},{"id":"4296849894","name":"Giro Grill","tags":"amenity:restaurant,cuisine:steak_house","lat":-8.757856,"lng":-35.1111742},{"id":"4762525841","name":"2841 - Monica conveniência e artesanato","tags":"addr:housenumber:681,addr:postcode:55578-000,addr:street:Avenida Leopoldino Lins,name:en:2841 - Monica conveniência e artesanato,name:pt:2841 - Monica conveniência e artesanato,shop:supermarket","lat":-8.7555043,"lng":-35.0979248},{"id":"4762525861","name":"Lanchonete Estrelar","tags":"addr:housenumber:01,addr:postcode:55578-000,addr:street:José Bezerra Sobrinho,amenity:restaurant,name:pt:Lanchonete Estrelar","lat":-8.7572985,"lng":-35.104001},{"id":"4762605092","name":"Marco's Bar","tags":"amenity:bar","lat":-8.7525299,"lng":-35.0984605},{"id":"4762620600","name":"2812 - Jailson da Buchada","tags":"addr:street:Rua São José,amenity:restaurant,name:en:2812 - Jailson da Buchada,name:pt:2812 - Jailson da Buchada","lat":-8.750757,"lng":-35.0903579},{"id":"5272558321","name":"Degutti","tags":"amenity:cafe","lat":-8.7538225,"lng":-35.0998314},{"id":"5411248222","tags":"amenity:restaurant,cuisine:brazilian","lat":-8.7499728,"lng":-35.0912227},{"id":"5742327602","name":"Farmácia União","tags":"amenity:pharmacy","lat":-8.7521944,"lng":-35.0979745},{"id":"5742327659","name":"BioFarma","tags":"amenity:pharmacy","lat":-8.7538945,"lng":-35.0999292},{"id":"5742327943","name":"Amazônia Mix Açaiteria","tags":"amenity:cafe","lat":-8.7529408,"lng":-35.0989362},{"id":"5742327945","name":"Express","tags":"old_name:Niape,shop:supermarket","lat":-8.7537021,"lng":-35.1001052},{"id":"5745602557","name":"RAPPA NUI","tags":"amenity:restaurant","lat":-8.749832,"lng":-35.0971063},{"id":"5745602558","tags":"amenity:post_office","lat":-8.7575652,"lng":-35.1040064},{"id":"5764038064","name":"Mas Saúde","tags":"amenity:pharmacy","lat":-8.754225,"lng":-35.1008281},{"id":"5764038065","name":"Farmácia Tamandaré","tags":"amenity:pharmacy","lat":-8.755744,"lng":-35.1028041},{"id":"5764038154","name":"Esquina do Cheff","tags":"amenity:restaurant,cuisine:brazilian;pizza,opening_hours:Mo-Su 11:00-22:00,phone:+55 81 985542227","lat":-8.7533159,"lng":-35.0996025},{"id":"5764038155","name":"BichoMania","tags":"opening_hours:Mo-Sa 09:00-12:00,14:00-18:00,shop:pet","lat":-8.7535071,"lng":-35.099922},{"id":"5769026252","name":"Hospital Municipal José Mucio Monteiro","tags":"amenity:hospital","lat":-8.7557655,"lng":-35.0989943},{"id":"5769026870","name":"Supermercado do Povo","tags":"shop:convenience","lat":-8.7578685,"lng":-35.1035535},{"id":"8017438091","name":"Capim Bambu","tags":"addr:city:Tamandaré,addr:housenumber:610,addr:postcode:55578-000,addr:street:Avenida Jose Bezerra Sobrinho,amenity:restaurant,cuisine:pizza;regional,opening_hours:Mo-Su 11:00-01:00,phone:+55 81 3676-1241,website:https://www.instagram.com/capim.bambu/","lat":-8.7540523,"lng":-35.1002225},{"id":"8617721781","name":"Martins Frios, Carnes e Bebidas","tags":"shop:convenience","lat":-8.7540183,"lng":-35.1001655},{"id":"8617721782","name":"ESPETINHO DA MARI","tags":"amenity:restaurant,cuisine:burger;regional;churrasco;espetinho","lat":-8.7539917,"lng":-35.1001311},{"id":"9904620784","name":"Guarda Municipal","tags":"amenity:police","lat":-8.7550264,"lng":-35.1014233},{"id":"9904622351","name":"Polícia Militar","tags":"amenity:police","lat":-8.7562852,"lng":-35.1035301},{"id":"9904624990","tags":"amenity:atm,operator:Banco do Brasil","lat":-8.7554356,"lng":-35.1019899},{"id":"9906395023","tags":"amenity:pharmacy,brand:Farmácia do Povo,healthcare:pharmacy","lat":-8.7565501,"lng":-35.1038213},{"id":"9906411786","name":"Frente de Quintal","tags":"addr:street:Travessa Nona da Rua 8,air_conditioning:no,amenity:restaurant,cuisine:regional;seafood,indoor_seating:yes,opening_hours:PH,Mo-Su 10:00-21:00,outdoor_seating:no,phone:+55 81 987631064,smoking:no","lat":-8.7479443,"lng":-35.0887913},{"id":"9908557170","name":"O Boticário","tags":"opening_hours:Mo-Sa 08:00-12:00, 14:00-18:00,shop:beauty","lat":-8.7537005,"lng":-35.0996968},{"id":"9912549137","name":"Farmácia Melhor Opção","tags":"amenity:pharmacy,opening_hours:Mo-Su 07:00-00:00","lat":-8.7538017,"lng":-35.1002404},{"id":"9913345105","name":"Pet Planet","tags":"shop:pet","lat":-8.7519998,"lng":-35.0973239},{"id":"9914958965","tags":"amenity:bank,brand:Bradesco,level:0,opening_hours:Mo-Fr 08:00-13:00","lat":-8.7556081,"lng":-35.1021129},{"id":"9914958966","tags":"amenity:atm,level:0,opening_hours:24/7,operator:Bradesco,wheelchair:yes","lat":-8.7555489,"lng":-35.1021565},{"id":"9919922908","tags":"amenity:car_wash,automated:no,self_service:no","lat":-8.751033,"lng":-35.0969875},{"id":"9924976971","name":"Fênix","tags":"airconditioned:yes,shop:supermarket","lat":-8.7515839,"lng":-35.0977799},{"id":"9925004693","tags":"amenity:atm,location:indoor,operator:Banco24Horas","lat":-8.7516054,"lng":-35.0977942},{"id":"9931798811","tags":"shop:chemist","lat":-8.7545419,"lng":-35.0999379},{"id":"9933966775","tags":"shop:pet","lat":-8.7526077,"lng":-35.0981569},{"id":"9937956406","name":"Casa das Rações","tags":"phone:+55 81 982728017,shop:pet","lat":-8.7531787,"lng":-35.0994153},{"id":"9940928958","name":"São João","tags":"air_conditioning:no,amenity:restaurant,check_date:opening_hours:2022-08-08,indoor_seating:yes,opening_hours:signed:no,outdoor_seating:no,phone:+55 81 984826514,smoking:no","lat":-8.7581282,"lng":-35.1050545},{"id":"9940934116","name":"Escola Pública Engenheiro Millet","tags":"amenity:school","lat":-8.7584929,"lng":-35.1048646},{"id":"9943346320","name":"Casa das Rações","tags":"phone:+55 81 998315333,shop:pet","lat":-8.7577883,"lng":-35.1049319}]