[{"id":"2741306494","name":"Academia","tags":"leisure:sports_centre","lat":-7.3123012,"lng":-38.5158119},{"id":"2741306496","name":"Banco do Brasil","tags":"amenity:bank,brand:Banco do Brasil,brand:wikidata:Q610817,brand:wikipedia:en:Banco do Brasil","lat":-7.3151956,"lng":-38.5174942},{"id":"2741306506","tags":"amenity:school","lat":-7.3114395,"lng":-38.5133018},{"id":"2741306507","tags":"amenity:school","lat":-7.314754,"lng":-38.5148315},{"id":"2741306508","tags":"amenity:school","lat":-7.3168249,"lng":-38.515522},{"id":"2741306529","tags":"amenity:bus_station,bus:yes,public_transport:station","lat":-7.3151913,"lng":-38.5134661},{"id":"5564079822","name":"Mercadinho Araruna","tags":"shop:convenience","lat":-7.3134334,"lng":-38.5157734},{"id":"5564079823","name":"Saúde Animal","tags":"amenity:pharmacy,healthcare:pharmacy","lat":-7.312667,"lng":-38.5157231},{"id":"5564080424","name":"Rodobar","tags":"amenity:restaurant","lat":-7.3154704,"lng":-38.5135829},{"id":"5564080425","name":"Adauto Luiz","tags":"shop:convenience","lat":-7.3128744,"lng":-38.5155973},{"id":"5564080426","name":"Cantinho do Bebé","tags":"shop:convenience","lat":-7.3126323,"lng":-38.5158063},{"id":"5564080429","name":"Mercadinho Barbosa","tags":"shop:convenience","lat":-7.312539,"lng":-38.5161393},{"id":"5564080431","name":"Bonito Farma","tags":"amenity:pharmacy,healthcare:pharmacy","lat":-7.3131364,"lng":-38.515661},{"id":"5564080433","tags":"shop:convenience","lat":-7.31329,"lng":-38.5157063},{"id":"5564080441","tags":"shop:convenience","lat":-7.3131374,"lng":-38.5157932},{"id":"5564110621","name":"Cristal","tags":"shop:convenience","lat":-7.3135473,"lng":-38.5154818},{"id":"5564110622","name":"Bradesco","tags":"amenity:bank,brand:Bradesco,brand:wikidata:Q806181,brand:wikipedia:en:Banco Bradesco","lat":-7.312589,"lng":-38.5159619},{"id":"5564110821","name":"El Shaday","tags":"amenity:pharmacy,healthcare:pharmacy","lat":-7.3130592,"lng":-38.5156545}]