[{"id":"2343943936","name":"PRAÇA DA GENTE","tags":"leisure:park","lat":-7.7959248,"lng":-36.6610765},{"id":"2343943940","name":"ESCOLA MUNICIPAL","tags":"amenity:school","lat":-7.7970429,"lng":-36.6592844},{"id":"2343943946","name":"ESF II","tags":"amenity:hospital,healthcare:hospital","lat":-7.7995154,"lng":-36.6579562},{"id":"2343943949","name":"ESCOLA ESTADUAL","tags":"amenity:school","lat":-7.7949096,"lng":-36.6610376},{"id":"2343943950","name":"Posto Médico","tags":"addr:city:CONGO,addr:housename:RUA SENADOR RUI CARNEIRO,amenity:hospital,healthcare:hospital","lat":-7.7954121,"lng":-36.661195},{"id":"2343943951","name":"PRAÇA DA RODA PRETA","tags":"leisure:park","lat":-7.7950974,"lng":-36.6615944},{"id":"2343943953","name":"PRAÇA SARTUNINO","tags":"leisure:park","lat":-7.7933883,"lng":-36.6611653},{"id":"2343943955","name":"PRAÇA DA IGREJA","tags":"leisure:park","lat":-7.7933497,"lng":-36.6614679},{"id":"2343943956","name":"ESF I","tags":"amenity:hospital,healthcare:hospital","lat":-7.7927232,"lng":-36.6615114},{"id":"2343943959","name":"PRAÇA PAPAI AMARO","tags":"leisure:park","lat":-7.7932213,"lng":-36.6619094}]