[{"id":"5002163427","name":"Biblioteca Municipal","tags":"amenity:library,name:pt:Biblioteca Municipal","lat":-7.0327931,"lng":-37.1480024},{"id":"5002188222","name":"Mercadinho São Miguel","tags":"name:pt:Mercadinho São Miguel,shop:convenience","lat":-7.0720439,"lng":-37.1566987},{"id":"5302537826","name":"Bar do Poço","tags":"amenity:bar","lat":-7.0361349,"lng":-37.1480302},{"id":"5302537922","name":"Mercadinho Frei Damião","tags":"shop:convenience","lat":-7.0315383,"lng":-37.1488738},{"id":"9815052118","name":"Bar do Motorista","tags":"amenity:bar","lat":-7.0734896,"lng":-37.1530679}]