[{"id":"5002188823","name":"Bar do Retorno","tags":"amenity:bar,name:pt:Bar do Retorno","lat":-7.1236696,"lng":-36.9432697},{"id":"5293711822","name":"Bar do Zé Novo","tags":"amenity:bar","lat":-7.1236399,"lng":-36.9472773},{"id":"5293717721","name":"Mercadinho JE","tags":"shop:convenience","lat":-7.1236798,"lng":-36.9420502},{"id":"5293718221","name":"Mercadinho Félix","tags":"shop:convenience","lat":-7.1233455,"lng":-36.9395774},{"id":"8860880318","name":"São José","tags":"amenity:pharmacy","lat":-7.1239828,"lng":-36.9490053}]