[{"id":"7644394133","name":"Inês","tags":"operator:Inês & Poteca,shop:supermarket","lat":-7.2171351,"lng":-36.8311025},{"id":"9501161539","name":"ECASA","tags":"amenity:school,official_name:Educandário Caminho do Saber","lat":-7.2125986,"lng":-36.8264683},{"id":"9510719217","name":"Cantinho Lanches Alto Bar","tags":"amenity:bar","lat":-7.2098548,"lng":-36.8273979},{"id":"9527981417","name":"Minibox L M","tags":"shop:convenience","lat":-7.2111999,"lng":-36.828714},{"id":"9537486673","name":"Bar de Nilza","tags":"amenity:bar","lat":-7.2080961,"lng":-36.8273694},{"id":"9556996433","tags":"denomination:catholic,historic:wayside_cross,religion:christian,tourism:attraction","lat":-7.2075826,"lng":-36.8273641},{"id":"9556996451","tags":"shop:convenience","lat":-7.2085765,"lng":-36.8279931},{"id":"9949484570","name":"Casa do Camarão","tags":"amenity:restaurant","lat":-7.2219013,"lng":-36.8356656},{"id":"9970157419","name":"Mercearia Novo Dia","tags":"shop:convenience","lat":-7.2092326,"lng":-36.8281732},{"id":"9970206417","name":"Alto Pharma","tags":"amenity:pharmacy","lat":-7.2107522,"lng":-36.8272034}]