[{"id":"2696499925","name":"Restaurante Guiomar","tags":"addr:city:Pereiro,addr:postcode:63460-000,addr:street:CE-138,addr:suburb:Centro,amenity:restaurant,capacity:50,cuisine:regional","lat":-6.0485384,"lng":-38.4612202},{"id":"2696528554","name":"Delegacia da Polícia Militar","tags":"addr:city:Pereiro,addr:postcode:63460-000,addr:street:Rua Manoel Vicente de Morais,addr:suburb:Centro,amenity:police","lat":-6.0482759,"lng":-38.4621391},{"id":"2710106203","name":"Escola de Ensino Fundamental Antonieta Cals de Oliveira","tags":"addr:city:Pereiro,addr:postcode:63460-000,addr:street:Avenida,addr:suburb:Vila,amenity:school,operator:Municipal","lat":-6.055068,"lng":-38.4631328},{"id":"2710117310","name":"Banco do Brasil","tags":"addr:city:Pereiro,addr:postcode:63460-000,addr:street:Rua Coronel José Freire,addr:suburb:Centro,amenity:bank,atm:yes,brand:Banco do Brasil,brand:wikidata:Q610817,brand:wikipedia:en:Banco do Brasil,opening_hours:08:00-18:00","lat":-6.0474383,"lng":-38.4612732},{"id":"2710121875","name":"Bradesco","tags":"addr:city:Pereiro,addr:postcode:63460-000,addr:street:Rua Coronel Porto,addr:suburb:Centro,amenity:bank,atm:yes,brand:Bradesco,brand:wikidata:Q806181,brand:wikipedia:en:Banco Bradesco","lat":-6.0474826,"lng":-38.4606659},{"id":"2710129163","name":"Restaurante de Maria do Carmo","tags":"addr:city:Pereiro,addr:postcode:63460-000,addr:street:Rua José Braga Falcão,addr:suburb:Centro,amenity:restaurant,capacity:40,cuisine:regional,description:Self-service","lat":-6.0458647,"lng":-38.4602096},{"id":"2710132505","name":"Escola de Ensino Fundamental Cleonice Freire de Queiroz","tags":"addr:city:Pereiro,addr:postcode:63.460-000,addr:street:Rua Nel Queiroz,amenity:school,operator:Municipal","lat":-6.0445476,"lng":-38.4590751},{"id":"2710134343","name":"Hospital Municipal Humberto de Queiroz","tags":"addr:city:Pereiro,addr:postcode:63.460-000,addr:street:Rua Dr Antônio Augusto,addr:suburb:Centro,amenity:hospital,emergency:yes,healthcare:hospital,internet_access:yes,wheelchair:yes","lat":-6.0451175,"lng":-38.4598582},{"id":"6400434370","name":"Estatua do Cristo Rei","tags":"tourism:attraction","lat":-6.0507975,"lng":-38.4549851},{"id":"7781454685","name":"Mercadinho pais e filhos","tags":"addr:city:Pereiro,addr:postcode:63460-000,addr:street:Rua Raimundo Pinheiro,addr:suburb:Centro,shop:supermarket","lat":-6.0491011,"lng":-38.4605911},{"id":"9008598371","name":"Bar do Kaká","tags":"addr:city:Pereiro,addr:postcode:63460-000,addr:street:Rua Coronel Antônio Vicente,addr:suburb:Centro,amenity:bar","lat":-6.0433125,"lng":-38.4604378},{"id":"9008639461","name":"Bar Do Flamengo","tags":"addr:city:Pereiro,addr:postcode:63460-000,addr:street:BR-226,addr:suburb:Centro,amenity:bar","lat":-6.0411873,"lng":-38.4596863},{"id":"9008643059","name":"Bar de Ricardo","tags":"addr:city:Pereiro,addr:postcode:63460-000,addr:street:Rua Santos Dumont,addr:suburb:Centro,amenity:bar","lat":-6.044431,"lng":-38.4609859},{"id":"9009969388","name":"Salão Carliana Rodrigues","tags":"addr:city:Pereiro,addr:postcode:63460-000,addr:street:Rodovia Francisco Nogueira de Queiroz,addr:suburb:Estreito,phone:+55 (88) 99607-0467,shop:beauty","lat":-6.0314374,"lng":-38.4554367},{"id":"9010004354","name":"Nosso Bar","tags":"addr:city:Pereiro,addr:postcode:63460-000,addr:street:Rodovia Francisco Nogueira de Queiroz,addr:suburb:Estreito,amenity:bar","lat":-6.0349374,"lng":-38.4566879},{"id":"9010012035","name":"Bar do Haroldo","tags":"addr:city:Pereiro,addr:postcode:63460-000,addr:street:Rodovia Francisco Nogueira de Queiroz,addr:suburb:Estreito,amenity:bar","lat":-6.0374543,"lng":-38.4582558},{"id":"9010013554","name":"Supermercado Selma E Sival","tags":"addr:city:Pereiro,addr:postcode:63460-000,addr:street:Rodovia Francisco Nogueira de Queiroz,addr:suburb:Estreito,phone:+55 (88) 2150-0050,shop:supermarket","lat":-6.0336974,"lng":-38.4565156},{"id":"9010022856","name":"Bar do Galego","tags":"addr:city:Pereiro,addr:postcode:63460-000,addr:street:Rodovia Francisco Nogueira de Queiroz,addr:suburb:Estreito,amenity:bar","lat":-6.0356874,"lng":-38.4570618},{"id":"9011062060","name":"Pizzaria Papa Léguas","tags":"addr:city:Pereiro,addr:postcode:63460-000,addr:street:Rodovia Francisco Nogueira de Queiroz,addr:suburb:Centro,amenity:restaurant,cuisine:pizza,phone:+55 (88) 99752-5505","lat":-6.039199,"lng":-38.4589633},{"id":"9011063372","name":"Vaqueiros Bar","tags":"addr:city:Pereiro,addr:postcode:63460-000,addr:street:Rua São Judas Tadeu,addr:suburb:Centro,amenity:bar","lat":-6.0452509,"lng":-38.4605511},{"id":"9011245671","name":"Bar e Restaurante cheiro bom","tags":"addr:city:Pereiro,addr:housenumber:159,addr:postcode:63460-000,addr:street:Rua São Judas Tadeu,addr:suburb:Centro,amenity:bar,phone:+55 (88) 99610-9427","lat":-6.0449376,"lng":-38.4605637},{"id":"9014049469","name":"Bar do Lúcio","tags":"addr:street:Rua Nel Queiroz,amenity:bar","lat":-6.0444445,"lng":-38.4587806},{"id":"9014071052","name":"Sasuke sushi","tags":"addr:city:Pereiro,addr:postcode:63460-000,addr:street:Rua São Judas Tadeu,addr:suburb:Centro,amenity:restaurant,cuisine:sushi,phone:+55 (88) 98159-3363","lat":-6.0460456,"lng":-38.4608516},{"id":"9014071060","name":"Bar do Clécio","tags":"addr:housenumber:122,addr:street:Rua Nel Queiroz,amenity:bar","lat":-6.0442228,"lng":-38.4587028},{"id":"9014072420","name":"Pereiro Farma","tags":"addr:city:Pereiro,addr:postcode:63460-000,addr:street:Rua Doutor Antônio Augusto,addr:suburb:Centro,amenity:pharmacy,dispensing:yes,healthcare:pharmacy,phone:+55 (88) 99799-0103","lat":-6.0457234,"lng":-38.4599231},{"id":"9015245809","name":"Praça Moacir Grabriel","tags":"addr:city:Pereiro,addr:postcode:63460-000,addr:street:Rua J Holanda,addr:suburb:Centro,leisure:park","lat":-6.0444374,"lng":-38.4575615},{"id":"9015251138","name":"Madruga Bar","tags":"addr:city:Pereiro,addr:postcode:63460-000,addr:street:Rua J Holanda,addr:suburb:Centro,amenity:bar,phone:+55 (88) 99775-3322","lat":-6.0449139,"lng":-38.4577579},{"id":"9017129003","name":"Lava Rapido Auto Brilho","tags":"addr:city:Pereiro,addr:postcode:63460-000,addr:street:Rua J Holanda,addr:suburb:Centro,amenity:car_wash,phone:+55 (88) 99683-2124","lat":-6.0455495,"lng":-38.4583775},{"id":"9017138242","name":"Monumento Santos Cosme e Damião","tags":"addr:city:Pereiro,addr:postcode:63460-000,addr:street:Rua Santos Dumont,addr:suburb:Centro,tourism:attraction","lat":-6.0466373,"lng":-38.4613604},{"id":"9018441208","name":"Drogaria Oliveira Paiva","tags":"addr:city:Pereiro,addr:housenumber:92,addr:postcode:63460-000,addr:street:Rua Coronel José Freire,addr:suburb:Centro,amenity:pharmacy,dispensing:yes,healthcare:pharmacy,phone:+55 (88) 99709-3215","lat":-6.0475619,"lng":-38.4612789},{"id":"9019772585","name":"Eudes Rocha","tags":"addr:city:Pereiro,addr:housenumber:220,addr:postcode:63460-000,addr:street:Rua Coronel Porto,addr:suburb:Centro,phone:+55 (88) 99754-5341,shop:beauty","lat":-6.0467818,"lng":-38.4603565},{"id":"9019804452","name":"Casa Lopes - Domingos Lopes Dos Santos","tags":"addr:city:Pereiro,addr:housenumber:28,addr:postcode:63460-000,addr:street:Rua Coronel Porto,addr:suburb:Centro,phone:+55 (88) 3527-1216,shop:supermarket","lat":-6.0480672,"lng":-38.4610523},{"id":"9023499881","name":"Mercadinho vila nova","tags":"addr:city:Pereiro,addr:postcode:63460-000,addr:street:CE-138,addr:suburb:Vila,phone:+55 (88) 99687-0090,shop:supermarket","lat":-6.0521183,"lng":-38.4621039},{"id":"9023502719","name":"Super Mercado Preço Maluco","tags":"addr:city:Pereiro,addr:postcode:63460-000,addr:street:CE-138,addr:suburb:Vila,shop:supermarket","lat":-6.0534117,"lng":-38.4625874},{"id":"9023506238","name":"Bar Do Junior","tags":"addr:city:Pereiro,addr:postcode:63460-000,addr:street:CE-138,addr:suburb:Vila,amenity:bar","lat":-6.0505624,"lng":-38.4609375},{"id":"9052994961","name":"Bar de Diva","tags":"addr:city:Pereiro,addr:postcode:63460-000,addr:suburb:Vila Cruz,amenity:bar","lat":-6.0504192,"lng":-38.4639433},{"id":"9052998869","name":"churrascaria recanto grill","tags":"addr:city:Pereiro,addr:housenumber:700,addr:postcode:63460-000,addr:street:CE-138,addr:suburb:Vila,amenity:restaurant,cuisine:steak_house","lat":-6.0563079,"lng":-38.4628029},{"id":"9053012535","name":"Bar do bibi","tags":"addr:city:Pereiro,addr:postcode:63460-000,addr:suburb:Vila,amenity:bar","lat":-6.0558232,"lng":-38.4626558},{"id":"9053012536","name":"Restaurante Varanda Gourmet","tags":"addr:city:Pereiro,addr:postcode:63460-000,addr:suburb:Vila,amenity:restaurant,phone:+55 (88) 99729-5051","lat":-6.0569505,"lng":-38.4616185},{"id":"9053013517","name":"Bar Do Curral","tags":"addr:city:Pereiro,addr:postcode:63460-000,addr:street:CE-138,addr:suburb:Vila,amenity:bar","lat":-6.0498123,"lng":-38.4606857},{"id":"9137480147","name":"Bar Do Amor","tags":"addr:city:Pereiro,addr:postcode:63460-000,addr:street:BR-226,addr:suburb:Bela Vista,amenity:bar","lat":-6.0369377,"lng":-38.4710617},{"id":"9137480148","name":"Bar E Mercearia Jurandir","tags":"addr:city:Pereiro,addr:postcode:63460-000,addr:street:BR-226,addr:suburb:Bela Vista,amenity:bar","lat":-6.0381875,"lng":-38.4729385},{"id":"9137498546","name":"Bar Amigos da Estrada","tags":"addr:city:Pereiro,addr:postcode:63460-000,addr:street:BR-226,addr:suburb:Bela Vista,amenity:bar","lat":-6.0373125,"lng":-38.4708138},{"id":"9137510639","name":"Boteco Alambique","tags":"addr:city:Pereiro,addr:postcode:63460-000,addr:street:BR-226,addr:suburb:Bela Vista,amenity:bar","lat":-6.0394373,"lng":-38.468689},{"id":"9137536349","name":"Bar Brisa da Mata","tags":"addr:city:Pereiro,addr:postcode:63460-000,addr:street:Rodovia Francisco Nogueira de Queiroz,addr:suburb:Estreito,amenity:bar","lat":-6.0278125,"lng":-38.454689},{"id":"9137544528","name":"Bar Do Geraldo","tags":"addr:street:BR-226,amenity:bar","lat":-6.0489373,"lng":-38.4915619},{"id":"9137544534","name":"Bar Do Neto","tags":"amenity:bar","lat":-6.0534377,"lng":-38.4956894},{"id":"9137546040","name":"Lava Rápido Joãozim","tags":"addr:city:Pereiro,addr:postcode:63460-000,addr:street:Rodovia Francisco Nogueira de Queiroz,addr:suburb:Estreito,amenity:car_wash,phone:+55 (88) 99765-1493","lat":-6.0259376,"lng":-38.4543114},{"id":"9137552143","name":"Bar Do Cajueiro","tags":"addr:city:Pereiro,addr:postcode:63460-000,addr:street:BR-226,addr:suburb:Bela Vista,amenity:bar","lat":-6.0378127,"lng":-38.4698143},{"id":"9137552704","name":"Bar Do Divan","tags":"addr:street:BR-226,amenity:bar","lat":-6.0474377,"lng":-38.4935608},{"id":"9137553079","name":"Bar Do Chagas","tags":"addr:street:BR-226,amenity:bar","lat":-6.0461874,"lng":-38.4944382},{"id":"9319999698","name":"Lava Jato São Francisco","tags":"addr:city:Pereiro,addr:postcode:63460-000,amenity:car_wash","lat":-6.0606366,"lng":-38.4649575},{"id":"9768620739","name":"Farmácia Santos Cosme e Damião","tags":"addr:city:Pereiro,addr:postcode:63460-000,addr:street:Rua Coronel José Freire,addr:suburb:Centro,amenity:pharmacy,dispensing:yes,healthcare:pharmacy","lat":-6.0466156,"lng":-38.46066}]