[{"id":"5633462560","name":"CAE","tags":"addr:street:Rua Vereador Francisco Freire Araújo,amenity:hospital,healthcare:hospital,operator:Prefeitura Municipal","lat":-6.7700125,"lng":-36.993207},{"id":"5633462561","name":"UMS Balbina Maria da Conceição","tags":"addr:street:Rua Isabel Leopoldina Bittencourt,amenity:hospital,healthcare:hospital,operator:Prefeitura Municipal","lat":-6.7711895,"lng":-36.9896458},{"id":"5633491670","name":"EMEIF Sandoval Rúbens de Figueiredo","tags":"addr:city:Várzea,addr:housenumber:9,addr:postcode:58620-000,addr:street:Rua Padre Jerónimo Lawn,addr:suburb:Centro,amenity:school,operator:Prefetura de Várzea-PB,operator:type:public,phone:+55 83 3 461-1158,polling_station:yes,wheelchair:yes","lat":-6.7710147,"lng":-36.9888205},{"id":"5633491672","name":"Creche Municipal","tags":"amenity:school","lat":-6.7710682,"lng":-36.9884666},{"id":"5633517659","name":"Mercadinho Central","tags":"shop:supermarket","lat":-6.771904,"lng":-36.9911208},{"id":"5884766401","name":"Delegacia de Polícia Militar","tags":"amenity:police","lat":-6.7703365,"lng":-36.9880288},{"id":"5884766407","name":"Restaurante Pousada do Soró","tags":"amenity:restaurant","lat":-6.7705053,"lng":-36.9884255},{"id":"5884766408","name":"Restaurante da Rita","tags":"amenity:restaurant","lat":-6.7702159,"lng":-36.9921728},{"id":"5884766409","name":"Restaurante de Nenem","tags":"amenity:restaurant","lat":-6.7694358,"lng":-36.9941811},{"id":"5884792674","name":"Farmácia São Francisco","tags":"amenity:pharmacy,dispensing:yes,healthcare:pharmacy","lat":-6.7699033,"lng":-36.9894318},{"id":"5884792676","name":"Farmácia Severino Chole","tags":"amenity:pharmacy,dispensing:yes,healthcare:pharmacy","lat":-6.7721325,"lng":-36.9900291},{"id":"5884809733","name":"Mercadinho São Jorge","tags":"shop:supermarket","lat":-6.772081,"lng":-36.9917904}]