[{"id":"5299881008","tags":"amenity:car_wash","lat":-5.6597193,"lng":-37.79955},{"id":"5299885141","name":"Agencia de Correios Apodi","tags":"amenity:post_office","lat":-5.6659038,"lng":-37.7991961},{"id":"5299888907","name":"Supermercado Queiroz","tags":"shop:supermarket","lat":-5.6672784,"lng":-37.7967633},{"id":"5299892618","name":"Escola Estadual Professor Gerson Lopes","tags":"amenity:school","lat":-5.666112,"lng":-37.7997647},{"id":"5391464801","name":"Espeto de Ouro","tags":"amenity:restaurant,capacity:80,cuisine:pizza;Churrasco;regional,delivery:yes,outdoor_seating:yes,smoking:outside,takeaway:yes","lat":-5.6671757,"lng":-37.8016852},{"id":"5820482036","name":"Churrascaria","tags":"amenity:restaurant","lat":-5.6531125,"lng":-37.7989419}]