[{"id":"5615909873","tags":"amenity:atm","lat":-8.1145499,"lng":-35.2853832},{"id":"5615909874","tags":"amenity:pharmacy,dispensing:yes,healthcare:pharmacy","lat":-8.1143959,"lng":-35.285221},{"id":"5619406085","name":"Vitoria Park Shopping","tags":"addr:city:Vitória de Santo Antão,addr:housenumber:3000,addr:street:Avenida Henrique de Holanda,addr:suburb:Redenção,shop:mall","lat":-8.1161688,"lng":-35.2707849},{"id":"6123847469","name":"Faintvisa - Faculdade Integradas da Vitória de Santo Antão","tags":"addr:city:Vitoria de Santo Antão,addr:housenumber:71,addr:street:Loteamento São Vicente Fe,addr:suburb:Cajá,amenity:university,phone:+55 81 3523-1020,website:http://faintvisa.com.br","lat":-8.1051041,"lng":-35.2874865},{"id":"6396959485","name":"Conveniência Mania","tags":"shop:convenience","lat":-8.1161358,"lng":-35.2640582},{"id":"6507454175","name":"Bonaparte","tags":"addr:city:Vitória de Santo Antão,addr:street:Avenida Henrique de Holanda,addr:suburb:Redenção,amenity:restaurant,phone:+55 81 2126-1111,source:url:https://www.vitoriaparkshopping.com.br/lojas/?alpha=B","lat":-8.1162243,"lng":-35.2717191},{"id":"6507454176","tags":"amenity:atm","lat":-8.1161419,"lng":-35.27126},{"id":"7295049379","name":"Caixa Econômica Federal","tags":"addr:city:Vitória de Santo Antão,addr:housenumber:3000,addr:street:Avenida Henrique de Holanda,addr:suburb:Redenção,amenity:bank,brand:Caixa Econômica Federal,brand:wikidata:Q835283,brand:wikipedia:pt:Caixa Econômica Federal,operator:Caixa Econômica Federal,phone:+55 81 3114-0044","lat":-8.1161674,"lng":-35.2713787},{"id":"8895134941","name":"BIOPET CLINICA VETERINARIA & LABORATORIO","tags":"addr:city:VITORIA DE SANTO ANTAO,addr:housenumber:12,addr:postcode:55600-000,addr:street:Avenida Henrique de Holanda,addr:suburb:CAJÁ,amenity:hospital,healthcare:hospital,healthcare:speciality:general","lat":-8.1133256,"lng":-35.2861991},{"id":"9151888875","name":"Coveniência da Sinuca","tags":"addr:city:Vitoria de santo antão,addr:housenumber:S/n,addr:postcode:55613-620,addr:street:Rua Jose Andrade,addr:suburb:Lídia Queiroz,shop:convenience","lat":-8.1231349,"lng":-35.279811},{"id":"9151995763","name":"Lava Jato Belo Horizonte","tags":"addr:city:Vitoria de santo antão,addr:housenumber:S/n,addr:postcode:55613-620,addr:street:Rua Jose Andrade,addr:suburb:Lídia Queiroz,amenity:car_wash","lat":-8.1230748,"lng":-35.2793182},{"id":"9683720573","tags":"leisure:park","lat":-8.120689,"lng":-35.2735565},{"id":"9683720574","tags":"leisure:park","lat":-8.120837,"lng":-35.274787},{"id":"9683720575","tags":"leisure:park","lat":-8.1197945,"lng":-35.2736102},{"id":"9760834266","tags":"amenity:bar","lat":-8.1073205,"lng":-35.2843319},{"id":"9760834297","tags":"amenity:bar","lat":-8.0988555,"lng":-35.2789831},{"id":"9760835840","tags":"amenity:restaurant","lat":-8.1001517,"lng":-35.2786808},{"id":"9760835846","tags":"amenity:hospital,healthcare:hospital","lat":-8.0984906,"lng":-35.2782713},{"id":"9760835847","tags":"amenity:restaurant","lat":-8.098314,"lng":-35.2781909},{"id":"9760835848","tags":"amenity:restaurant","lat":-8.1051556,"lng":-35.2729722},{"id":"9760835849","tags":"amenity:hospital,healthcare:hospital","lat":-8.1051186,"lng":-35.2725536},{"id":"9765666482","tags":"amenity:cafe","lat":-8.1104686,"lng":-35.2733716},{"id":"9765666483","tags":"amenity:restaurant","lat":-8.1104248,"lng":-35.2735352},{"id":"9765666484","tags":"amenity:hospital,healthcare:hospital","lat":-8.1102063,"lng":-35.2734329},{"id":"9765666485","tags":"amenity:restaurant","lat":-8.1111521,"lng":-35.2736301},{"id":"9765715106","tags":"amenity:restaurant","lat":-8.0957676,"lng":-35.2715054},{"id":"9765735784","tags":"amenity:restaurant","lat":-8.1034811,"lng":-35.2713919},{"id":"9765735785","tags":"amenity:restaurant","lat":-8.103231,"lng":-35.2714836},{"id":"9765735786","tags":"amenity:bank","lat":-8.1029519,"lng":-35.2714366},{"id":"9765735799","tags":"amenity:cafe","lat":-8.1027942,"lng":-35.2711424},{"id":"9765735800","tags":"amenity:post_office","lat":-8.1027793,"lng":-35.2707198},{"id":"9765735801","tags":"amenity:restaurant","lat":-8.102708,"lng":-35.2706211},{"id":"9765735802","tags":"amenity:cafe","lat":-8.1028608,"lng":-35.2713128},{"id":"9765735807","tags":"amenity:post_office","lat":-8.1036488,"lng":-35.2716467},{"id":"9765735808","tags":"amenity:cafe","lat":-8.1035561,"lng":-35.271568},{"id":"9765735883","tags":"amenity:restaurant","lat":-8.1029013,"lng":-35.270303},{"id":"9765735884","tags":"amenity:cafe","lat":-8.1027318,"lng":-35.2704135},{"id":"9765749639","tags":"amenity:hospital,healthcare:hospital","lat":-8.1111178,"lng":-35.2740831},{"id":"9765749640","tags":"amenity:cafe","lat":-8.111119,"lng":-35.2738192},{"id":"9765749695","tags":"leisure:park","lat":-8.1031419,"lng":-35.2872831},{"id":"9765795643","tags":"shop:supermarket","lat":-8.0983131,"lng":-35.2805099},{"id":"9765795644","tags":"amenity:restaurant","lat":-8.0988577,"lng":-35.2802411},{"id":"9765795674","tags":"amenity:bank","lat":-8.0984979,"lng":-35.2802502}]