[{"id":"1729117374","name":"Campina Grande (Velha)","tags":"public_transport:station,railway:station,train:yes,wikidata:Q10275767,wikipedia:pt:Estação Ferroviária de Campina Grande","lat":-7.2285872,"lng":-35.885234},{"id":"1834731077","name":"Museu de Arte Popular","tags":"name:en:Museum of Popular Arts of Paraíba,tourism:attraction,wikidata:Q10333773,wikipedia:en:Museum of Popular Arts of Paraíba","lat":-7.224074,"lng":-35.8789206},{"id":"2071527754","name":"Murão Restaurante & Churrascaria","tags":"amenity:restaurant","lat":-7.2480953,"lng":-35.8797205},{"id":"2071593164","name":"Churrascaria do Paraná","tags":"amenity:restaurant","lat":-7.2493828,"lng":-35.8900794},{"id":"2071593179","name":"JB Quentinhas","tags":"amenity:restaurant","lat":-7.2481163,"lng":-35.8870432},{"id":"2071593196","name":"Restaurante Paulistano","tags":"amenity:restaurant","lat":-7.2484569,"lng":-35.8877781},{"id":"2071819469","name":"Supermercado Bilão","tags":"shop:supermarket","lat":-7.2419452,"lng":-35.8944486},{"id":"2073167465","name":"Restaurante Miúra","tags":"amenity:restaurant","lat":-7.2299416,"lng":-35.8841012},{"id":"2073316148","name":"Picanha 200","tags":"amenity:restaurant","lat":-7.2146051,"lng":-35.8772704},{"id":"2073316159","name":"Recanto do Picuí","tags":"amenity:restaurant","lat":-7.2135716,"lng":-35.8775727},{"id":"2073316174","name":"China Taiwan","tags":"amenity:restaurant,cuisine:chinese","lat":-7.2126802,"lng":-35.8755423},{"id":"2073316200","name":"Wizard","tags":"amenity:school","lat":-7.2158973,"lng":-35.8779268},{"id":"2073321280","name":"Villa Chopp","tags":"amenity:restaurant,cuisine:regional","lat":-7.2126134,"lng":-35.8771402},{"id":"2073321288","name":"Show Bar","tags":"amenity:restaurant","lat":-7.2115173,"lng":-35.8769612},{"id":"2539001970","name":"Terminal Rodoviário de Campina Grande","tags":"amenity:bus_station","lat":-7.2380435,"lng":-35.8697632},{"id":"2682310200","name":"Supermercado Compre Mais","tags":"shop:supermarket","lat":-7.2103785,"lng":-35.8987615},{"id":"2682310202","tags":"amenity:pharmacy,healthcare:pharmacy","lat":-7.2116023,"lng":-35.8974968},{"id":"2712407763","tags":"shop:beauty","lat":-7.2154631,"lng":-35.8941408},{"id":"2719596791","name":"Pestiscaria","tags":"amenity:restaurant","lat":-7.2224927,"lng":-35.8833234},{"id":"2901198911","name":"Sapore d´ Itália","tags":"amenity:restaurant","lat":-7.2180194,"lng":-35.8750915},{"id":"3314919483","name":"Jackson do Pandeiro","tags":"historic:memorial,memorial:statue,tourism:attraction","lat":-7.2244019,"lng":-35.880155},{"id":"3317189975","name":"Colégio Motiva Catolé","tags":"addr:street:Rua Luiza Bezerra Motta,amenity:school","lat":-7.2383819,"lng":-35.8814413},{"id":"3319282767","name":"Shopping Luiza Motta","tags":"addr:city:Campina Grande,addr:street:Rua Vigário Calixto,addr:suburb:Catolé,shop:mall","lat":-7.2343574,"lng":-35.8794886},{"id":"3659251147","name":"Centro de Convenções Raimundo Asfora","tags":"addr:city:Campina Grande,addr:housenumber:400,addr:street:Rua Engenheiro José Bezerra,addr:suburb:Mirante,tourism:attraction","lat":-7.2376454,"lng":-35.8623637},{"id":"3913351258","name":"Hiper Redepharm","tags":"amenity:pharmacy,healthcare:pharmacy","lat":-7.2179009,"lng":-35.8848251},{"id":"3969582493","tags":"amenity:atm","lat":-7.2344061,"lng":-35.8678339},{"id":"3969582494","tags":"amenity:atm","lat":-7.2346785,"lng":-35.8676033},{"id":"4254531548","name":"Redecompras","tags":"addr:city:Campina Grande,addr:housenumber:912,addr:postcode:58400-180,addr:street:Avenida Marechal Floriano Peixoto,addr:suburb:Centro,opening_hours:Mo-Th 07:00-21:00; Fr-Sa 06:00-21:00; Su,PH 07:00-18:00,shop:supermarket","lat":-7.2181487,"lng":-35.8809001},{"id":"4363369690","name":"Vila do Artesão","tags":"description:Feira de artesanato,shop:mall","lat":-7.2282314,"lng":-35.8902085},{"id":"4404613353","name":"Estacionamento Futurama","tags":"amenity:parking","lat":-7.2196134,"lng":-35.883678},{"id":"4408591888","name":"Supermercado Ideal","tags":"shop:supermarket","lat":-7.2192788,"lng":-35.8800458},{"id":"4753756176","tags":"amenity:parking","lat":-7.220471,"lng":-35.8827819},{"id":"5093236424","name":"La Suissa","tags":"amenity:restaurant,name:pt:La Suissa","lat":-7.2215397,"lng":-35.8845835},{"id":"5198961524","name":"Skin Temakeria","tags":"amenity:restaurant,cuisine:japanese;chinese;sushi,internet_access:wlan","lat":-7.2203037,"lng":-35.8896948},{"id":"5204002428","name":"Farmácia Dias","tags":"amenity:pharmacy,healthcare:pharmacy,phone:+558333106000","lat":-7.220881,"lng":-35.8680174},{"id":"5204014524","name":"Bem Barato","tags":"phone:+55 83 3065 7796,shop:supermarket","lat":-7.2208159,"lng":-35.8682097},{"id":"5204026721","name":"Escola Sonho e Realidade","tags":"addr:housenumber:421,addr:street:Rua Mamede Moisés Raia,addr:suburb:Monte Castelo,amenity:school,phone:+55 83 3341 4473,website:https://www.sonhoerealidade.com.br/","lat":-7.2211322,"lng":-35.8679683},{"id":"5204769821","name":"O Skinão","tags":"amenity:restaurant","lat":-7.22102,"lng":-35.8780509},{"id":"5204770421","name":"Frida Tacos","tags":"amenity:restaurant,cuisine:mexican","lat":-7.2210023,"lng":-35.8851433},{"id":"5206843565","name":"Sousa","tags":"shop:convenience","lat":-7.2150194,"lng":-35.8700884},{"id":"5291969322","name":"Pague Menos","tags":"addr:street:Rua Maria M de Figueiredo,amenity:pharmacy,brand:Pague Menos,brand:wikidata:Q7124466,brand:wikipedia:pt:Pague Menos,healthcare:pharmacy","lat":-7.2275304,"lng":-35.8767227},{"id":"5291969421","tags":"amenity:post_office","lat":-7.2194024,"lng":-35.8852514},{"id":"5291969524","name":"Pague Menos","tags":"amenity:pharmacy,brand:Pague Menos,brand:wikidata:Q7124466,brand:wikipedia:pt:Pague Menos,healthcare:pharmacy","lat":-7.2188279,"lng":-35.8848585},{"id":"5291969821","name":"RedePharma","tags":"amenity:pharmacy,healthcare:pharmacy","lat":-7.2189974,"lng":-35.8847781},{"id":"5299812922","name":"Caixa","tags":"amenity:bank","lat":-7.217807,"lng":-35.8906183},{"id":"5302537621","name":"Santander","tags":"amenity:bank,brand:Santander,brand:wikidata:Q5835668,brand:wikipedia:en:Santander Bank","lat":-7.2194868,"lng":-35.8756835},{"id":"5322926798","name":"Memorial do Trem","tags":"historic:locomotive,locomotive:type:steam,tourism:attraction","lat":-7.2289321,"lng":-35.8848184},{"id":"5323161080","name":"Vergniaud Wanderley","tags":"historic:memorial,memorial:statue,tourism:attraction","lat":-7.226895,"lng":-35.8811971},{"id":"5325616426","name":"Petrópilos Steakhouse","tags":"addr:housename:Partage Shopping,amenity:restaurant,capacity:40,cuisine:Steak,opening_hours:10:00-22:00,smoking:no","lat":-7.2348847,"lng":-35.8691635},{"id":"5341537621","name":"Nutri Vida","tags":"amenity:restaurant,diet:vegan:yes,diet:vegetarian:yes","lat":-7.2217772,"lng":-35.8837784},{"id":"5367347436","tags":"leisure:park","lat":-7.2321007,"lng":-35.8872925},{"id":"5410708822","name":"Pet Mania","tags":"shop:pet","lat":-7.2160385,"lng":-35.8698114},{"id":"5411239821","name":"Tio Wei","tags":"amenity:restaurant,cuisine:chinese,internet_access:wlan,opening_hours:18:00-00:00,phone:+55 83 3065 2830","lat":-7.2351077,"lng":-35.8779762},{"id":"5412575926","name":"Régua Spetuss","tags":"amenity:bar","lat":-7.2149701,"lng":-35.8699378},{"id":"5414449423","name":"Bar do Evandro","tags":"amenity:bar","lat":-7.2142583,"lng":-35.8701775},{"id":"5414454322","tags":"amenity:bar","lat":-7.2144005,"lng":-35.8701536},{"id":"5414455021","name":"Mercadinho do Zezinho","tags":"phone:+558333419057,shop:convenience","lat":-7.2141263,"lng":-35.869956},{"id":"5414455221","name":"Preço Bom","tags":"amenity:car_wash,phone:+5583988359444","lat":-7.2139772,"lng":-35.8700438},{"id":"5523534421","name":"Casa mãe Ailton","tags":"shop:convenience","lat":-7.2228888,"lng":-35.8934518},{"id":"5542731963","name":"Farmacia dias","tags":"amenity:pharmacy,dispensing:yes,healthcare:pharmacy","lat":-7.2300156,"lng":-35.8774784},{"id":"5542739587","name":"Restaurante do Sosthenis","tags":"addr:city:Campia Grade Paraíba,addr:street:Rua Anísio R de Souza Campos,addr:suburb:Catolé,amenity:restaurant,capacity:20,cuisine:regional,opening_hours:Mo-Su 09:00-21:00","lat":-7.2352313,"lng":-35.8757829},{"id":"5607725980","name":"Yázigi","tags":"amenity:school","lat":-7.2217291,"lng":-35.8952021},{"id":"5608333852","name":"Farmacia Dias","tags":"amenity:pharmacy,dispensing:yes,healthcare:pharmacy","lat":-7.2208646,"lng":-35.8940696},{"id":"5608368229","name":"Supermecado Todo Dia","tags":"shop:supermarket","lat":-7.2171441,"lng":-35.8961363},{"id":"5608378793","name":"Forno de Pizza","tags":"amenity:restaurant","lat":-7.22823,"lng":-35.8935167},{"id":"5608383322","name":"Hospital João XXIII","tags":"amenity:hospital,healthcare:hospital","lat":-7.2162633,"lng":-35.8937334},{"id":"5631320822","name":"Banco Itaú","tags":"amenity:bank","lat":-7.2175544,"lng":-35.8861757},{"id":"5631320823","name":"Dias","tags":"amenity:pharmacy,healthcare:pharmacy","lat":-7.2182135,"lng":-35.8810021},{"id":"5631325623","name":"Banco do Nordeste","tags":"amenity:bank,brand:Banco do Nordeste,brand:wikidata:Q4854137,brand:wikipedia:en:Banco do Nordeste","lat":-7.2170647,"lng":-35.885738},{"id":"5631325625","name":"Dias","tags":"amenity:pharmacy,healthcare:pharmacy","lat":-7.2096425,"lng":-35.875872},{"id":"5631325626","name":"Urca Grill","tags":"amenity:restaurant,internet_access:wlan,phone:+558330665050","lat":-7.2090667,"lng":-35.8760437},{"id":"5631343222","name":"Café Vila Nova da Rainha","tags":"amenity:cafe","lat":-7.20925,"lng":-35.8757983},{"id":"5636186827","name":"Natural's","tags":"amenity:restaurant,diet:vegan:yes,diet:vegetarian:yes","lat":-7.2190686,"lng":-35.880907},{"id":"5656971831","name":"Bar do Nilson","tags":"amenity:bar","lat":-7.2246394,"lng":-35.8875043},{"id":"5859152650","name":"Solare Empresarial","tags":"shop:mall","lat":-7.2237191,"lng":-35.8981039},{"id":"5930370688","name":"Monumento a João Rique","tags":"historic:memorial,memorial:statue,tourism:attraction","lat":-7.2174255,"lng":-35.8857237},{"id":"5931927789","tags":"tourism:attraction","lat":-7.2271704,"lng":-35.8819493},{"id":"5941566438","name":"Shopping Edson Diniz","tags":"loc_name:Shopping dos Camelôs,opening_hours:Mo-Fr 08:00-18:00; Sa 08:00-14:00,shop:mall","lat":-7.2194609,"lng":-35.8844969},{"id":"5975642587","name":"Pães e Lanches","tags":"shop:convenience","lat":-7.2389159,"lng":-35.8716642},{"id":"5975642588","name":"Café Desembarque","tags":"amenity:cafe","lat":-7.2390409,"lng":-35.8716565},{"id":"5975642589","name":"Posto do Eraldo","tags":"shop:convenience","lat":-7.2390804,"lng":-35.871876},{"id":"5975643985","name":"Banca e Conveniência","tags":"shop:convenience","lat":-7.2389716,"lng":-35.8717366},{"id":"6161549388","name":"Caixa","tags":"amenity:bank","lat":-7.2215745,"lng":-35.8750382},{"id":"6211303587","name":"Polícia Militar","tags":"amenity:police","lat":-7.2385689,"lng":-35.8712428},{"id":"6211303786","name":"Loja de Conveniência e Variedades","tags":"shop:convenience","lat":-7.2383806,"lng":-35.8709709},{"id":"6211303789","name":"Gabriela","tags":"shop:convenience","lat":-7.2385237,"lng":-35.8710179},{"id":"6211303791","name":"Fiteiro","tags":"shop:convenience","lat":-7.2385235,"lng":-35.8708006},{"id":"6211304187","name":"Sabor da Terra","tags":"amenity:restaurant","lat":-7.2391395,"lng":-35.8715715},{"id":"6211305285","name":"RG Lanches","tags":"amenity:cafe","lat":-7.2385716,"lng":-35.8710837},{"id":"6245544412","name":"Bar do Nil","tags":"amenity:bar,opening_hours:10:00-23:00; Su 10:00-17:00; Mo closed","lat":-7.2258141,"lng":-35.8739635},{"id":"6248353755","name":"Mercearia do Seu Basto","tags":"opening_hours:06:00-18:00; Su 06:00-12:00,operator:Seu Basto,shop:convenience","lat":-7.2256618,"lng":-35.8741232},{"id":"6253717386","name":"Sapateiro's Bar","tags":"amenity:bar","lat":-7.2230873,"lng":-35.8682807},{"id":"6253717387","name":"Santo António","tags":"amenity:car_wash","lat":-7.217125,"lng":-35.8677635},{"id":"6267829421","name":"Drogasil","tags":"amenity:pharmacy,brand:Drogasil,brand:wikidata:Q5308185,brand:wikipedia:pt:Drogasil,healthcare:pharmacy,wheelchair:yes","lat":-7.2261414,"lng":-35.8765331},{"id":"6267836734","name":"Monumento Café","tags":"shop:convenience","lat":-7.2261188,"lng":-35.8764406},{"id":"6269333201","name":"Bodódromo Bar e Restaurante","tags":"amenity:restaurant,bar:yes","lat":-7.2243067,"lng":-35.8754642},{"id":"6269513790","name":"Tribe-Fit Academia Gym","tags":"alt_name:Tribe Fit,contact:facebook:https://www.facebook.com/tribe.fit.566,leisure:fitness_centre","lat":-7.2243919,"lng":-35.8752993},{"id":"6270424536","name":"O Escritório Bar & Restaurante","tags":"alt_name:O Escritório Bar,amenity:restaurant,bar:yes,contact:mobile:+55 83 98820 2458; +55 83 99404 7602,contact:whatsapp:+55 83 99404 7602,opening_hours:Mo-Th 09:00-14:00; Fr-Sa 09:00-21:00; Su 09:00-15:00,opening_hours:self_service:Mo-Fr,self_service:yes","lat":-7.2265206,"lng":-35.8765224},{"id":"6317125849","name":"Mini Box 774","tags":"phone:+55 83 3337 2247,shop:convenience","lat":-7.2351219,"lng":-35.8780499},{"id":"6338280503","name":"Banco do Brasil","tags":"amenity:bank,brand:Banco do Brasil,brand:wikidata:Q610817,brand:wikipedia:en:Banco do Brasil","lat":-7.2352649,"lng":-35.8884846},{"id":"6448813212","name":"Bragapharma","tags":"amenity:pharmacy,healthcare:pharmacy,old_name:Farmácia Braga","lat":-7.2234819,"lng":-35.8730771},{"id":"6473125187","name":"Farmácia Dias","tags":"amenity:pharmacy,healthcare:pharmacy,opening_hours:PH,Mo-Su 07:00-21:00,phone:+55 83 3310 6000","lat":-7.2221301,"lng":-35.8734848},{"id":"6473525978","name":"Parque da Liberdade","tags":"access:yes,addr:city:Campina Grande,addr:postcode:58414-245,addr:street:Rua Getúlio Cavalcante,addr:suburb:Liberdade,illuminated:yes,leisure:park,natural:park,park:park,public:yes,security:yes","lat":-7.2387126,"lng":-35.895005},{"id":"6476611311","name":"Reis Massas Finas","tags":"craft:bakery,phone:mobile:+55 83 98728 4158; +55 83 98788 9941","lat":-7.2265978,"lng":-35.8725795},{"id":"6479283421","name":"Supermercado Santos","tags":"loc_name:Raposinha,old_name:Raposinha,shop:convenience","lat":-7.2268349,"lng":-35.8705611},{"id":"6574842116","tags":"shop:convenience","lat":-7.2298427,"lng":-35.8693247},{"id":"6574842118","name":"Bar do Alcides","tags":"amenity:bar","lat":-7.2299505,"lng":-35.8690953},{"id":"6574842119","name":"Mercadinho Junior","tags":"shop:convenience","lat":-7.2298108,"lng":-35.8689116},{"id":"6575052144","name":"Gerson","tags":"shop:convenience","lat":-7.2284844,"lng":-35.8681498},{"id":"6587775054","name":"Café Poético","tags":"amenity:cafe","lat":-7.2238664,"lng":-35.8793534},{"id":"6587778185","name":"Selfit","tags":"leisure:fitness_centre","lat":-7.2229723,"lng":-35.8782256},{"id":"6588690386","name":"Santander","tags":"amenity:bank,brand:Santander,brand:wikidata:Q5835668,brand:wikipedia:en:Santander Bank","lat":-7.2160383,"lng":-35.8850729},{"id":"6672934910","name":"Savoy","tags":"shop:supermarket","lat":-7.2241704,"lng":-35.8964708},{"id":"6814442872","name":"Juscelino Kubitshek","tags":"historic:memorial,memorial:statue,tourism:attraction","lat":-7.2195503,"lng":-35.8848533},{"id":"6814442873","name":"João Carga d'Água","tags":"alt_name:João Vieira,description:Estátua erguida em homenagem a João Vieira (Carga d'Água), líder do movimento Quebra-Quilos.,historic:memorial,memorial:statue,tourism:attraction","lat":-7.2229936,"lng":-35.876694},{"id":"6814442874","name":"Luiz Gonzaga","tags":"historic:memorial,memorial:statue,tourism:attraction","lat":-7.2243686,"lng":-35.8800931},{"id":"7114796448","tags":"access:yes,amenity:library,building:public","lat":-7.2188551,"lng":-35.883038},{"id":"7133475317","name":"Shopping Cirne Center","tags":"shop:mall,short_name:Cirne Center","lat":-7.2196432,"lng":-35.8827729},{"id":"7141016066","tags":"amenity:parking,operator:AutoMotiva","lat":-7.2293623,"lng":-35.8731384},{"id":"7228153630","name":"Mercadinho Família Feliz","tags":"contact:phone:+55 83 2153 7515,shop:convenience","lat":-7.2255226,"lng":-35.8683162},{"id":"7228212605","name":"Colégio Imaculada Conceição Damas","tags":"amenity:school,operator:type:private,religion:christian,short_name:CIC Damas","lat":-7.2198404,"lng":-35.8855361},{"id":"7464927802","name":"Lindo Olhar","tags":"addr:city:Campina Grande,addr:housenumber:21,addr:street:Avenida Santa Clara,addr:suburb:Prata,amenity:restaurant","lat":-7.2213648,"lng":-35.8900548},{"id":"7464927803","name":"Faustão Lanches","tags":"addr:city:Campina Grande,addr:housenumber:17,addr:street:Avenida Santa Clara,addr:suburb:Prata,amenity:restaurant","lat":-7.2215996,"lng":-35.8901527},{"id":"7464927804","name":"Burgiff","tags":"addr:city:Campina Grande,addr:housenumber:184,addr:street:Rua Vidal de Negreiros,addr:suburb:Centro,amenity:restaurant,cuisine:burger","lat":-7.2217851,"lng":-35.8830004},{"id":"7464927806","name":"Academia Top Fit","tags":"addr:city:Campina Grande,addr:housenumber:275,addr:street:Rua Vidal de Negreiros,addr:suburb:Centro,leisure:fitness_centre","lat":-7.2223031,"lng":-35.8831877},{"id":"7464927811","name":"Polícia Rodoviária Federal","tags":"addr:city:Campina Grande,addr:housenumber:1137,addr:street:Avenida Prefeito Severino Cabral,addr:suburb:Mirante,amenity:police,opening_hours:Mo-Fr 08:00-17:00,operator:Polícia Rodoviária Federal,operator:wikidata:Q1158853,operator:wikipedia:pt:Polícia Rodoviária Federal,phone:+55 83 3533 4702","lat":-7.2333721,"lng":-35.869812},{"id":"7538854386","name":"BOMQUESO ATACADO","tags":"addr:city:CAMPINA GRANDE,addr:street:Rua Alzira Figueiredo,addr:suburb:SANDRA CAVALCANTE,opening_hours:Mo-Su 08:00-21:00,shop:supermarket,wheelchair:yes","lat":-7.242636,"lng":-35.8781418},{"id":"8878205983","name":"Farmácia Bompreço","tags":"amenity:pharmacy,dispensing:yes,healthcare:pharmacy","lat":-7.2440757,"lng":-35.8740112},{"id":"9155517330","name":"Yoube Coffee","tags":"addr:city:Campina Grande,addr:postcode:58408-027,addr:street:Rua José Bernadino,addr:suburb:Vila Cabral,air_conditioning:yes,amenity:cafe,cuisine:coffee_shop;coffee,internet_access:yes,internet_access:fee:no,opening_hours:Mo-Su 10:00-21:00,outdoor_seating:no,website:https://www.instagram.com/youbecoffee/,wheelchair:yes","lat":-7.2378734,"lng":-35.8677524},{"id":"9579226896","name":"Polícia Federal do Brasil","tags":"addr:city:Campina Grande,addr:street:Avenida Prefeito Severino Cabral,amenity:police,email:protocolo.cge.pb@pf.gov.br,operator:Polícia Federal do Brasil,operator:en:Federal Police of Brazil,operator:wikidata:Q2289697,operator:wikipedia:pt:Polícia Federal do Brasil,phone:+55 83 3332 9270","lat":-7.2330142,"lng":-35.869991},{"id":"9848270417","name":"Feira Central","tags":"tourism:attraction","lat":-7.2198385,"lng":-35.8768999},{"id":"9848677517","name":"Gulas","tags":"amenity:restaurant","lat":-7.2168504,"lng":-35.8863749}]