[{"id":"2642187034","name":"Hospital Tiburcio Valeriano de Oliveira","tags":"addr:city:Ingá,addr:housename:Hospital Tiburcio Valeriano de Oliveira,addr:street:Rua Padre José Alves,amenity:hospital,healthcare:hospital","lat":-7.2894239,"lng":-35.6122463},{"id":"2644760796","name":"Mercadinho do Quinha","tags":"shop:supermarket","lat":-7.2917748,"lng":-35.608745},{"id":"2660340676","name":"Praça do Trabalhador","tags":"leisure:park","lat":-7.2890049,"lng":-35.6043246},{"id":"2660373445","tags":"addr:housename:Creche Georgina Pequeno,amenity:childcare","lat":-7.2889315,"lng":-35.6062033},{"id":"2660432231","tags":"addr:city:Ingá,addr:housename:Mini Bar Forró da Velha,addr:street:Rua Ludolvico de Melo Azedo,amenity:bar","lat":-7.2942011,"lng":-35.6018774},{"id":"2661122869","name":"Bar de Daia","tags":"amenity:bar","lat":-7.2905979,"lng":-35.6147015},{"id":"2661135927","name":"Bar e Espetinho do Pai","tags":"addr:city:Ingá,addr:street:Rua Padre José Alves,amenity:bar","lat":-7.2923129,"lng":-35.6137896},{"id":"2672430166","name":"Pizzaria Sabor Perfeito","tags":"addr:city:Ingá,addr:street:Rua Domingos Trigueiro Castelo Branco,amenity:restaurant,cuisine:pizza","lat":-7.2888807,"lng":-35.6098171},{"id":"2885402673","name":"Batalhão da Polícia Militar","tags":"addr:city:Ingá,addr:street:Rua Presidente João Pessoa,amenity:police","lat":-7.2888081,"lng":-35.6071828},{"id":"2919154629","name":"Correios - Ingá","tags":"amenity:post_office","lat":-7.2891756,"lng":-35.6112753},{"id":"2919158801","name":"Pizzaria Bom Trigo","tags":"addr:city:Ingá,addr:street:Avenida Rui Barbosa,amenity:restaurant,cuisine:pizza","lat":-7.2897503,"lng":-35.6105055},{"id":"3039215073","tags":"amenity:school","lat":-7.2865166,"lng":-35.6307563},{"id":"3039221338","name":"Escola Luiz Gonzaga Burity","tags":"addr:postcode:58380000,amenity:school","lat":-7.2927316,"lng":-35.6130215},{"id":"3039228033","name":"mercadinho argemiro","tags":"shop:supermarket","lat":-7.2894485,"lng":-35.6132897},{"id":"3039229244","name":"martins","tags":"shop:supermarket","lat":-7.2919228,"lng":-35.6135204},{"id":"3039229245","name":"mine box dia e noite","tags":"shop:supermarket","lat":-7.2911444,"lng":-35.6149545},{"id":"4695694819","name":"Supermercado Cariri - Ingá","tags":"addr:city:Ingá,addr:street:Rua Presidente João Pessoa,addr:suburb:Centro,shop:supermarket","lat":-7.2887907,"lng":-35.6085442},{"id":"4695694820","name":"Centro Educacional Sonho de Eloí","tags":"addr:city:Ingá,addr:street:Rua Presidente João Pessoa,addr:suburb:Centro,amenity:school","lat":-7.2888128,"lng":-35.6086734}]