[{"id":"2672447951","name":"Grupo Escolar Eduardo Medeiros","tags":"addr:city:Serra Redonda,addr:postcode:58385-000,addr:street:Rua Trinta de Dezembro,amenity:school","lat":-7.1862659,"lng":-35.679924},{"id":"2672447954","name":"Ginásio de Esporte","tags":"leisure:stadium","lat":-7.1884141,"lng":-35.6828028},{"id":"4551376116","name":"Mini Box Dois Irmãos","tags":"addr:city:Serra Redonda,addr:postcode:58385-000,addr:street:Rua Pedro de Azevedo Cruz,opening_hours:07:00 - 18:00,shop:supermarket","lat":-7.185526,"lng":-35.6804267},{"id":"5153817443","name":"Bar da Fátima","tags":"amenity:restaurant","lat":-7.1863494,"lng":-35.6797061},{"id":"6379871258","name":"Espetinho do Bruno","tags":"amenity:bar,brewery:yes,opening_hours:Fr-Su 18:00-24:00","lat":-7.1834639,"lng":-35.6785635},{"id":"6379871259","name":"Posto Munícipal de Serra Redonda","tags":"addr:street:Rua Francisco Clementino Andrade,amenity:hospital,healthcare:hospital,healthcare:speciality:dentist;cardiology;clinic;community","lat":-7.1810725,"lng":-35.6780567},{"id":"6385733183","name":"Ruy Carneiro","tags":"addr:city:Serra Redonda,addr:postcode:58385-000,addr:street:Rua São Miguel,addr:suburb:Centro,amenity:school","lat":-7.1812131,"lng":-35.6785025},{"id":"6385735624","name":"Praça Colorida","tags":"addr:city:Serra Redonda,addr:postcode:58385-000,addr:street:Rua Luiz Francisco de Andrade,addr:suburb:Centro,dog:yes,leisure:park,smoking:outside","lat":-7.1824225,"lng":-35.6776683},{"id":"6385735633","tags":"amenity:pharmacy,dispensing:yes,healthcare:pharmacy","lat":-7.1864681,"lng":-35.6802295}]