[{"id":"2854046376","name":"Novo Horizonte","tags":"amenity:restaurant,cuisine:regional","lat":-8.3199811,"lng":-35.0026145},{"id":"4713808492","name":"2968 - Mercadinho do Irmão","tags":"addr:housenumber:168,addr:postcode:54500-001,addr:street:Engenho Serraria,name:pt:Mercadinho do Irmão,shop:supermarket","lat":-8.3467067,"lng":-35.0182208},{"id":"4713978889","name":"Mercearia do Milson","tags":"name:pt:Mercearia do Milson,shop:supermarket","lat":-8.3071867,"lng":-35.0173988},{"id":"4719473490","name":"2943 - Mercearia do Milson","tags":"name:en:Mercearia do Milson,name:pt:Mercearia do Milson,shop:supermarket","lat":-8.3071739,"lng":-35.0173918},{"id":"5759436479","name":"Polícia Rodoviaria Estadual","tags":"addr:city:Cabo de Santo Agostinho,addr:street:PE-060,addr:suburb:Rosario,amenity:police,police:traffic_police","lat":-8.3207221,"lng":-35.0108306},{"id":"7241284152","name":"Praça de Eventos","tags":"addr:city:Cabo de Santo Agosinho,addr:housenumber:3200,addr:street:Rodovia PE-60 KM-03,addr:suburb:Garapu,leisure:park","lat":-8.3057238,"lng":-35.0220238},{"id":"7241284173","name":"Caixa Econômica Federal","tags":"addr:city:Cabo de Santo Agosinho,addr:housenumber:3200,addr:street:Rodovia PE-60 KM-03,addr:suburb:Garapu,amenity:bank,brand:Caixa Econômica Federal,brand:wikidata:Q835283,brand:wikipedia:pt:Caixa Econômica Federal","lat":-8.3058474,"lng":-35.0217163}]