[{"id":"5909092092","tags":"amenity:bar","lat":-8.1557482,"lng":-34.9569285},{"id":"5959688569","name":"Academia da Cidade - Polo Jordão","tags":"addr:city:Recife,addr:street:Rua Alberto Lundgren,addr:suburb:Jordão,leisure:fitness_centre,opening_hours:05:30-08:30, 17:00-19:00,phone:+81 3355-2820/ 81 3355-2812","lat":-8.1367962,"lng":-34.9370059},{"id":"6009820856","tags":"amenity:school","lat":-8.1312198,"lng":-34.9497121},{"id":"6325990982","name":"Marcos Freire","tags":"addr:city:Jaboatão dos Guararapes,addr:suburb:Marcos Freire,light_rail:yes,network:Metrô do Recife,operator:CBTU,public_transport:station,railway:station,station:light_rail,wheelchair:yes","lat":-8.138368,"lng":-34.968058},{"id":"6434986576","name":"Quitanda da kelly","tags":"shop:supermarket","lat":-8.1469964,"lng":-34.9689802},{"id":"6435155613","name":"Churrascaria Marcos Burguer's","tags":"addr:city:Jaboatão dos Guararapes,addr:postcode:54360-085,addr:street:Avenida Domingos Fernandes,addr:suburb:Marcos Freire,amenity:restaurant,cuisine:regional;chicken;steak_house,opening_hours:Mo-Su 08:00-21:00,wheelchair:no","lat":-8.1430169,"lng":-34.9673021},{"id":"6455822738","name":"Terminal de Ônibus UR-11","tags":"amenity:bus_station,bus:yes,public_transport:station","lat":-8.1309625,"lng":-34.9650392},{"id":"7041127175","name":"Terminal de Micro-Ônibus de Marcos Freire","tags":"alt_name:Terminal de Micro-Ônibus do Conjunto Marcos Freire,amenity:bus_station,bus:yes,public_transport:station,wheelchair:limited","lat":-8.13337,"lng":-34.9762506},{"id":"7041182520","name":"Mercadinho Preço Bom","tags":"shop:supermarket","lat":-8.133229,"lng":-34.9758231},{"id":"7041182523","name":"Farma Freire","tags":"addr:city:Jaboatão dos Guararapes,addr:housenumber:03,addr:postcode:54360-160,addr:street:Avenida Barreto de Menezes,addr:suburb:Marcos Freire,amenity:pharmacy,dispensing:yes,healthcare:pharmacy,phone:+55 (81) 3476-1528","lat":-8.1338227,"lng":-34.9765397},{"id":"7041182525","name":"Farma Nossa","tags":"addr:city:Jaboatão dos Guararapes,addr:housenumber:102,addr:postcode:54360-160,addr:street:Avenida Barreto de Menezes,addr:suburb:Marcos Freire,amenity:pharmacy,dispensing:yes,healthcare:pharmacy","lat":-8.1375606,"lng":-34.9740621},{"id":"7041182526","name":"Rações & Cia","tags":"addr:city:Jaboatão dos Guararapes,addr:postcode:54360-160,addr:street:Avenida Barreto de Menezes,addr:suburb:Marcos Freire,shop:pet","lat":-8.1375917,"lng":-34.9740362},{"id":"7041182529","name":"Mari Frios","tags":"addr:city:Jaboatão dos Guararapes,addr:postcode:54360-160,addr:street:Avenida Barreto de Mesezes,addr:suburb:Marcos Freire,shop:convenience","lat":-8.1341991,"lng":-34.9761195},{"id":"7041182531","name":"Educandário Larissa Rebeca","tags":"addr:city:Jaboatão dos Guararapes,addr:housenumber:57,addr:postcode:54360-160,addr:street:Rua Henrique Dias,addr:suburb:Marcos Freire,amenity:school","lat":-8.1339867,"lng":-34.9771662},{"id":"7041182533","name":"Mercadinho Vitória","tags":"addr:city:Jaboatão dos Guararapes,addr:postcode:54360-010,addr:street:Rua Domingos Fernandes,addr:suburb:Marcos Freire,shop:supermarket","lat":-8.1408099,"lng":-34.9691722},{"id":"7041182535","name":"Gold China","tags":"addr:city:Jaboatão dos Guararapes,addr:housenumber:Bloco 119, Apartamento 103,addr:postcode:54360-085,addr:street:Avenida Domingos Fernandes,addr:suburb:Marcos Freire,amenity:restaurant,cuisine:chinese,opening_hours:24/7,phone:+55 (81) 3375-3016","lat":-8.1408376,"lng":-34.968436},{"id":"7041182536","name":"Educandário Maria José","tags":"amenity:school","lat":-8.1410492,"lng":-34.9681736},{"id":"7041182538","name":"Porto dos Casais Bar e Restaurante","tags":"addr:city:Jaboatão dos Guararapes,addr:housenumber:15H,addr:postcode:54360-020,addr:street:Avenida Domingos Fernandes,addr:suburb:Marcos Freire,amenity:restaurant","lat":-8.144622,"lng":-34.9663282},{"id":"7041182541","name":"Aki Multi Preço Bom","tags":"addr:city:Jaboatão dos Guararapes,addr:postcode:54360-020,addr:street:Avenida Fernandes Vieira,addr:suburb:Marcos Freire,shop:supermarket","lat":-8.1439294,"lng":-34.9669545},{"id":"7212097004","name":"Escola São Luis","tags":"amenity:school","lat":-8.1581603,"lng":-34.9374796},{"id":"7212097005","name":"Escola Jose Glicerio","tags":"amenity:school","lat":-8.15899,"lng":-34.9388436},{"id":"7246393937","name":"Terminal Ur-05 (Barro)","tags":"amenity:bus_station,bus:yes,public_transport:station","lat":-8.1340211,"lng":-34.9520619},{"id":"7359338957","name":"Jolivan","tags":"access:private,amenity:parking,operator:Jolivan,operator:type:private,parking:surface","lat":-8.1534487,"lng":-34.9620177},{"id":"7362976711","name":"Colégio Santa Inez","tags":"addr:city:Jaboatão dos Guararapes,addr:housenumber:18,addr:postcode:54360-085,addr:street:Rua Lagoa Grande,addr:suburb:Marcos Freire,amenity:school","lat":-8.1412838,"lng":-34.967998},{"id":"7459053392","name":"Salão Master","tags":"opening_hours:Tu-Sa 12:00-22:00,shop:beauty,wheelchair:limited","lat":-8.1342305,"lng":-34.977109},{"id":"7459053394","name":"Comedoria Maná","tags":"addr:city:Jaboatão dos Guararapes,addr:housenumber:28,addr:street:Avenida Barreto de Menezes,addr:suburb:Marcos Freire,amenity:restaurant,cuisine:artesanal,phone:+55 3376-8014","lat":-8.1336103,"lng":-34.9766279},{"id":"7459053401","name":"Conveniência do Gerson","tags":"addr:city:Jaboatão dos Guararapes,addr:street:Avenida Barreto de Menezes,addr:suburb:Marcos Freire,payment:cash:yes,payment:credit_cards:yes,payment:debit_cards:yes,shop:convenience","lat":-8.1342115,"lng":-34.9763166},{"id":"7459117391","name":"Mercadinho Leite","tags":"addr:city:Jaboatão dos Guararapes,addr:street:Rua Henrique Dias,addr:suburb:Marcos Freire,shop:supermarket","lat":-8.1335704,"lng":-34.9772045},{"id":"7485647792","name":"Pizzaria Sabor Pizza","tags":"addr:city:Jaboatão dos Guararapes,addr:postcode:54360-020,addr:street:Avenida Fernandes Vieira,addr:suburb:Marcos Freire,amenity:restaurant,cuisine:pizza","lat":-8.1447706,"lng":-34.9659209},{"id":"7485647796","name":"Farmácia do Trabalhador","tags":"addr:city:Jaboatão dos Guararapes,addr:postcode:54360-020,addr:street:Avenida Fernandes Vieira,addr:suburb:Marcos Freire,amenity:pharmacy,dispensing:yes,healthcare:pharmacy","lat":-8.1446611,"lng":-34.9662466},{"id":"7485647798","name":"Varanda do Sabor","tags":"amenity:restaurant","lat":-8.1441568,"lng":-34.9668643},{"id":"7485647808","name":"Self Service Kidelicia","tags":"amenity:restaurant","lat":-8.1447776,"lng":-34.9678565},{"id":"7485647809","name":"Studio Vip","tags":"shop:beauty","lat":-8.1452129,"lng":-34.9680022},{"id":"7495629176","tags":"amenity:restaurant","lat":-8.1568722,"lng":-34.9681896},{"id":"7508378004","name":"Restaurante Deus é Fiel","tags":"addr:city:Jaboatão dos Guararapes,addr:postcode:54360-160,addr:street:Avenida Barreto de Menezes,addr:suburb:Marcos Freire,amenity:restaurant,wheelchair:no","lat":-8.1364794,"lng":-34.9747613},{"id":"7508378005","name":"Hort Granja","tags":"addr:city:Jaboatão dos Guararapes,addr:postcode:54360-160,addr:street:Avenida Barreto de Menezes,addr:suburb:Marcos Freire,shop:supermarket,wheelchair:no","lat":-8.136941,"lng":-34.9745601},{"id":"7508378007","name":"Supermercado Amigão","tags":"addr:city:Jaboatão dos Guararapes,addr:postcode:54360-160,addr:street:Avenida Barreto de Menezes,addr:suburb:Marcos Freire,shop:supermarket","lat":-8.1378338,"lng":-34.9738514},{"id":"7508378014","name":"Studio N","tags":"addr:city:Jaboatão dos Guararapes,addr:postcode:54360-160,addr:suburb:Marcos Freire,shop:beauty","lat":-8.1380569,"lng":-34.9734566},{"id":"7508378016","name":"Pafimelo Rações e Variedades","tags":"addr:city:Jaboatão dos Guararapes,addr:postcode:54360-160,addr:street:Avenida Barreto de Menezes,addr:suburb:Marcos Freire,shop:pet","lat":-8.1382406,"lng":-34.9733689},{"id":"7508378017","name":"Supermercado JN","tags":"addr:city:Jaboatão dos Guararapes,addr:postcode:54360-160,addr:street:Avenida Barreto de Menezes,addr:suburb:Marcos Freire,shop:supermarket","lat":-8.1382186,"lng":-34.9734141},{"id":"7508378018","name":"Farmácia do Trabalhador","tags":"addr:city:Jaboatão dos Guararapes,addr:postcode:54360-160,addr:street:Avenida Barreto de Menezes,addr:suburb:Marcos Freire,amenity:pharmacy,dispensing:yes,healthcare:pharmacy","lat":-8.1383405,"lng":-34.9731165},{"id":"7508378019","name":"Clube Jato Show","tags":"addr:city:Jaboatão dos Guararapes,addr:postcode:54360-160,addr:suburb:Marcos Freire,amenity:car_wash,automated:no,check_date:opening_hours:2022-04-26,opening_hours:signed:no,self_service:no,wheelchair:limited","lat":-8.1393213,"lng":-34.970915},{"id":"7508378023","name":"Wal Cabeleleira","tags":"addr:city:Jaboatão dos Guararapes,addr:postcode:54360-160,addr:street:Avenida Barreto de Menezes,addr:suburb:Marcos Freire,shop:beauty","lat":-8.1363062,"lng":-34.974937},{"id":"7508378024","name":"Granja Ponto do Ovo","tags":"shop:convenience","lat":-8.1393548,"lng":-34.971217},{"id":"7508378026","name":"Conveniência da Jô","tags":"addr:city:Jaboatão dos Guararapes,addr:postcode:54360-030,addr:street:Rua Sebastião do Souto,addr:suburb:Marcos Freire,shop:convenience","lat":-8.1405616,"lng":-34.9706662},{"id":"8222051104","name":"Mercadinho Preço Bom","tags":"addr:city:Jaboatão dos Guararapes,addr:postcode:54360-020,addr:street:Avenida Fernandes Vieira,addr:suburb:Marcos Freire,shop:supermarket","lat":-8.1433301,"lng":-34.9670974},{"id":"8222051105","name":"Drogaria Marcos Freire","tags":"addr:city:Jaboatão dos Guararapes,addr:postcode:54360-020,addr:street:Avenida Fernandes Vieira,addr:suburb:Marcos Freire,amenity:pharmacy,dispensing:yes,healthcare:pharmacy","lat":-8.1435734,"lng":-34.9671212},{"id":"8222051113","name":"Mercadinho Feirão da Economia","tags":"shop:supermarket","lat":-8.1429324,"lng":-34.9677393},{"id":"8222122218","name":"Mercearia do Gordo","tags":"shop:convenience","lat":-8.1442202,"lng":-34.9665729},{"id":"8222122223","tags":"amenity:restaurant,cuisine:pizza","lat":-8.1392757,"lng":-34.9685266},{"id":"8222122225","name":"Farma Life","tags":"amenity:pharmacy,dispensing:yes,healthcare:pharmacy","lat":-8.1390971,"lng":-34.9686665},{"id":"8492302416","name":"Casa da Ração","tags":"shop:pet","lat":-8.1442959,"lng":-34.9665235},{"id":"8492311120","name":"O Gonzagão","tags":"amenity:restaurant","lat":-8.1536789,"lng":-34.9550275},{"id":"8955881323","name":"Restaurante Shell Select","tags":"amenity:restaurant","lat":-8.1546991,"lng":-34.9466127},{"id":"8955881324","name":"Shell Select","tags":"brand:Shell Select,brand:wikidata:Q110716465,brand:wikipedia:en:Royal Dutch Shell,shop:convenience","lat":-8.1548309,"lng":-34.9465863}]