[{"id":"861729658","tags":"amenity:police","lat":-8.0155582,"lng":-34.852755},{"id":"1206731874","name":"Quatro Cantos","tags":"addr:city:Olinda,addr:suburb:Carmo,description:Quatro Cantos é um cruzamento emblemático do sítio histórico da cidade de Olinda, encontro da Ladeira da Misericórdia, Ruas São Bento, Prudente de Morais e Amparo, por onde passam todos os blocos durante o famoso carnaval.,tourism:attraction","lat":-8.0147051,"lng":-34.8527961},{"id":"1418412016","tags":"amenity:bus_station","lat":-7.9988339,"lng":-34.8603608},{"id":"2919672502","name":"Igreja Nossa Senhora dos Milagres","tags":"amenity:place_of_worship,building:church,religion:christian,seamark:building:function:church,seamark:landmark:function:church,seamark:type:landmark","lat":-8.0221331,"lng":-34.8522632},{"id":"4331469906","name":"Santander","tags":"addr:city:Recife,addr:housenumber:1835,addr:postcode:52021-180,addr:street:Avenida João de Barros,addr:suburb:Espinheiro,amenity:bank,brand:Santander,brand:wikidata:Q5835668,brand:wikipedia:en:Santander Bank,phone:+55 81 3194-6200,website:https://www.santander.com.br","lat":-8.0386811,"lng":-34.8922433},{"id":"4339135770","name":"Praça da Picanha","tags":"addr:city:Recife,amenity:restaurant","lat":-8.0396444,"lng":-34.8871799},{"id":"4381393690","tags":"amenity:cafe,cuisine:coffee_shop,name:en:Bike Fit Cafe","lat":-8.0143928,"lng":-34.8526},{"id":"4381393892","tags":"amenity:restaurant,name:en:Casbah","lat":-8.0165833,"lng":-34.8507627},{"id":"4381393992","name":"Bar do Peneira","tags":"amenity:restaurant,cuisine:brazilian,name:en:Bar do Peneira","lat":-8.0147176,"lng":-34.8528868},{"id":"4381416190","tags":"name:en:Estasão Conveniência,shop:supermarket","lat":-8.0148221,"lng":-34.8527579},{"id":"4381424989","name":"Estaçao Cafe","tags":"amenity:cafe,cuisine:brazilian;coffee_shop,internet_access:wlan,name:en:Estaçao Cafe","lat":-8.0147372,"lng":-34.8526011},{"id":"4381814390","tags":"addr:street:Rua do Ampara,amenity:bar,cuisine:brazilian,name:en:Bodega de Véio","lat":-8.0127712,"lng":-34.8531958},{"id":"4382250597","tags":"amenity:bar,cuisine:italian;portuguese;spanish,name:en:A Tribuna de São Bento","lat":-8.0174649,"lng":-34.8522553},{"id":"4382250897","tags":"addr:street:Rua do Amparo,amenity:restaurant,cuisine:brazilian;seafood,name:en:Oficina do Sabor","lat":-8.011812,"lng":-34.853823},{"id":"4382250898","name":"Museu do Mamulengo Espaço Tiridá","tags":"addr:housenumber:344,addr:street:Rua São Bento,name:en:Museu do Mamulengo Espaço Tiridá,tourism:museum","lat":-8.0163148,"lng":-34.8524029},{"id":"4382260396","tags":"amenity:restaurant,cuisine:brazilian,name:en:Beijupirá Restaurante","lat":-8.0131269,"lng":-34.8530137},{"id":"4382260397","tags":"name:en:Mercadinho do Amparo,shop:supermarket","lat":-8.0112565,"lng":-34.8539591},{"id":"4382273291","tags":"addr:housenumber:3,addr:street:Rua Treze de Maio,amenity:restaurant,cuisine:brazilian;sandwich,name:en:Na Ladeira Comedoria","lat":-8.0171056,"lng":-34.852412},{"id":"4382273393","tags":"amenity:restaurant,cuisine:brazilian,name:en:Restaurante Flor do Coco","lat":-8.0129776,"lng":-34.8532705},{"id":"4382273492","tags":"amenity:restaurant,cuisine:brazilian,name:en:Patuá Restaurante","lat":-8.0155739,"lng":-34.8528604},{"id":"4382273792","tags":"amenity:restaurant,name:en:Bar Restaurante Cantinho da Sé","lat":-8.0140999,"lng":-34.8496989},{"id":"4382273793","tags":"amenity:restaurant,cuisine:brazilian;pizza,name:en:Sabor do Bonfim Restaurant e Pizzeria","lat":-8.0159875,"lng":-34.8493651},{"id":"4382302690","tags":"addr:housenumber:249,addr:street:Rue Prudente de Moraes,amenity:restaurant,cuisine:brazilian,email:cipriano_sanchez@hotmail.com,internet_access:wlan,name:en:Atelier Lautréamont Cafe,phone:+55 81 9 9929-1556","lat":-8.0160035,"lng":-34.8513889},{"id":"4385225092","tags":"addr:housenumber:239,addr:street:Rua São Bento,amenity:bar,cuisine:brazilian,name:en:A Venda De Seu Biu","lat":-8.0173193,"lng":-34.8523851},{"id":"4437214591","name":"Trattoria Don Francesco","tags":"addr:housenumber:358,addr:postcode:52041-730,addr:street:Rua Prudente de Morais,amenity:restaurant,name:pt:Trattoria Don Francesco","lat":-8.0153174,"lng":-34.852001},{"id":"4685439092","name":"2128 - Mercadinho Central","tags":"addr:housenumber:640,addr:street:Rua Manoel Regueira,name:pt:Mercadinho Central,shop:supermarket","lat":-7.9994485,"lng":-34.8517308},{"id":"4685439093","name":"3251 - Mercadinho Mae e Filho","tags":"addr:housenumber:464,addr:street:Rua Manoel Regueira,name:pt:Mercadinho Mãe & Filho,shop:supermarket","lat":-8.000235,"lng":-34.8500609},{"id":"4741372426","name":"Itaú","tags":"addr:city:Recife,addr:housenumber:44,addr:street:Estrada de Belém,addr:suburb:Campo Grande,amenity:bank,atm:yes,brand:Itaú Unibanco,brand:wikidata:Q1424293,brand:wikipedia:pt:Itaú Unibanco,name:pt:Itaú,phone:+55 81 4004-1557","lat":-8.0371084,"lng":-34.8903571},{"id":"4741372427","name":"Bradesco","tags":"addr:city:Recife,addr:housenumber:1883,addr:postcode:52021-970,addr:street:Avenida João de Barros,addr:suburb:Encruzilhada,amenity:bank,brand:Bradesco,brand:wikidata:Q806181,brand:wikipedia:en:Banco Bradesco,name:pt:Bradesco,phone:+55 81 3003-8208,website:https://banco.bradesco/html/classic/index.shtm","lat":-8.0381512,"lng":-34.8919742},{"id":"4741387623","name":"Banco do Brasil","tags":"addr:city:Recife,addr:housenumber:2254,addr:postcode:52040-200,addr:street:Avenida Norte Miguel Arraes de Alencar,addr:suburb:Encruzilhada,amenity:bank,atm:yes,brand:Banco do Brasil,brand:wikidata:Q610817,brand:wikipedia:en:Banco do Brasil,name:pt:Banco do Brasil,phone:+55 81 3073-8900,website:https://www.bancobrasil.com.br/,wheelchair:yes","lat":-8.03874,"lng":-34.8907679},{"id":"4745270523","name":".","tags":"addr:housenumber:207,addr:street:Rua Nação,shop:supermarket","lat":-8.000593,"lng":-34.8544263},{"id":"4798970323","name":"Farmácia Big Ben","tags":"addr:street:Largo da Encruzilhada,amenity:pharmacy,healthcare:pharmacy,name:pt:Farmácia Big Ben","lat":-8.0368211,"lng":-34.8913661},{"id":"4802799924","name":"Banco do Brasil","tags":"addr:street:Avenida Beberibe,amenity:bank,brand:Banco do Brasil,brand:wikidata:Q610817,brand:wikipedia:en:Banco do Brasil,name:pt:Banco do Brasil,website:https://www.bb.com.br/","lat":-8.0343288,"lng":-34.8917241},{"id":"4802799925","name":"Drogasil","tags":"addr:city:Recife,addr:housenumber:174,addr:postcode:52041-430,addr:street:Avenida Beberibe,addr:suburb:Beberibe,amenity:pharmacy,brand:Drogasil,brand:wikidata:Q5308185,brand:wikipedia:pt:Drogasil,healthcare:pharmacy,name:pt:Drogasil,phone:+55 81 3241-8469,website:https://www.drogasil.com.br/,wheelchair:yes","lat":-8.0358889,"lng":-34.891187},{"id":"4806360622","name":"Drogarias Big Ben","tags":"addr:city:Recife,addr:housenumber:1932,addr:postcode:52021-355,addr:street:Avenida João de Barros,addr:suburb:Encruzilhada,amenity:pharmacy,healthcare:pharmacy,name:pt:Big Ben,phone:+55 81 3241-8913","lat":-8.0379699,"lng":-34.8913688},{"id":"4878926021","name":"Arena Show Bar","tags":"addr:street:Avenida Beberibe,amenity:bar","lat":-8.0088763,"lng":-34.8890735},{"id":"4908626394","name":"Correios","tags":"addr:city:Recife,addr:housenumber:1912,addr:postcode:50030-230,addr:street:Avenida João de Barros,addr:suburb:Encruzilhada,amenity:post_office,brand:Correios,brand:wikidata:Q3375004,brand:wikipedia:en:Correios,name:pt:Correios,opening_hours:Mo-Su 09:00-17:00,operator:Correios,operator:wikidata:Q3375004,operator:wikipedia:en:Correios,phone:+55 81 3426-0781","lat":-8.038038,"lng":-34.891522},{"id":"4929564723","name":"Creperia","tags":"addr:housenumber:168,addr:postcode:53020-140,addr:street:Rua Prudente de Morais,amenity:restaurant,name:en:Creperia,name:pt:Creperia,opening_hours:Mo-Su 11:00-23:00,phone:+55 81 3429-2935,website:https://www.facebook.com/creperiaolinda","lat":-8.0164544,"lng":-34.8507839},{"id":"4953750123","name":"Central de Flagrantes","tags":"addr:street:Avenida Agamenon Magalhães - Pista Local,amenity:police,name:pt:Central de Flagrantes","lat":-8.0391502,"lng":-34.8797106},{"id":"4953750322","name":"Confraria do Mar","tags":"addr:street:Rua Dona Julieta,amenity:restaurant,name:pt:Confraria do Mar","lat":-8.0340838,"lng":-34.890835},{"id":"5048047513","name":"Elevador panorâmico","tags":"addr:city:Olinda,tourism:attraction,wikidata:Q20053797","lat":-8.0134818,"lng":-34.8499895},{"id":"5238654305","name":"Casa de Jogos","tags":"leisure:amusement_arcade,tourism:attraction","lat":-8.0327623,"lng":-34.8735942},{"id":"5238654319","name":"Fazendinha","tags":"tourism:attraction","lat":-8.0321531,"lng":-34.8746999},{"id":"5238654442","name":"Trem Fantasma","tags":"tourism:attraction","lat":-8.0338439,"lng":-34.8732495},{"id":"5238654443","name":"Thunder","tags":"tourism:attraction","lat":-8.0335119,"lng":-34.8730524},{"id":"5238654444","name":"Gaiola","tags":"tourism:attraction","lat":-8.0323712,"lng":-34.8737739},{"id":"5238654445","name":"Ranger","tags":"tourism:attraction","lat":-8.0341593,"lng":-34.8736331},{"id":"5238654474","name":"Trampolins","tags":"tourism:attraction","lat":-8.0324192,"lng":-34.8740129},{"id":"5238654518","name":"Dragão do Mar","tags":"tourism:attraction","lat":-8.0343734,"lng":-34.8739201},{"id":"5238654519","name":"Saltamontes","tags":"tourism:attraction","lat":-8.0335501,"lng":-34.8732817},{"id":"5238654520","name":"Dragão","tags":"tourism:attraction","lat":-8.0340016,"lng":-34.8734386},{"id":"5238654521","name":"Escorregador","tags":"tourism:attraction","lat":-8.031922,"lng":-34.8738369},{"id":"5238654530","name":"Tobogã","tags":"tourism:attraction","lat":-8.0332749,"lng":-34.8740461},{"id":"5238654531","name":"Barão Vermelho","tags":"tourism:attraction","lat":-8.0330697,"lng":-34.8736424},{"id":"5238654544","name":"Dakar","tags":"tourism:attraction","lat":-8.0333527,"lng":-34.8734027},{"id":"5532002721","name":"2130 - Mercadinho Surubim","tags":"shop:supermarket","lat":-8.0002527,"lng":-34.8543483},{"id":"5574953766","name":"Oncologia - Hospital do Câncer de Pernambuco","tags":"amenity:hospital,healthcare:hospital","lat":-8.0415014,"lng":-34.8732997},{"id":"5607474728","name":"Barraca de Seu Joca","tags":"addr:housenumber:669,addr:street:Rua Bispo Coutinho,amenity:cafe,cuisine:coffee_shop","lat":-8.0138398,"lng":-34.8503458},{"id":"5607534521","name":"Mercado da Ribeira","tags":"name:en:Ribeira Market,tourism:attraction","lat":-8.0156244,"lng":-34.8526358},{"id":"5611598321","name":"2130 Mercadinho Surubim","tags":"shop:supermarket","lat":-8.0002724,"lng":-34.8543304},{"id":"5732805335","tags":"addr:housenumber:3620,addr:street:Avenida Beberibe,amenity:school","lat":-8.0059205,"lng":-34.8899519},{"id":"5732805336","tags":"addr:housenumber:3631,addr:street:Avenida Beberibe,amenity:hospital,healthcare:hospital","lat":-8.0073202,"lng":-34.8906534},{"id":"5740124136","name":"Portal do Espetinho","tags":"addr:housenumber:100,addr:street:Rua Jerônimo Vilela,amenity:restaurant","lat":-8.0312638,"lng":-34.8814006},{"id":"5740124515","tags":"addr:housenumber:3621,addr:street:Avenida Governador Agamenon Magalhães,amenity:hospital,healthcare:hospital","lat":-8.0406446,"lng":-34.8826074},{"id":"5740124750","tags":"addr:housenumber:342,addr:street:Rua Professor Othon Paraíso,amenity:hospital,healthcare:hospital","lat":-8.0383193,"lng":-34.8833831},{"id":"5740126051","name":"Centro Integrado de Saúde Amaury de Medeiros","tags":"addr:postcode:52030-010,addr:street:Rua Visconde de Mamanguape,addr:suburb:Encruzilhada,amenity:hospital,beds:104,healthcare:hospital,healthcare:speciality:paediatrics;dentist;women;abortion;birthing center;gynecology,local_name:Maternidade da Encruzilhada,nohousenumber:yes,old_name:Maternidade Professor Monteiro de Morais,operator:Universidade de Pernambuco,operator:type:public,phone:+55 81 31827701,short_name:CISAM-UPE,start_date:1946-01-23,website:http://www.upe.br/uh-cisam","lat":-8.037928,"lng":-34.8881136},{"id":"6322894685","name":"4603 TACARUNA PETROLIO","tags":"addr:city:Recife,addr:street:Avenida Governador Agamenon Magalhães,addr:suburb:Santo Amaro,shop:convenience","lat":-8.038257,"lng":-34.8748722},{"id":"6401526185","name":"Serenata de Olinda","tags":"tourism:attraction","lat":-8.016624,"lng":-34.8510884},{"id":"6507343439","tags":"amenity:restaurant","lat":-8.0178369,"lng":-34.8651639},{"id":"6507343445","tags":"amenity:atm","lat":-8.0177443,"lng":-34.8654587},{"id":"6507343446","name":"Caixa Econômica Federal","tags":"addr:city:Olinda,addr:street:Avenida Presidente Kennedy,amenity:bank,brand:Caixa Econômica Federal,brand:wikidata:Q835283,brand:wikipedia:pt:Caixa Econômica Federal","lat":-8.0179467,"lng":-34.8656842},{"id":"6560402915","name":"Anexo Azeredinho","tags":"addr:city:Olinda,addr:housenumber:S/N,addr:street:Rua João Pessoa,addr:suburb:São Benedito,alt_name:Escola Municipal Dom Azeredo Coutinho,amenity:school","lat":-8.0002408,"lng":-34.8916377},{"id":"6560463226","name":"Escola Municipal Alto do Sol Nascente","tags":"addr:city:Olinda,addr:street:Quarta Travessa Nossa Senhora da Conceição,addr:suburb:Aguas Compridas,amenity:school,email:easn_olinda@outlook.com","lat":-8.0025331,"lng":-34.8835779},{"id":"6577054718","name":"DELEGACIA DE POLÍCIA DA 024ª CIRCUNSCRIÇÃO - VARADOURO","tags":"amenity:police,description:Unidade de Polícia Judiciária do Estado de Pernambuco, com atuação na 24ª Circunscrição de Segurança subordinada a 7ª Deslegacia Seccional de Policia - Polícia Civil Pernambuco,operator:Polícia Militar de Pernambuco,operator:short:PMPE,operator:wikidata:Q10351015,operator:wikipedia:pt:Polícia Militar de Pernambuco","lat":-8.0203291,"lng":-34.8561205},{"id":"6577234618","name":"DELEGACIA DE POLÍCIA CIVIL","tags":"addr:city:OLINDA,addr:housenumber:333,addr:postcode:53220-460,addr:street:Avenida Nacional,addr:suburb:PEIXINHOS,amenity:police,description:DELEGACIA DE POLÍCIA DA 025ª CIRCUNSCRIÇÃO - PEIXINHOS - DP25ªCIRC DIM/7ªDESEC,opening_hours:SEG-SEX 08:00 AS 18:00","lat":-8.0132589,"lng":-34.8764187},{"id":"7198892185","name":"Ted's Bar Self-Service","tags":"amenity:restaurant","lat":-8.0183688,"lng":-34.8542833},{"id":"7237818285","name":"Donana Pizzaria e Restaurante","tags":"amenity:restaurant","lat":-8.0089322,"lng":-34.8564054},{"id":"7264530857","name":"Correios","tags":"addr:city:Olinda,addr:housenumber:S/N,addr:street:Avenida Professor Andrade Bezerra,addr:suburb:Salgadinho,amenity:post_office,brand:Correios,brand:wikidata:Q3375004,brand:wikipedia:en:Correios,operator:Correios,operator:wikidata:Q3375004,operator:wikipedia:en:Correios,phone:+55 81 3426.8103,website:https://www.correios.com.br/","lat":-8.0287634,"lng":-34.868453},{"id":"7294940484","name":"Caixa Econômica Federal","tags":"addr:city:Recife,addr:housenumber:153,addr:street:Avenida Governador Agamenon Magalhães,addr:suburb:Santo Amaro,amenity:bank,brand:Caixa Econômica Federal,brand:wikidata:Q835283,brand:wikipedia:pt:Caixa Econômica Federal,phone:+55 81 2102-4300","lat":-8.0374092,"lng":-34.8716421},{"id":"7294975987","name":"Drogasil","tags":"addr:city:Recife,addr:housenumber:153,addr:street:Avenida Governador Agamenon Magalhães,addr:suburb:Santo Amaro,amenity:pharmacy,brand:Drogasil,brand:wikidata:Q5308185,brand:wikipedia:pt:Drogasil,dispensing:yes,healthcare:pharmacy,wheelchair:yes","lat":-8.0381074,"lng":-34.8721464},{"id":"7294975988","name":"Santander","tags":"addr:city:Recife,addr:housenumber:153,addr:street:Avenida Governador Agamenon Magalhães,addr:suburb:Santo Amaro,amenity:bank,brand:Santander,brand:wikidata:Q5835668,brand:wikipedia:en:Santander Bank","lat":-8.0382369,"lng":-34.8716047},{"id":"7330429385","name":"Bica dos Quatro Cantos","tags":"access:yes,amenity:drinking_water,bottle:yes,fee:no,tourism:attraction,wheelchair:limited","lat":-8.0138661,"lng":-34.8532961},{"id":"7823999638","name":"Quartel","tags":"addr:city:Recife,addr:state:PE,amenity:bus_station,description:Estação de BRT,public_transport:platform","lat":-8.001627,"lng":-34.856289},{"id":"8808805606","name":"Correios","tags":"amenity:post_office,brand:Correios,operator:Correios,operator:wikidata:Q3375004,operator:wikipedia:en:Correios","lat":-8.0379487,"lng":-34.8914152},{"id":"9820145717","name":"Casa Estação da Luz","tags":"addr:housenumber:313,addr:street:Rua Prudente de Morais,amenity:nightclub","lat":-8.0156868,"lng":-34.8518217},{"id":"9965051689","name":"Arvo","tags":"addr:housenumber:170,addr:street:Rua Djalma Farias,air_conditioning:no,amenity:restaurant,delivery:yes,diet:vegan:no,diet:vegetarian:yes,indoor_seating:no,opening_hours:Mo-Fr, Su 11:45-16:00; Tu-Sa 19:00-00:00,outdoor_seating:yes,payment:credit_cards:yes,payment:debit_cards:yes,smoking:no,takeaway:yes,website:https://taplink.cc/arvorestaurante,wheelchair:limited","lat":-8.0405315,"lng":-34.8847314}]