[{"id":"1585170355","name":"Núcleo de Segurança Comunitária PPO","tags":"amenity:police","lat":-7.9494063,"lng":-34.8968973},{"id":"2305089451","tags":"amenity:school","lat":-7.938915,"lng":-34.9010873},{"id":"3944959710","name":"Terminal Integrado de Abreu e Lima","tags":"amenity:bus_station","lat":-7.9212428,"lng":-34.8952338},{"id":"4685714298","name":"3472 Junior Frutas e Verduras","tags":"addr:housenumber:10,addr:street:Rua Serra Talhada,name:pt:Junior Frutas e Verduras,shop:supermarket","lat":-7.9231645,"lng":-34.892613},{"id":"4686916789","name":"Mercadinho Pe Cícero","tags":"addr:street:Rua Quarenta,name:en:Mercadinho Padre Cícero,name:pt:Mercadinho Padre Cícero,shop:supermarket","lat":-7.9186305,"lng":-34.9085095},{"id":"4687072390","name":"Mercadinho Medeiros","tags":"addr:street:Avenida D,name:en:Mercadinho Medeiros,name:pt:237 - Mercadinho Medeiros,shop:supermarket","lat":-7.9184802,"lng":-34.9115767},{"id":"4781225326","name":"2686 MERCADINHO MINI PREÇO","tags":"shop:supermarket","lat":-7.9210113,"lng":-34.9308072},{"id":"5071682623","name":"3750 - MERCADINHO CALIXTO","tags":"name:pt:3750 - MERCADINHO CALIXTO,shop:supermarket","lat":-7.9225287,"lng":-34.9134787},{"id":"5071751021","name":"VAREJÃO LIMOEIRO","tags":"name:pt:1952 - VAREJÃO LIMOEIRO,shop:supermarket","lat":-7.9141728,"lng":-34.9108097},{"id":"7555131637","name":"KONY LOUNGE SUSHIBAR","tags":"addr:city:PAULISTA,addr:housenumber:160,addr:street:Avenida C,addr:suburb:JARDIM PAULISTA BAIXO,amenity:restaurant,cuisine:chinese;japanese","lat":-7.9488394,"lng":-34.8942766},{"id":"7601109385","name":"banco Santander","tags":"amenity:bank","lat":-7.9105401,"lng":-34.9012903},{"id":"7801746826","name":"Pracinha da Igreja","tags":"addr:city:Paulista,addr:housenumber:73,addr:postcode:53416550,addr:street:Rua Surubim,addr:suburb:Arthur Lundgren 2,leisure:park","lat":-7.9257689,"lng":-34.8952364},{"id":"8633292914","name":"Mercadinho Mesquita","tags":"addr:city:Recife,addr:postcode:52291410,addr:street:Rua Cataguáses,addr:suburb:Guabiraba,shop:convenience","lat":-7.9442029,"lng":-34.9235112},{"id":"8969404033","name":"Cestão Popular","tags":"addr:city:Abreu e Lima,addr:housenumber:05,addr:street:Rua Centro e Oitenta e Cinco,addr:suburb:Caetés 1,shop:supermarket,website:https://www.instagram.com/hiperfamilly/","lat":-7.9192576,"lng":-34.9286337},{"id":"8969469347","name":"Hiper Familly","tags":"addr:city:Abreu e Lima,addr:housenumber:06,addr:street:Rua Centro e Sessenta e Quatro,addr:suburb:Caetés 1,shop:supermarket,website:https://www.instagram.com/hiperfamilly/","lat":-7.9178561,"lng":-34.9204991},{"id":"9882292284","name":"A Fábrica Pizzas","tags":"addr:city:Paulista,addr:housenumber:26,addr:postcode:53409-670,addr:street:Rua Trinta e Seis,addr:suburb:Jardim Paulista,amenity:restaurant,cuisine:pizza,opening_hours:Mo-Su 16:40-23:20,phone:+55 81 3090-5538,website:https://www.afabricapizzas.com.br/","lat":-7.9524439,"lng":-34.8992647}]