[{"id":"2052331519","name":"Terminal de Maranguape II","tags":"amenity:bus_station","lat":-7.9272907,"lng":-34.849703},{"id":"3944916462","name":"Hospital Miguel Arraes","tags":"amenity:hospital","lat":-7.9202453,"lng":-34.8911962},{"id":"4685626693","name":"2368 Ponto do Giba","tags":"addr:housenumber:26,addr:postcode:53444-390,addr:street:PE-022,amenity:bar,name:en:Giba Pub,name:pt:Ponto do Giba","lat":-7.9435908,"lng":-34.8672931},{"id":"4763023936","name":"1981-mercadinho formosa","tags":"addr:street:Rua Formosa,name:pt:1981-mercadinho formosa,shop:supermarket","lat":-7.939464,"lng":-34.8719276},{"id":"5328475728","tags":"amenity:parking","lat":-7.931652,"lng":-34.8576333},{"id":"5328475729","tags":"amenity:parking","lat":-7.9320008,"lng":-34.8569192},{"id":"5330851847","name":"Escola Emídio Bispo","tags":"amenity:school","lat":-7.927989,"lng":-34.8518908},{"id":"5330851848","name":"Mercadinho Popular","tags":"shop:supermarket","lat":-7.9271918,"lng":-34.8517759},{"id":"5330851856","tags":"shop:supermarket","lat":-7.9245228,"lng":-34.8509236},{"id":"5330851857","tags":"shop:supermarket","lat":-7.9243517,"lng":-34.8508465},{"id":"5330851858","tags":"shop:convenience","lat":-7.9259886,"lng":-34.8524653},{"id":"5330851872","name":"Instituto Princesa Isabel","tags":"amenity:school","lat":-7.9293113,"lng":-34.8579442},{"id":"5330851873","name":"Instituto Rackel de Menezes","tags":"amenity:school","lat":-7.9298531,"lng":-34.8568667},{"id":"5330851874","name":"Instituto Jéssica Costa","tags":"amenity:school","lat":-7.9322241,"lng":-34.8586784},{"id":"5330851875","name":"Escola Mundo Infantil","tags":"amenity:school","lat":-7.9306251,"lng":-34.8566726},{"id":"5330851877","name":"Extra Compras","tags":"shop:supermarket","lat":-7.932218,"lng":-34.8568975},{"id":"5330851878","name":"Farmalene","tags":"amenity:pharmacy,healthcare:pharmacy","lat":-7.9323065,"lng":-34.8570855},{"id":"5330851880","tags":"amenity:police","lat":-7.9333685,"lng":-34.8584319},{"id":"5330851884","tags":"leisure:park","lat":-7.9292587,"lng":-34.85175},{"id":"5330851885","name":"Farmácia Alvorecer do Trabalhador","tags":"amenity:pharmacy,healthcare:pharmacy","lat":-7.9303009,"lng":-34.855026},{"id":"5330851888","name":"Varejão Bom Jesus","tags":"shop:supermarket","lat":-7.9306129,"lng":-34.8530157},{"id":"5330851890","name":"Mercadinho e Frigorífico Cumarú","tags":"shop:supermarket","lat":-7.9323627,"lng":-34.8571527},{"id":"5330851894","tags":"leisure:fitness_centre","lat":-7.9331739,"lng":-34.8560119},{"id":"5330851895","tags":"leisure:fitness_centre","lat":-7.9336675,"lng":-34.857696},{"id":"5330851896","name":"Academia Rosa Marinho","tags":"leisure:fitness_centre","lat":-7.9307829,"lng":-34.8536835},{"id":"5330851900","name":"Samara Rações","tags":"shop:pet","lat":-7.9301646,"lng":-34.8552071},{"id":"5330851901","name":"Reino Animal","tags":"shop:pet","lat":-7.9312671,"lng":-34.8559984},{"id":"5330851913","tags":"amenity:restaurant","lat":-7.9292534,"lng":-34.8543546},{"id":"5332562899","tags":"amenity:car_wash","lat":-7.9283745,"lng":-34.8532227},{"id":"5512877739","name":"Terminal Integrado Pelópidas Silveira","tags":"addr:city:Paulista,addr:housenumber:S/N,addr:postcode:53401-445,addr:street:Terminal Integrado Pelópidas Silveira,addr:suburb:Nobre,amenity:bus_station,bus:yes,operator:Grande Recife,phone:+55 81 3182 5500,public_transport:station","lat":-7.9463107,"lng":-34.877923},{"id":"6434347698","tags":"amenity:atm","lat":-7.9321093,"lng":-34.8850058},{"id":"6434347800","name":"Caixa Econômica Federal","tags":"amenity:bank,brand:Caixa Econômica Federal,brand:wikidata:Q835283,brand:wikipedia:pt:Caixa Econômica Federal","lat":-7.9381686,"lng":-34.8779503},{"id":"6872346422","tags":"amenity:restaurant,cuisine:pizza","lat":-7.9255795,"lng":-34.852856},{"id":"6872346423","tags":"amenity:restaurant,cuisine:pizza","lat":-7.9322136,"lng":-34.855268},{"id":"6872346424","tags":"amenity:restaurant,cuisine:pizza","lat":-7.9310456,"lng":-34.8560597},{"id":"7295640894","name":"Caixa Econômica Federal","tags":"addr:city:Paulista,addr:housenumber:582,addr:street:Rua Siqueira Campos,addr:suburb:Centro,amenity:bank,brand:Caixa Econômica Federal,brand:wikidata:Q835283,brand:wikipedia:pt:Caixa Econômica Federal,phone:+55 81 3372-8500","lat":-7.9412741,"lng":-34.8814785}]