[{"id":"2921291208","name":"Pizzaria do Gordo","tags":"amenity:restaurant,cuisine:pizza","lat":-7.5600379,"lng":-34.9970223},{"id":"2938782185","tags":"amenity:pharmacy,dispensing:yes,opening_hours:Mo-Fr 08:00-18:00; Sa 08:00-16:00; PH off","lat":-7.558731,"lng":-34.9962609},{"id":"7304295362","name":"Bradesco","tags":"addr:city:Goiana,addr:street:Praça João Pessoa,addr:suburb:Centro,amenity:bank,brand:Bradesco,brand:wikidata:Q806181,brand:wikipedia:en:Banco Bradesco","lat":-7.5594885,"lng":-34.9988209},{"id":"7304295363","name":"Santander","tags":"addr:city:Goiana,addr:street:Rua Cinco de Maio,addr:suburb:Centro,amenity:bank,brand:Santander,brand:wikidata:Q5835668,brand:wikipedia:en:Santander Bank","lat":-7.5594203,"lng":-34.9982053},{"id":"9646997204","name":"Churrascaria Bode Grill","tags":"amenity:restaurant","lat":-7.5673981,"lng":-35.0222888},{"id":"9882750095","tags":"amenity:bank","lat":-7.5594617,"lng":-34.9982047}]