[{"id":"859506493","name":"Veranda do Mar","tags":"amenity:bar,comment:wifi pass 1717202017,internet_access:wlan,internet_access:password:1717202017,wifi:yes","lat":-7.109066,"lng":-34.824643},{"id":"1026885492","name":"Escola Mar e Sol","tags":"amenity:school","lat":-7.094684,"lng":-34.844914},{"id":"1028957865","name":"Pague Menos","tags":"amenity:pharmacy,brand:Pague Menos,brand:wikidata:Q7124466,brand:wikipedia:pt:Pague Menos,healthcare:pharmacy,opening_hours:24/7","lat":-7.097101,"lng":-34.834786},{"id":"1028958115","name":"Itaú","tags":"amenity:bank,brand:Itaú Unibanco,brand:wikidata:Q1424293,brand:wikipedia:pt:Itaú Unibanco","lat":-7.097125,"lng":-34.834249},{"id":"1957132650","name":"Nau Frutos do Mar","tags":"amenity:restaurant,cuisine:seafood","lat":-7.1107575,"lng":-34.8290618},{"id":"1957132654","name":"Polícia Civil","tags":"amenity:police","lat":-7.1004039,"lng":-34.8438408},{"id":"2014592886","name":"Verde Fruit","tags":"shop:convenience","lat":-7.1183792,"lng":-34.8253349},{"id":"2014595894","name":"Parmegiana","tags":"amenity:restaurant","lat":-7.1113309,"lng":-34.8259989},{"id":"2014596909","name":"Loja de Conveniencia","tags":"shop:convenience","lat":-7.1110753,"lng":-34.8252479},{"id":"2022094181","tags":"amenity:restaurant","lat":-7.1130266,"lng":-34.8239523},{"id":"2051811294","tags":"amenity:bar","lat":-7.1121289,"lng":-34.8233252},{"id":"2051838618","name":"Cia do Chopp","tags":"amenity:bar","lat":-7.1123398,"lng":-34.8237499},{"id":"2051839605","tags":"amenity:police","lat":-7.1134071,"lng":-34.8247289},{"id":"2051840529","name":"Bradesco","tags":"amenity:bank","lat":-7.1109428,"lng":-34.8263117},{"id":"2051841352","tags":"amenity:bank","lat":-7.1103383,"lng":-34.8249435},{"id":"2051842263","tags":"amenity:post_office","lat":-7.1107992,"lng":-34.8252842},{"id":"2051846671","name":"Emporio Café","tags":"amenity:bar","lat":-7.1119599,"lng":-34.8235649},{"id":"2051861612","tags":"shop:supermarket","lat":-7.0857872,"lng":-34.8463315},{"id":"2052041597","name":"Adega do Alfredo","tags":"addr:city:João Pessoa,addr:housenumber:92,addr:postcode:58038250,addr:street:Avenida Ingá,addr:suburb:Manaira,amenity:restaurant,cuisine:regional","lat":-7.1049842,"lng":-34.8302681},{"id":"2052042204","name":"Apetitto Tratoria","tags":"amenity:restaurant,cuisine:italian","lat":-7.1118055,"lng":-34.8242489},{"id":"2052042388","name":"Mediterraneo","tags":"amenity:restaurant,cuisine:seafood","lat":-7.1124021,"lng":-34.824331},{"id":"2052042464","name":"Peixada do Duda","tags":"amenity:restaurant,cuisine:seafood","lat":-7.1121253,"lng":-34.8240038},{"id":"2052191813","name":"Fri Berg Sorveteria","tags":"amenity:restaurant","lat":-7.1094003,"lng":-34.8246286},{"id":"2052197138","name":"Osaka Restaurante Asiático","tags":"amenity:restaurant,cuisine:sushi","lat":-7.1111766,"lng":-34.8244554},{"id":"2630657422","name":"Vila Cariri","tags":"addr:housename:Rua Francisco Claudino Pereira,addr:housenumber:500,addr:street:Rua Francisco Claudino Pereira,amenity:restaurant,cuisine:regional","lat":-7.1013517,"lng":-34.8386475},{"id":"2630667490","name":"Golfinho Bar e Restaurante","tags":"addr:street:Rua Argemiro de Figueiredo,amenity:bar","lat":-7.0806619,"lng":-34.831397},{"id":"2631202026","name":"Supermercado Pão de Açúcar - Retão de Manaíra","tags":"addr:street:Avenida Governador Flávio Ribeiro Coutinho,shop:supermarket","lat":-7.0973131,"lng":-34.8385861},{"id":"2658067117","tags":"addr:city:João Pessoa,addr:housename:Pague Menos,addr:street:Avenida Senador Ruy Carneiro,amenity:pharmacy,healthcare:pharmacy","lat":-7.1182949,"lng":-34.8403394},{"id":"2658100358","name":"Santander","tags":"addr:city:João Pessoa,addr:street:Avenida Senador Ruy Carneiro,amenity:bank,atm:yes,brand:Santander,brand:wikidata:Q5835668,brand:wikipedia:en:Santander Bank","lat":-7.1110391,"lng":-34.8256711},{"id":"2658100593","name":"Caixa Econômica Federal","tags":"addr:city:João Pessoa,addr:street:Avenida Senador Ruy Carneiro,amenity:bank,atm:yes","lat":-7.1111118,"lng":-34.8258144},{"id":"2681582442","name":"Bá do Zé","tags":"addr:city:João Pessoa,addr:street:Rua Francisco Claudino Pereira,amenity:bar","lat":-7.1012466,"lng":-34.838402},{"id":"2681583080","name":"Correios - Manaíra","tags":"amenity:post_office,operator:Correios,operator:wikidata:Q3375004,operator:wikipedia:en:Correios","lat":-7.0976924,"lng":-34.8405739},{"id":"2695733548","name":"Manaíra Shopping","tags":"addr:city:João Pessoa,addr:housenumber:900,addr:street:Avenida Governador Flávio Ribeiro Coutinho,opening_hours:10:00-22:00,phone:+55 83 2106-6000,shop:mall,website:http://www.manairashopping.com.br,wheelchair:yes","lat":-7.098275,"lng":-34.8442886},{"id":"2884646402","name":"Delegacia do Turista","tags":"addr:city:João Pessoa,addr:street:Avenida Almirante Tamandaré,amenity:police","lat":-7.1101088,"lng":-34.8233743},{"id":"2936706413","name":"Mamma mia","tags":"amenity:restaurant,cuisine:italian","lat":-7.111362,"lng":-34.824042},{"id":"3036281279","name":"Nonna Anaia","tags":"amenity:restaurant,cuisine:pizza","lat":-7.1095163,"lng":-34.8244975},{"id":"3273492678","name":"Farmaflora","tags":"addr:city:João Pessoa,addr:street:Avenida Nego,amenity:pharmacy","lat":-7.1143545,"lng":-34.8247193},{"id":"3287985383","name":"Avião do Aeroclube","tags":"historic:aircraft,tourism:attraction","lat":-7.0929973,"lng":-34.8421812},{"id":"3299325869","name":"Bar do Lula","tags":"addr:housenumber:512,addr:street:Rua Francisco Claudino Pereira,addr:suburb:Manaíra,amenity:bar","lat":-7.1014024,"lng":-34.8387103},{"id":"3477771846","name":"Supermercado Tambaú","tags":"addr:city:João Pessoa,addr:street:Avenida Monteiro Lobato,shop:supermarket","lat":-7.1185329,"lng":-34.8283829},{"id":"3824855721","tags":"amenity:restaurant","lat":-7.1136334,"lng":-34.8235685},{"id":"3849747257","name":"Foot praia","tags":"addr:street:Av. João Maurício,amenity:restaurant,phone:30450039","lat":-7.1035659,"lng":-34.830366},{"id":"3950854317","name":"Terminal de Ônibus do Val Paraíso","tags":"addr:city:João Pessoa,addr:postcode:58036-440,amenity:bus_station,bus:yes,public_transport:station","lat":-7.0810837,"lng":-34.8460186},{"id":"4379851392","tags":"amenity:restaurant,cuisine:brazilian;burger","lat":-7.1146518,"lng":-34.8227631},{"id":"4379872890","tags":"amenity:cafe,cuisine:ice_cream,name:en:Ice Cream - Self Serve","lat":-7.1115934,"lng":-34.8234006},{"id":"4381393991","tags":"shop:supermarket","lat":-7.1118791,"lng":-34.823319},{"id":"4393707489","name":"Appetito Trattoria","tags":"addr:housenumber:35,addr:street:Rua Osório Paes 35,amenity:restaurant,name:pt:Appetito Trattoria,opening_hours:Mo-Su 12:00-15:00","lat":-7.1118319,"lng":-34.8242973},{"id":"4565808590","name":"CEF","tags":"amenity:bank,name:pt:CEF","lat":-7.0852188,"lng":-34.8449732},{"id":"4985994329","name":"Boi Bumbar","tags":"addr:housenumber:246,addr:postcode:58039-160,addr:street:Avenida Izidro Gomes,amenity:restaurant,cuisine:fish;regional;grill;seafood;mediterranean;local;pasta;italian;brazilian,opening_hours:Mo-Fr 11:30-15:00; Sa-Su 12:00-16:00,phone:+55 83 3247-2847","lat":-7.1118287,"lng":-34.826519},{"id":"5467773841","tags":"leisure:fitness_centre","lat":-7.1045997,"lng":-34.8367703},{"id":"6041727637","name":"Escola SESQ Centenário","tags":"amenity:school","lat":-7.1150281,"lng":-34.8468895},{"id":"6130846986","name":"NAU","tags":"amenity:restaurant","lat":-7.1107712,"lng":-34.8290651},{"id":"6227570792","tags":"amenity:parking","lat":-7.084039,"lng":-34.8368013},{"id":"6227570793","tags":"amenity:parking","lat":-7.0847143,"lng":-34.8380115},{"id":"6227570794","tags":"amenity:parking","lat":-7.0847082,"lng":-34.8376408},{"id":"6227570795","tags":"amenity:parking","lat":-7.085052,"lng":-34.838523},{"id":"6227570796","tags":"amenity:parking","lat":-7.0860224,"lng":-34.8391841},{"id":"6227570797","tags":"amenity:parking","lat":-7.0864962,"lng":-34.8387737},{"id":"6227570798","tags":"amenity:parking","lat":-7.0851681,"lng":-34.8373063},{"id":"6227570837","tags":"amenity:parking","lat":-7.0861305,"lng":-34.8382411},{"id":"6893426147","name":"Bemais","tags":"shop:supermarket","lat":-7.1106179,"lng":-34.8267916},{"id":"6893478587","name":"Bemais Supermercado","tags":"addr:housenumber:368,addr:postcode:58039180,addr:street:Avenida Senador Ruy Carneiro,opening_hours:Mo-Sa 07:00-24:00; Su 07:00-21:00,shop:supermarket","lat":-7.1109669,"lng":-34.8273546},{"id":"7365476831","name":"Nobel","tags":"amenity:library","lat":-7.0973753,"lng":-34.8343594},{"id":"7365476832","name":"Americanas","tags":"shop:supermarket","lat":-7.0976694,"lng":-34.8343554},{"id":"7365476834","name":"Pizza Hut","tags":"amenity:restaurant,brand:Pizza Hut,brand:wikidata:Q191615,brand:wikipedia:en:Pizza Hut,cuisine:pizza","lat":-7.0975829,"lng":-34.8334582},{"id":"7372965601","tags":"amenity:bar","lat":-7.0761281,"lng":-34.8299365},{"id":"8441492885","name":"Jun Sakamoto","tags":"addr:city:João Pessoa,addr:housenumber:805,addr:street:Avenida Governador Flávio Ribeiro Coutinho,addr:suburb:Manaíra,amenity:restaurant,cuisine:japanese,opening_hours:Mo-Su 10:00-21:00,phone:+55 83 3142 0963,website:https://instagram.com/junsakamotobrasil","lat":-7.0989185,"lng":-34.8446054},{"id":"10120832487","name":"Toco Taco","tags":"addr:housenumber:190A,addr:street:Avenida Bananeiras,amenity:restaurant,cuisine:argentinian;brazilian;mexican,opening_hours:We-Th 17:00-23:00; Fr 17:00-01:00; PH open; Su 16:00-23:00; Sa 16:00-01:00,outdoor_seating:yes,takeaway:yes,toilets:yes,wheelchair:limited","lat":-7.1072286,"lng":-34.8293789}]