[{"id":"7172550440","name":"Monte Cruzeiro","tags":"addr:city:São José do Campestre,addr:postcode:59275000,leisure:park","lat":-6.310622,"lng":-35.709644},{"id":"7172589470","name":"Delegacia de Polícia","tags":"addr:city:São José do Campestre-RN,addr:postcode:59275000,addr:street:Rua Vereador Manoel Cardoso,addr:suburb:centro,amenity:police","lat":-6.3199091,"lng":-35.7056591},{"id":"7174859544","name":"Farmácia Nossa Senhora da Conceição","tags":"addr:city:São José do Campestre-RN,addr:postcode:59275000,addr:street:Avenida Getúlio Vargas,addr:suburb:Centro,amenity:pharmacy,dispensing:yes,healthcare:pharmacy","lat":-6.3178103,"lng":-35.713441},{"id":"7191337388","name":"Escola Estadual Padre Tomás de Aquino","tags":"addr:city:São José do Campestre-RN,addr:postcode:59275000,addr:street:Rua Senador João Camara,addr:suburb:Centro,amenity:school","lat":-6.3162254,"lng":-35.711334},{"id":"7191337395","name":"Escola Municipal Jardelina Freire do Nascimento","tags":"addr:city:São José do Campestre-RN,addr:postcode:59275000,addr:street:Rua Vereador Manoel Cardoso,addr:suburb:Centro,amenity:school","lat":-6.3156277,"lng":-35.7110506},{"id":"7191337412","name":"Escola Municipal Anísio Matias de Araújo","tags":"addr:city:São José do Campestre-RN,addr:postcode:59275000,addr:street:Rua João Matias de Araujo,addr:suburb:Centro,amenity:school","lat":-6.3139509,"lng":-35.7109069},{"id":"7191337427","name":"Escola Municipal Antônio Matias de Araújo","tags":"addr:city:São José do Campestre-RN,addr:postcode:59275000,addr:street:Rua da Paraíba,addr:suburb:Centro,amenity:school","lat":-6.3246165,"lng":-35.7139347},{"id":"7191339713","name":"Escola Estadual Belmira Lara","tags":"addr:city:São José do Campestre-RN,addr:postcode:59275000,addr:street:Rua Senador Georgino Avelino,addr:suburb:centro,amenity:school","lat":-6.3190548,"lng":-35.7081356},{"id":"7191399691","name":"Escola Municipal Professor Antônio Thiago Gadelha Simas","tags":"addr:city:São José do Campestre-RN,addr:postcode:59275000,addr:street:Rua Padre José Luiz,addr:suburb:Centro,amenity:school","lat":-6.3136039,"lng":-35.716881}]