[{"id":"7921641180","name":"Centro Educacional Jofran Torres","tags":"addr:city:São Domingos do Maranhâo,addr:postcode:65790-000,addr:street:Rua Quinze de Novembro,addr:suburb:Centro,amenity:school","lat":-5.5804901,"lng":-44.3823406},{"id":"7921687529","name":"Centro de Ensino Horacio Alves de Andrade","tags":"addr:city:São Domingos do Maranhâo,addr:postcode:65790-000,addr:street:Rua Quinze de Novembro,addr:suburb:Centro,amenity:school,phone:+55 99 3578 1414","lat":-5.5803149,"lng":-44.3819731},{"id":"9092728249","name":"Escola Infantil Segundo Lar","tags":"addr:city:São Domingos do Maranhão,addr:housenumber:14,addr:postcode:65790-000,addr:street:Travessa Primeiro de Agosto,addr:suburb:Centro,amenity:school","lat":-5.5782469,"lng":-44.3837075},{"id":"9115262706","name":"Ue Jose Alves De Andrade","tags":"addr:city:São Domingos do Maranhão,addr:postcode:65790-000,addr:street:Rua Campo Alegre,addr:suburb:Gavião,amenity:school","lat":-5.5713875,"lng":-44.3737243},{"id":"9115265447","name":"Creche Escola Mae Zubina","tags":"amenity:school","lat":-5.5761252,"lng":-44.3794329}]