[{"id":"6627402086","name":"Churrascaria","tags":"amenity:restaurant","lat":-2.8579674,"lng":-44.0477042},{"id":"9026865759","name":"UI Arcelino Rodrigues Tavares","tags":"addr:street:Rua Principal,amenity:school","lat":-2.8973994,"lng":-44.0706696},{"id":"9026938912","name":"UE Axixaense","tags":"addr:city:Axixá,addr:postcode:65148-000,addr:street:Rua São Pedro,addr:suburb:Ruy-Vaz,amenity:school","lat":-2.8565902,"lng":-44.055904},{"id":"9101789548","name":"Em Maria José Medeiros Vieira","tags":"amenity:school","lat":-2.8666868,"lng":-44.0369381},{"id":"9338891287","name":"Cem Tancredo De Almeida Neves","tags":"amenity:school","lat":-2.8657867,"lng":-44.0414979},{"id":"9338922205","name":"Ce Municipal Monsenhor Bacellar","tags":"amenity:school","lat":-2.8646857,"lng":-44.0412672},{"id":"9338948770","name":"Em Pires Ferreira","tags":"amenity:school","lat":-2.8977718,"lng":-44.056545},{"id":"9338949421","name":"Em Tenente David Feitosa","tags":"amenity:school","lat":-2.8754375,"lng":-44.0453728},{"id":"9342279166","name":"Escola Municipal Padre Malagrida","tags":"amenity:school","lat":-2.8637535,"lng":-44.0405698},{"id":"9342279354","name":"Em Maria Da Gloria Lobato Feitosa","tags":"amenity:school","lat":-2.8582725,"lng":-44.0479647},{"id":"9342280111","name":"Creche Municipal Maria De Lourdes Lobato Ferreira","tags":"amenity:school","lat":-2.8635311,"lng":-44.0440755}]