[{"id":"4313356338","name":"Restaurante Tenda","tags":"amenity:restaurant","lat":-2.855485,"lng":-44.0450843},{"id":"5156201179","name":"Restaurante Pousada Qubra Anzol","tags":"amenity:restaurant","lat":-2.8513717,"lng":-44.0353312},{"id":"5156201187","tags":"amenity:parking","lat":-2.851272,"lng":-44.0353094},{"id":"5156201188","tags":"amenity:parking","lat":-2.8505822,"lng":-44.034899},{"id":"5661459974","name":"Restaurante Pousada Pedra Grande","tags":"amenity:restaurant","lat":-2.8505831,"lng":-44.0350483},{"id":"9026421033","name":"UE Professor Vicente Pires","tags":"amenity:school","lat":-2.8257483,"lng":-44.0728248},{"id":"9026651085","name":"UI Doutor Paulo Ramos","tags":"addr:city:Axixá,addr:postcode:65148-000,addr:street:Rua Zadock Pastor,addr:suburb:Veneza,amenity:school","lat":-2.8231225,"lng":-44.0602626},{"id":"9026684032","name":"UI Senador Clodomir Cardoso","tags":"amenity:school","lat":-2.8484035,"lng":-44.0622742},{"id":"9026712035","name":"Centro de Ensino Estado Do Acre","tags":"addr:city:Axixá,addr:housenumber:27,addr:postcode:65148-000,addr:street:Avenida Senador José Sarney,addr:suburb:Centro,amenity:school,phone:+55 98 3361 1271","lat":-2.837144,"lng":-44.0529133},{"id":"9026865808","name":"UI Professora Maria Pereira Reis","tags":"addr:city:Axixá,addr:postcode:65148-000,addr:street:Rua Vinte e Três de Setembro,addr:suburb:Centro,amenity:school","lat":-2.8390566,"lng":-44.0567542},{"id":"9026895665","name":"Unidade Integrada João Clímaco de Almeida","tags":"amenity:school","lat":-2.8522292,"lng":-44.0731323},{"id":"9038858471","name":"EM Santa Helena","tags":"amenity:school","lat":-2.8315759,"lng":-44.0439869}]