[{"id":"9041320608","name":"Unidade Integrada Ruth Tavares","tags":"addr:city:Rosário,addr:postcode:65150-000,addr:street:Rua Três,amenity:school","lat":-2.9480205,"lng":-44.2514504},{"id":"9338891161","name":"Unidade Escolar Sete De Marco","tags":"amenity:school","lat":-2.9580293,"lng":-44.2098843},{"id":"9338924221","name":"Unidade Escolar Paulo Freire","tags":"amenity:school","lat":-2.9828386,"lng":-44.2216484},{"id":"9338931238","name":"Centro De Ensino Jayme Tavares","tags":"amenity:school","lat":-2.9532685,"lng":-44.2196189},{"id":"9338934078","name":"Centro De Educacao Infantil Sonho Encantado","tags":"amenity:school","lat":-2.9534542,"lng":-44.2204092},{"id":"9342231094","name":"Unidade Integrada Kleper Aquino","tags":"amenity:school","lat":-2.9484023,"lng":-44.2502408},{"id":"9342254808","name":"Unidade Integrada Sao Camilo De Lelles","tags":"amenity:school","lat":-2.9461254,"lng":-44.2495622}]