[{"id":"9501113386","name":"Escola Municipal Maria Das Gracas Rodrigues Coelho","tags":"amenity:school","lat":-3.8840282,"lng":-42.2378062},{"id":"9501135706","name":"Escola Municipal Gervasio Lages Rebelo","tags":"amenity:school","lat":-3.9029637,"lng":-42.2423176},{"id":"9501141574","name":"Educandario Betel","tags":"amenity:school","lat":-3.8911732,"lng":-42.2405796},{"id":"9501142590","name":"Escola Municipal Maria Luiza Teles Alves","tags":"amenity:school","lat":-3.8837793,"lng":-42.2362505},{"id":"9501146012","name":"Ceep Leonardo Das Dores","tags":"amenity:school","lat":-3.8728395,"lng":-42.2413225},{"id":"9501157364","name":"Educandario Tia Doca","tags":"amenity:school","lat":-3.8863965,"lng":-42.2377418},{"id":"9501157365","name":"Escola Municipal Dr Jose Patriotino Rebelo","tags":"amenity:school","lat":-3.8837632,"lng":-42.2340913},{"id":"9501159980","name":"Educandario Manoel Rodrigues","tags":"amenity:school","lat":-3.8980853,"lng":-42.2366448},{"id":"9501163180","name":"Creche Vovo Jose Luis Pereira","tags":"amenity:school","lat":-3.8936833,"lng":-42.2372241},{"id":"9501166362","name":"Escola Castelo Da Fantasia","tags":"amenity:school","lat":-3.8998729,"lng":-42.2364382},{"id":"9501170896","name":"U E Petronio Portela","tags":"addr:housenumber:927,addr:street:Rua Vereador Ramos,amenity:school","lat":-3.8959419,"lng":-42.2366555},{"id":"9501171133","name":"Escola Municipal Sao Benedito","tags":"amenity:school","lat":-3.8897576,"lng":-42.2374655},{"id":"9501173366","name":"Escola Tia Erinelda","tags":"amenity:school","lat":-3.9004108,"lng":-42.2324981},{"id":"9501173582","name":"Escola Municipal Santa Luzia","tags":"amenity:school","lat":-3.9016123,"lng":-42.2611977},{"id":"9501173583","name":"Creche Vo Alzira","tags":"amenity:school","lat":-3.9068813,"lng":-42.2437392},{"id":"9501173868","name":"Escola Municipal David Caldas","tags":"amenity:school","lat":-3.9019575,"lng":-42.2336327},{"id":"9501173869","name":"Escola Municipal Maria Erinete Brito","tags":"amenity:school","lat":-3.8776163,"lng":-42.2429372},{"id":"9501176262","name":"Escola Municipal Cristo Redentor","tags":"amenity:school","lat":-3.9022519,"lng":-42.2535802}]