[{"id":"9503563293","name":"U E Jose Amavel","tags":"amenity:school","lat":-3.7157819,"lng":-42.5537007},{"id":"9503577613","name":"Unidade Escolar Dinir Patricio","tags":"amenity:school","lat":-3.7190821,"lng":-42.5566028},{"id":"9503585282","name":"Creche Tia Milagre","tags":"amenity:school","lat":-3.7130758,"lng":-42.5551356},{"id":"9503628162","name":"Creche Tia Maria Do Carmo","tags":"amenity:school","lat":-3.7165179,"lng":-42.5589497},{"id":"9503633060","name":"Unidade Escolar Maria Coelho De Resende","tags":"amenity:school","lat":-3.6964916,"lng":-42.5699468},{"id":"9503651253","name":"Unid Esc Manoel Antonio De Oliveira","tags":"addr:street:Avenida Pedro Freitas,amenity:school","lat":-3.7148745,"lng":-42.5492375},{"id":"9503661142","name":"Creche Vovo Lucinda","tags":"amenity:school","lat":-3.716732,"lng":-42.5517453},{"id":"9503661143","name":"Colegio Santa Maria","tags":"amenity:school","lat":-3.7173102,"lng":-42.5522818},{"id":"9503661701","name":"Escola Municipal Professor Jose Claudio Aguiar Da Rocha","tags":"amenity:school","lat":-3.7189777,"lng":-42.5553797},{"id":"9503662579","name":"Esc Mun De Alto Formoso","tags":"amenity:school","lat":-3.7340867,"lng":-42.5558464},{"id":"9503667469","name":"Educandario Sao Judas Tadeu","tags":"amenity:school","lat":-3.715565,"lng":-42.5535773},{"id":"9503672584","name":"U E Augusto Cesar Maia","tags":"amenity:school","lat":-3.7166196,"lng":-42.5535826}]