[{"id":"6939305269","tags":"amenity:school","lat":-3.3290197,"lng":-43.5200075},{"id":"6940328677","name":"U I Carolina Mesquita De Araujo","tags":"amenity:school","lat":-3.3334927,"lng":-43.5236108},{"id":"6940348793","name":"Bradesco","tags":"amenity:bank,brand:Bradesco,brand:wikidata:Q806181,brand:wikipedia:en:Banco Bradesco","lat":-3.330244,"lng":-43.5273256},{"id":"9164943687","name":"U I Thomaz De Aquino","tags":"amenity:school","lat":-3.3270699,"lng":-43.5443504},{"id":"9332403057","name":"Ue Rosa Costa Mesquita","tags":"amenity:school","lat":-3.3367102,"lng":-43.5303868},{"id":"9332426968","name":"Ue Juventino Magalhaes","tags":"amenity:school","lat":-3.3290815,"lng":-43.5414509},{"id":"9332444456","name":"Pre Escolar Professor Jose Conrado Rabelo","tags":"addr:city:São Benedito do Rio Preto,addr:postcode:65440-000,addr:street:Rua das Flores,addr:suburb:Trizidela,amenity:school","lat":-3.3342467,"lng":-43.5222732},{"id":"9332449965","name":"Pre Escolar O Cravo E A Rosa","tags":"amenity:school","lat":-3.3260209,"lng":-43.5243948},{"id":"9332456934","name":"Ue Marly Sarney","tags":"addr:city:São Benedito do Rio Preto,addr:street:Rua Murilo Magalhães,addr:suburb:Cidade Alta,amenity:school","lat":-3.3232977,"lng":-43.5256286}]