[{"id":"2587771578","name":"Banco24Horas","tags":"amenity:atm,brand:Banco24Horas,brand:wikidata:Q4854069,brand:wikipedia:pt:Banco24Horas","lat":-2.9279265,"lng":-41.753341},{"id":"2587773684","name":"Banco do Brasil","tags":"amenity:atm","lat":-2.9138231,"lng":-41.7716967},{"id":"2588260391","name":"Banco24Horas","tags":"amenity:atm,brand:Banco24Horas,brand:wikidata:Q4854069,brand:wikipedia:pt:Banco24Horas","lat":-2.9088763,"lng":-41.7607261},{"id":"4362498791","name":"Kalldog Bistrô Bar","tags":"amenity:restaurant,cuisine:brazilian,phone:+55 86 9 9522 8279","lat":-2.9266717,"lng":-41.7535282},{"id":"5448492563","name":"BEIRA RIO","tags":"amenity:bar","lat":-2.9061162,"lng":-41.7886007},{"id":"5448501947","name":"Bar ESTRELA","tags":"amenity:bar","lat":-2.9070701,"lng":-41.7824519},{"id":"6462880659","name":"Hemocentro","tags":"amenity:hospital,healthcare:hospital","lat":-2.9070818,"lng":-41.7806974},{"id":"7072792859","name":"Assaí Atacadista","tags":"addr:city:Parnaíba,addr:postcode:64212-293,addr:street:BR-343,addr:suburb:Sabiazal,contact:phone:+55 86 3315 7101; +55 86 3315 7102,official_name:Sendas Distribuidora S/A,opening_hours:Mo-Sa 07:00-22:00; Su 08:00-18:00; PH 08:00-18:00,operator:GPA,phone:+55 86 3315-7100,reg_name:Assaí Parnaíba,shop:supermarket,website:https://www.assai.com.br/,wheelchair:yes","lat":-2.939355,"lng":-41.7551869},{"id":"7107572926","name":"Morosko","tags":"amenity:restaurant,description:Self service with beef","lat":-2.9293809,"lng":-41.7532184},{"id":"7107573322","name":"Rodoviária","tags":"amenity:pharmacy","lat":-2.9279368,"lng":-41.7537555},{"id":"7768188686","name":"Bradesco","tags":"addr:city:Parnaíba,addr:postcode:64212045,addr:street:Avenida Deputado Pinheiro Machado,addr:suburb:Centro,amenity:bank,atm:yes,brand:Bradesco,brand:wikidata:Q806181,brand:wikipedia:en:Banco Bradesco,email:1522.gerencia@bradesco.com.br,phone:+55 86 3321 3037","lat":-2.9092852,"lng":-41.7534772},{"id":"9022577758","name":"Escola Municipal de Educação Infantil Tia Mirtes","tags":"addr:city:Parnaíba,addr:housenumber:922,addr:postcode:64215-440,addr:street:Rua Osvaldo Cruz,addr:suburb:Boa Esperança,amenity:school,phone:+55 86 9 9548 2841","lat":-2.9203512,"lng":-41.7598738},{"id":"9505940459","name":"Colegio Pequeno Aprendiz","tags":"amenity:school","lat":-2.9269607,"lng":-41.7497112},{"id":"9505941556","name":"Esc Mun Renato Castelo Branco","tags":"amenity:school","lat":-2.9379139,"lng":-41.7498292},{"id":"9505941691","name":"Esc Mul Francisca Borges Dos Reis","tags":"addr:city:Parnaíba,addr:housenumber:206,addr:street:Rua Frei Higino,amenity:school","lat":-2.9197844,"lng":-41.7490058},{"id":"9505955592","name":"Escola Municipal Hermila Miloca Franco Ramos","tags":"amenity:school","lat":-2.9039852,"lng":-41.7830108},{"id":"9505981471","name":"Escola Municipal De Educacao Infantil Tia Mirtes","tags":"amenity:school","lat":-2.9208559,"lng":-41.7606787},{"id":"9505981606","name":"Cooperativa Educacional Logos","tags":"amenity:school","lat":-2.9072747,"lng":-41.7746155},{"id":"9505981890","name":"Unidade Escolar Alcenor Candeira","tags":"addr:city:Parnaíba,addr:housenumber:100,addr:street:Rua Marques Bastos,addr:suburb:Centro,amenity:school","lat":-2.9061175,"lng":-41.7769061},{"id":"9505986173","name":"Escola Municipal Antonieta Martins De Oliveira","tags":"amenity:school","lat":-2.9041807,"lng":-41.782807},{"id":"9505987850","name":"U E Jeanete Sousa","tags":"amenity:school","lat":-2.9396658,"lng":-41.7782901},{"id":"9505989071","name":"Colegio Apoio Crianca","tags":"amenity:school","lat":-2.9055362,"lng":-41.7751466},{"id":"9505989355","name":"Escola Municipal Maria Das Gracas Lopes Bezerra","tags":"amenity:school","lat":-2.9140278,"lng":-41.7650561},{"id":"9505989356","name":"Escola Crescer","tags":"addr:street:Rua James Clark,amenity:school","lat":-2.9054505,"lng":-41.7608584},{"id":"9505992078","name":"Escola Municipal Monsenhor Antonio Sampaio","tags":"amenity:school","lat":-2.9431623,"lng":-41.7620386},{"id":"9505992644","name":"Escola Municipal Jose Alexandre Caldas Rodrigues","tags":"amenity:school","lat":-2.9136555,"lng":-41.7759325},{"id":"9505993399","name":"Esc De Ed Especial Prof Maria Do Amparo Paula","tags":"addr:city:Parnaíba,addr:housenumber:1024,addr:street:Rua Afonso Pena,amenity:school","lat":-2.9108348,"lng":-41.7638893},{"id":"9505994943","name":"Esc Mul Godofredo De Miranda","tags":"amenity:school","lat":-2.9050299,"lng":-41.7835687},{"id":"9505998033","name":"Unidade Escolar Mons Roberto Lopes","tags":"addr:city:Parnaíba,addr:housenumber:863,addr:street:Rua Coronel Pacífico,addr:suburb:São José,amenity:school","lat":-2.9064898,"lng":-41.7803206},{"id":"9505999641","name":"Instituto Educacional Wanda Horta Ltda","tags":"amenity:school","lat":-2.9068354,"lng":-41.7766298},{"id":"9505999998","name":"Colegio Alpha Kids","tags":"amenity:school","lat":-2.9173307,"lng":-41.7630954},{"id":"9505999999","name":"Escola Sao Francisco Dos Capuchinhos","tags":"addr:city:Parnaíba,addr:housenumber:890,addr:street:Avenida São Sebastião,amenity:school","lat":-2.9094177,"lng":-41.7646484},{"id":"9506002430","name":"Esc Comercial De Parnaiba","tags":"addr:city:Parnaíba,addr:housenumber:562,addr:street:Rua Doutor João Emílio Falcão Costa,addr:suburb:São José,amenity:school","lat":-2.9063211,"lng":-41.7815624},{"id":"9506004157","name":"Colegio Icaro","tags":"amenity:school","lat":-2.9111,"lng":-41.7775539},{"id":"9506006522","name":"Escola Municipal Eliana Franca","tags":"amenity:school","lat":-2.9191817,"lng":-41.7678858},{"id":"9506006534","name":"Esc Mul Domingos Rubem Uchoa","tags":"amenity:school","lat":-2.9125197,"lng":-41.7574789},{"id":"9506010323","name":"Ceja Jonas Correia","tags":"amenity:school","lat":-2.9060345,"lng":-41.7548583},{"id":"9506010582","name":"Unidade Escolar Alcenor Candeira","tags":"amenity:school","lat":-2.9060961,"lng":-41.7545392},{"id":"9506021075","name":"Escola Frei Rogerio De Milao","tags":"amenity:school","lat":-2.9133689,"lng":-41.7615505},{"id":"9506024822","name":"Fund Educ Mestres Aliados - Fema","tags":"amenity:school","lat":-2.9139421,"lng":-41.7784055},{"id":"9506025190","name":"Esc Mul Jose De Lima Couto","tags":"amenity:school","lat":-2.9084025,"lng":-41.7604615},{"id":"9506027718","name":"U E Epaminondas Castelo Branco","tags":"amenity:school","lat":-2.9063104,"lng":-41.7600136},{"id":"9506030335","name":"U E Edison Cunha","tags":"addr:housenumber:865,addr:street:Rua Timbiras,amenity:school","lat":-2.9180727,"lng":-41.7578517},{"id":"10093694677","name":"Escola Integral Dep. Moraes Sousa","tags":"amenity:school","lat":-2.926593,"lng":-41.7532466}]