[{"id":"5404038161","name":"Maria Jose","tags":"addr:city:Senador Sá,addr:postcode:62470000,addr:street:Rua Doca Rodrigues,addr:suburb:Centro,amenity:hospital,healthcare:hospital","lat":-3.3535296,"lng":-40.4649173},{"id":"5404051167","name":"Escola Estadual","tags":"amenity:school","lat":-3.350737,"lng":-40.463431},{"id":"5404051168","name":"Escola Nossa Senhora do Amparo","tags":"addr:city:Senador Sá,addr:postcode:62470000,addr:street:Rua Padre Tarcísio Melo,addr:suburb:centro,amenity:school","lat":-3.3530777,"lng":-40.4650763},{"id":"5405328015","name":"Delegacia de Policia","tags":"amenity:police","lat":-3.3499683,"lng":-40.4636128},{"id":"5405344196","name":"Farmácia Santra Cara","tags":"addr:city:Senador Sá,addr:postcode:62470000,addr:street:Av 23 de agosto,addr:suburb:Centro,amenity:pharmacy,healthcare:pharmacy","lat":-3.3511866,"lng":-40.4654521},{"id":"5405364506","name":"Pingo de Gente","tags":"addr:city:Senador Sá,addr:postcode:62470000,addr:street:Av Alfredo Ribeiro Campos,addr:suburb:Nossa Senhora do Carmo,amenity:school","lat":-3.3560893,"lng":-40.467913},{"id":"5405485105","name":"Restaurande","tags":"addr:city:Senador Sá,addr:postcode:62470-970,addr:street:Av. 23 de agosto,addr:suburb:Frei Galvão,amenity:restaurant","lat":-3.3492496,"lng":-40.4673332},{"id":"5405486613","name":"ACademia do Idozo","tags":"addr:city:Senador Sá,addr:postcode:62470000,addr:street:Av Alfredo Ribeiro Campos,addr:suburb:centro,leisure:fitness_centre","lat":-3.353168,"lng":-40.4658946},{"id":"5405510547","tags":"addr:city:Senador Sá,addr:postcode:62470000,addr:street:Rua Alexade F. Marques,addr:suburb:Nossa Senhora do Amparo,amenity:school","lat":-3.3486573,"lng":-40.4643414},{"id":"5405513440","tags":"addr:city:Senador Sá,addr:postcode:62470-000,addr:street:Rua Nossa Senhora do Amparo,addr:suburb:Nossa Senhora do Amparo,amenity:school","lat":-3.3432169,"lng":-40.4625097},{"id":"5405527899","name":"Boi na Brasa","tags":"addr:city:Senador Sá,addr:postcode:62470-970,addr:street:Av 23 de Agosto,addr:suburb:Frei Galvâo,amenity:restaurant","lat":-3.3464384,"lng":-40.4724095},{"id":"5405539231","name":"Cemitério Padre Raimundo N. Gomes","tags":"addr:city:Senador Sá,addr:housenumber:00,addr:postcode:62470-970,addr:street:Av 23 de Agosto,addr:suburb:Frei Galvâo,amenity:grave_yard","lat":-3.3453102,"lng":-40.4729745},{"id":"5409963772","name":"Farmacia","tags":"addr:city:Senador Sá,addr:postcode:62470000,addr:street:Rua Zacarias Lira,addr:suburb:centro,amenity:pharmacy,healthcare:pharmacy","lat":-3.3507848,"lng":-40.4648641},{"id":"5409999001","tags":"addr:city:Senador Sá,addr:postcode:62470000,addr:street:Rua Zacarias Lira,addr:suburb:centro,leisure:fitness_centre","lat":-3.3510091,"lng":-40.4642873},{"id":"5410022208","tags":"addr:city:Senador Sá,addr:postcode:62470-970,addr:street:Av. 23 de agosto,addr:suburb:Frei Galvão,amenity:school","lat":-3.3497592,"lng":-40.4677426},{"id":"5410058514","name":"Merkur","tags":"addr:city:Senador Sá,addr:postcode:62470000,addr:street:Rua Zacarias Lira,addr:suburb:centro,shop:supermarket","lat":-3.3508844,"lng":-40.4645373},{"id":"5410145343","tags":"addr:city:Senador Sá,addr:postcode:62470-000,addr:street:Rua Padre Tarcísio Melo,addr:suburb:NOSSA SENHORA DO AMPARO,amenity:bar,operator:JEAN","lat":-3.3463759,"lng":-40.4597645},{"id":"5599976888","tags":"addr:city:Senador Sá,addr:postcode:62470000,addr:street:Rua Francisco Queiroz,addr:suburb:Nossa Senhora do Carmo,amenity:car_wash","lat":-3.3535185,"lng":-40.4684442},{"id":"7605619590","name":"Leninha","tags":"shop:supermarket","lat":-3.3531721,"lng":-40.4660432},{"id":"7605625386","name":"Mercadunho Oseias","tags":"shop:supermarket","lat":-3.349849,"lng":-40.4674124},{"id":"7605884285","name":"Comercial Sao Francisco","tags":"shop:supermarket","lat":-3.3511047,"lng":-40.4655522}]