[{"id":"9682594205","name":"Reataurante Tropical Beach","tags":"amenity:restaurant","lat":-3.076662,"lng":-39.5599581},{"id":"9690810691","name":"E.E.B FRANCISCO MARTINS NETO","tags":"amenity:school","lat":-3.1192785,"lng":-39.5912466},{"id":"10093114917","name":"E.E.B Francisco Estevao De Assis","tags":"amenity:school","lat":-3.0990892,"lng":-39.5863679},{"id":"10135903517","name":"Lava Jato O Danilo","tags":"amenity:car_wash","lat":-3.0769886,"lng":-39.559112},{"id":"10168966743","name":"E.E.B. ISMAEL TOMÉ DE SOUSA","tags":"amenity:school","lat":-3.0774823,"lng":-39.5616322},{"id":"10169631569","name":"ICEPRO INSTITUTO CEARENCE DE QUALIFICAÇÕES","tags":"amenity:school","lat":-3.0988507,"lng":-39.5872746},{"id":"10169837842","name":"Restaurante das Mulheres de Caetano de Cima","tags":"amenity:restaurant","lat":-3.0797456,"lng":-39.5510719},{"id":"10169837843","name":"Barraca Ponto Do Bento","tags":"amenity:restaurant","lat":-3.0793909,"lng":-39.5525185},{"id":"10169837844","name":"Barraca da Rebeca SOL e MAR","tags":"amenity:restaurant","lat":-3.0791726,"lng":-39.5532078},{"id":"10169837845","name":"Barraca Dos Oliveiras","tags":"amenity:restaurant","lat":-3.079123,"lng":-39.5536477},{"id":"10169837851","name":"Mercadinho MPE","tags":"shop:supermarket","lat":-3.0778616,"lng":-39.5601431},{"id":"10169837854","name":"Pousada e Restaurante ponto Certo JF","tags":"amenity:restaurant","lat":-3.0769242,"lng":-39.5594019},{"id":"10169837855","name":"Barraca Estrela Mar","tags":"amenity:restaurant","lat":-3.0764073,"lng":-39.5616925},{"id":"10169837856","name":"Tempero do amor Pousda e Resto","tags":"amenity:restaurant","lat":-3.0766858,"lng":-39.5614619},{"id":"10169877434","name":"Espaço Divas","tags":"shop:beauty","lat":-3.0769724,"lng":-39.5636532},{"id":"10169877436","name":"Mercadinho RC","tags":"shop:supermarket","lat":-3.0774786,"lng":-39.5646993},{"id":"10169877437","name":"Barraca terra do sol","tags":"amenity:restaurant","lat":-3.0773768,"lng":-39.5660363},{"id":"10169877438","name":"Barraca e Restaurante Casa do Mar","tags":"amenity:restaurant","lat":-3.0766537,"lng":-39.5667337},{"id":"10170056278","name":"Mercadinho guaba lanches","tags":"shop:supermarket","lat":-3.0766973,"lng":-39.5728733}]