[{"id":"1042079620","name":"Aeroporto de São Bento","tags":"aeroway:aerodrome","lat":-2.7044439,"lng":-44.8447227},{"id":"4177438128","name":"Escola Padre Joao Piamarta","tags":"addr:city:São Bento,addr:postcode:65235-000,addr:street:Travessa General Osório,addr:suburb:Centro,amenity:school","lat":-2.7002729,"lng":-44.8278909},{"id":"9035000775","name":"Escolinha Reino da Alegria","tags":"addr:city:São Bento,addr:housenumber:289,addr:postcode:65235-000,addr:street:Rua Deputado José Araújo,addr:suburb:Centro,amenity:school","lat":-2.700784,"lng":-44.825599},{"id":"9040703867","name":"Esc Mul Reunida Do Alegre","tags":"amenity:school","lat":-2.6978171,"lng":-44.859231},{"id":"9053370780","name":"Em Do Tupy","tags":"addr:city:São Bento,addr:postcode:65235-000,addr:street:Travessa Benjamim Constant,addr:suburb:Tupy,amenity:school","lat":-2.7037409,"lng":-44.8269291},{"id":"9120285804","name":"Em Sao Manoel","tags":"amenity:school","lat":-2.7126868,"lng":-44.8536359},{"id":"9120300747","name":"Ji Lourdinha Moniz","tags":"addr:city:São Bento,addr:postcode:65235-000,addr:street:Rua Professor Tito Soares,addr:suburb:Centro,amenity:school","lat":-2.7013082,"lng":-44.8317195},{"id":"9120300748","name":"Escola Muni Condessa Pereira Carneiro","tags":"addr:city:São Bento,addr:postcode:65235-000,addr:street:Rua Professor Tito Soares,addr:suburb:Centro,amenity:school","lat":-2.7012975,"lng":-44.8313923},{"id":"9120317894","name":"Em Luis Do Vale","tags":"addr:city:São Bento,addr:postcode:65235-000,addr:street:Rua Dois de Maio,addr:suburb:São Benedito,amenity:school","lat":-2.7023022,"lng":-44.8353781},{"id":"9120318449","name":"Em Sao Luis Gonzaga","tags":"amenity:school","lat":-2.7067108,"lng":-44.8404119},{"id":"9120321929","name":"Jardim De Infancia Negile Atta","tags":"amenity:school","lat":-2.7050779,"lng":-44.8378162},{"id":"9120346462","name":"Escola Municipal Elesbao De Deus Pereira","tags":"addr:city:São Bento,addr:postcode:65235-000,addr:street:Travessa Antônio Manoel Padilha,addr:suburb:Mutirão,amenity:school","lat":-2.6972331,"lng":-44.8407237},{"id":"9120354392","name":"Centro De Educacao Infantil Pequeno Aprendiz","tags":"addr:city:São Bento,addr:postcode:65235-000,addr:street:Rua Carlos Brenha,addr:suburb:Centro,amenity:school","lat":-2.698436,"lng":-44.8264007},{"id":"9120359936","name":"Em Newton Bello","tags":"addr:city:São Bento,addr:housenumber:733,addr:postcode:65235-000,addr:suburb:Aeroporto,amenity:school","lat":-2.7020959,"lng":-44.8410134},{"id":"9120361948","name":"Ji Sao Jose","tags":"addr:city:São Bento,addr:postcode:65235-000,addr:street:Rua Deputado José Araújo,addr:suburb:Centro,amenity:school","lat":-2.7006411,"lng":-44.8249979},{"id":"9120362390","name":"Ji Sao Judas Tadeu","tags":"amenity:school","lat":-2.6977234,"lng":-44.8301907}]