[{"id":"4313081054","name":"Tempero Nordestino","tags":"amenity:restaurant,cuisine:steak_house","lat":-2.6501002,"lng":-44.2817219},{"id":"9036331095","name":"Ueb Cleonice Lopes","tags":"amenity:school","lat":-2.6778526,"lng":-44.2767866},{"id":"9156293204","name":"Centro De Ensino Professora Maria Helena Rocha","tags":"amenity:school","lat":-2.6774448,"lng":-44.2767766},{"id":"9346445053","name":"Escola Creche Idade De Ouro","tags":"amenity:school","lat":-2.6714625,"lng":-44.281628},{"id":"9346451774","name":"Ueb Luzenir Mata Roma","tags":"amenity:school","lat":-2.6422284,"lng":-44.276277},{"id":"9346454394","name":"Ui Rio Grande","tags":"amenity:school","lat":-2.6593842,"lng":-44.292153},{"id":"9346460754","name":"Ueb Joaquim Pinto","tags":"amenity:school","lat":-2.6443344,"lng":-44.2715214},{"id":"9346818947","name":"Ueb Ens Fund Sao Jose Itapera","tags":"amenity:school","lat":-2.6757494,"lng":-44.2720847},{"id":"9347606303","name":"Ueb Professora Silvia Stella Fonseca Furtado","tags":"amenity:school","lat":-2.6556332,"lng":-44.269719}]