[{"id":"1042079296","name":"Aeroporto Coronel Alexandre Raposo","tags":"aeroway:aerodrome,alt_name:Aeroporto de Paço do Lumiar","lat":-2.5237301,"lng":-44.1234927},{"id":"9033238519","name":"Escola Comunitária Adílson Moraes","tags":"addr:city:Paço do Lumiar,addr:postcode:65130-000,addr:street:Avenida Presidente Jose Sarney,amenity:school","lat":-2.5232915,"lng":-44.1632165},{"id":"9347427065","name":"Centro De Ensino Integrado Prof Vieira E Filhos","tags":"amenity:school","lat":-2.5378551,"lng":-44.1641204},{"id":"9347449576","name":"Ueb Vila São José","tags":"amenity:school","lat":-2.5220937,"lng":-44.1632058},{"id":"9347451735","name":"Escola Comunitária Jardim De Infancia Tia Dalva","tags":"amenity:school","lat":-2.5293152,"lng":-44.1645469},{"id":"9347454979","name":"Ueb Tia Dalva","tags":"amenity:school","lat":-2.5291625,"lng":-44.1643484},{"id":"9347605103","name":"Escola Hamashia Batista Nacional","tags":"amenity:school","lat":-2.5311776,"lng":-44.1408925},{"id":"9347607516","name":"Ueb Paulo Freire","tags":"amenity:school","lat":-2.542957,"lng":-44.1242145},{"id":"9347618358","name":"Ueb Pao Da Vida","tags":"amenity:school","lat":-2.5402479,"lng":-44.1525413},{"id":"9347625057","name":"Girassol","tags":"amenity:school","lat":-2.540398,"lng":-44.151911},{"id":"9347628585","name":"Escola Comunitária Universidade Infantil O Semeador E Instituto De Ensino Márcio Lúcio","tags":"amenity:school","lat":-2.5375228,"lng":-44.1597457},{"id":"9347637635","name":"Ueb Vereador José Carlos Costa Pereira","tags":"amenity:school","lat":-2.5376514,"lng":-44.1503875},{"id":"9347648440","name":"Escola Comunitária Mickey Mouse","tags":"amenity:school","lat":-2.5297692,"lng":-44.1460598}]