[{"id":"5300721849","name":"Cemitério Jardim da Paz","tags":"amenity:grave_yard,denomination:all","lat":-2.5541334,"lng":-44.1906412},{"id":"5434540679","name":"Mercadão Meneses","tags":"addr:city:São José de Ribamar,addr:postcode:65130000,addr:street:Estrada São José de Ribamar,shop:supermarket","lat":-2.5526233,"lng":-44.1681033},{"id":"5435274865","name":"Mix Atacarejo Maiobão","tags":"addr:city:São José de Ribamar,addr:postcode:651300000,addr:street:Estrada São José de Ribamar,addr:suburb:Vila Tijupa Queimado,shop:supermarket","lat":-2.5527722,"lng":-44.1773297},{"id":"6382495355","name":"Agencia dos correios","tags":"addr:street:Avenida Duzentos e Três,amenity:bank,operator:Correios","lat":-2.5742485,"lng":-44.1994895},{"id":"6382499264","name":"Farmacia Globo","tags":"amenity:hospital,description:Farmácia Globo, localizada na Cidade Operaria, ao lado da Pizzaria Alternativa,healthcare:hospital,power:pole","lat":-2.574225,"lng":-44.1996636},{"id":"6409063356","name":"Pracinha da Rua 24 (203)","tags":"addr:city:São Luís,addr:postcode:65058202,addr:street:Rua Vinte e Quatro,addr:suburb:Cidade Operária,leisure:park,natural:spring","lat":-2.5728922,"lng":-44.2043357},{"id":"8685737668","name":"Burguer Wars","tags":"amenity:restaurant,cuisine:burger,diet:vegetarian:yes","lat":-2.584291,"lng":-44.2033384},{"id":"9010975137","name":"Farol da educação","tags":"amenity:library","lat":-2.5739539,"lng":-44.1953239},{"id":"9033068784","name":"Em Dr Julio Matos II","tags":"addr:city:São José de Ribamar,addr:housenumber:07,addr:postcode:65110-000,addr:street:Rua 14,amenity:school,phone:+55 98 3274 0189","lat":-2.5664539,"lng":-44.1733177},{"id":"9036210851","name":"Jardim de Infancia Maria de Jesus Correa","tags":"addr:city:São José de Ribamar,addr:housenumber:414,addr:postcode:65110-000,addr:street:Rua Silva Raimundo,addr:suburb:Mata,amenity:school","lat":-2.5812394,"lng":-44.1691737},{"id":"9038975188","name":"Em Sao Francisco","tags":"addr:city:São José de Ribamar,addr:housenumber:65,addr:postcode:65110-000,addr:street:Rua Santa Maria,addr:suburb:Maiobinha,amenity:school","lat":-2.5615866,"lng":-44.1988201},{"id":"9040877030","name":"Escola Evangelica Betel","tags":"addr:city:São José de Ribamar,addr:housenumber:11,addr:postcode:65110-000,addr:street:Alameda Chapadinha,addr:suburb:Jardim Tropical I,amenity:school","lat":-2.5755388,"lng":-44.183663},{"id":"9041266812","name":"C De Apoio 1ª Crianca E Pre Vovo Anita","tags":"addr:city:São Luís,addr:housenumber:12,addr:postcode:65058-043,addr:street:Rua 16A,addr:suburb:Vila Operária,amenity:school","lat":-2.5695153,"lng":-44.1940512},{"id":"9049496192","name":"Escola Adventista da Cidade Operária","tags":"amenity:school,opening_hours:Mo-Fr 07:00-18:00","lat":-2.5746492,"lng":-44.196952},{"id":"9051903352","name":"Reino Animal","tags":"shop:pet","lat":-2.5740826,"lng":-44.1932544},{"id":"9052010892","name":"Estacionamento da Feira da Cidade Operária","tags":"access:permissive,amenity:parking","lat":-2.571829,"lng":-44.1984165},{"id":"9054778669","name":"Farmácia Santa Efigênia","tags":"amenity:pharmacy,dispensing:yes,healthcare:pharmacy","lat":-2.5743425,"lng":-44.1903518},{"id":"9054778678","name":"Pinheiro Supermercado","tags":"shop:supermarket","lat":-2.5740936,"lng":-44.1927428},{"id":"9112110540","name":"Unidade Integrada Jose Ribamar De Oliveira","tags":"addr:city:São Luís,addr:housenumber:36,addr:postcode:65058-874,addr:street:Avenida Pavão Filho,addr:suburb:Vila Janaina,amenity:school","lat":-2.586388,"lng":-44.1920368},{"id":"9231029128","name":"Ueb Chapeuzinho Vermelho","tags":"amenity:school","lat":-2.5581688,"lng":-44.2074569},{"id":"9346789190","name":"Em Dunches De Abranches","tags":"amenity:school","lat":-2.5815261,"lng":-44.1702332},{"id":"9346821061","name":"E M Silva Rodrigues","tags":"amenity:school","lat":-2.5805615,"lng":-44.168833},{"id":"9347410032","name":"Instituto De Educacao Arca De Noe E Anexo","tags":"amenity:school","lat":-2.571963,"lng":-44.1807233},{"id":"9347416049","name":"Em Goncalves Dias","tags":"amenity:school","lat":-2.5711618,"lng":-44.174927},{"id":"9347416984","name":"Em Braz Da Purificacao Carvalho","tags":"amenity:school","lat":-2.555082,"lng":-44.1734599},{"id":"9347466547","name":"Escola Sementinha","tags":"amenity:school","lat":-2.5550873,"lng":-44.1696592},{"id":"9347466889","name":"Instituto De Desenvolvimento Educacional E Social Ebenezer","tags":"amenity:school","lat":-2.5728311,"lng":-44.1841324},{"id":"9347468747","name":"Em Acto Juvencio Nogueira","tags":"amenity:school","lat":-2.5584957,"lng":-44.1748814},{"id":"9347469160","name":"Em Dr Fiquene","tags":"amenity:school","lat":-2.5566495,"lng":-44.1674303},{"id":"9347477360","name":"Centro Educacional Alegria Do Saber","tags":"amenity:school","lat":-2.5539191,"lng":-44.1658424},{"id":"9347479139","name":"Projeto Rapha","tags":"amenity:school","lat":-2.5644711,"lng":-44.1758792},{"id":"9347484254","name":"Escolinha Sagrado Coracao De Jesus","tags":"amenity:school","lat":-2.5658001,"lng":-44.1733123},{"id":"9347536529","name":"Instituto Educacional E Assistencial Nossa Senhora Aparecida","tags":"amenity:school","lat":-2.5858508,"lng":-44.1898589},{"id":"9347539255","name":"Escola C Renascer - Jardim De Infancia Tia Joana","tags":"amenity:school","lat":-2.5826059,"lng":-44.2009015},{"id":"9347549810","name":"Escola Municipal Maiobinha","tags":"amenity:school","lat":-2.5630991,"lng":-44.1999091},{"id":"9347549811","name":"Inst Educ Maanaim","tags":"amenity:school","lat":-2.564948,"lng":-44.1960038},{"id":"9347584300","name":"Escola Comunitaria Jane Cinara","tags":"amenity:school","lat":-2.5700284,"lng":-44.1970338},{"id":"9347593024","name":"Educandario Agape","tags":"amenity:school","lat":-2.5854462,"lng":-44.1972484},{"id":"9347596843","name":"Inst Educ E Social Shalon","tags":"amenity:school","lat":-2.5786939,"lng":-44.1844998},{"id":"9347599284","name":"Esc Tia Anna","tags":"amenity:school","lat":-2.5812689,"lng":-44.1999547},{"id":"9347601137","name":"Escola Comunitaria Celys Freire E Jardim De Infancia Aprender","tags":"amenity:school","lat":-2.5869628,"lng":-44.1972859},{"id":"9347601223","name":"Centro Educacional Genir Mantenedora Do Jardim De Infancia E Creche Quero Crescer","tags":"amenity:school","lat":-2.5824854,"lng":-44.1862272},{"id":"9347602780","name":"Escola Alegria Do Saber","tags":"amenity:school","lat":-2.5862608,"lng":-44.1809325},{"id":"9347604471","name":"Centro De Aprendizagem Conceicao De Maria","tags":"amenity:school","lat":-2.5684635,"lng":-44.1981952},{"id":"9347604546","name":"Col Rosa De Saron","tags":"amenity:school","lat":-2.582957,"lng":-44.1951884},{"id":"9347604552","name":"Centro Educacional E Assistencial Alianca","tags":"amenity:school","lat":-2.5704249,"lng":-44.1996114},{"id":"9347605074","name":"Em Dario Da Silva","tags":"amenity:school","lat":-2.563,"lng":-44.1840439},{"id":"9347606301","name":"Creche Estacao Kids","tags":"amenity:school","lat":-2.5680429,"lng":-44.2036454},{"id":"9347606305","name":"Ueb Lima Verde","tags":"amenity:school","lat":-2.5496693,"lng":-44.186718},{"id":"9347608280","name":"Ueb Monteiro Lobato","tags":"amenity:school","lat":-2.5922333,"lng":-44.1929649},{"id":"9347609532","name":"Em Nice Lobao","tags":"amenity:school","lat":-2.5567621,"lng":-44.1868119},{"id":"9347611185","name":"Instituto Educacional Jardim De Deus","tags":"amenity:school","lat":-2.5679652,"lng":-44.2032753},{"id":"9347612624","name":"Esc Crec Com Luis Inacio Lula Da Silva E Jard Inf","tags":"amenity:school","lat":-2.5906042,"lng":-44.1804095},{"id":"9347615307","name":"Instituto Filadelfia","tags":"amenity:school","lat":-2.5717995,"lng":-44.1880082},{"id":"9347616325","tags":"amenity:school","lat":-2.5619202,"lng":-44.1837569},{"id":"9347616990","name":"Em Adelino Silva","tags":"amenity:school","lat":-2.5610413,"lng":-44.181992},{"id":"9347616991","name":"Em Crianca Esperanca","tags":"amenity:school","lat":-2.563702,"lng":-44.1907521},{"id":"9347618000","name":"Em Recanto Da Paz","tags":"amenity:school","lat":-2.559664,"lng":-44.1928951},{"id":"9347622024","name":"Em Amigos Da Paz","tags":"amenity:school","lat":-2.5541575,"lng":-44.1858838},{"id":"9347628103","name":"Ueb Ens Fund Roseno De Jesus Mendes","tags":"amenity:school","lat":-2.5922815,"lng":-44.1891374},{"id":"9347629090","name":"Em Jose Fernandes Machado","tags":"amenity:school","lat":-2.5707733,"lng":-44.18579},{"id":"9347629508","name":"Centro Educa Mais Salustiano Trindade","tags":"amenity:school","lat":-2.5534287,"lng":-44.1886573},{"id":"9347629509","name":"Instituto Educacional Caminho Feliz","tags":"amenity:school","lat":-2.5495969,"lng":-44.1843094},{"id":"9347632704","name":"Instituto Kerigma Creche Escola Crescer Mais","tags":"amenity:school","lat":-2.5588387,"lng":-44.1829334},{"id":"9347634042","name":"Em Profª Augusta Maria Costa Melo","tags":"amenity:school","lat":-2.5595488,"lng":-44.1824801},{"id":"9347635040","name":"Colegio Inspire Educar","tags":"amenity:school","lat":-2.5503821,"lng":-44.193268},{"id":"9347637584","name":"Escola Municipal Vila Operaria","tags":"amenity:school","lat":-2.5593987,"lng":-44.186769},{"id":"9347637590","name":"Escola Municipal Jardim Tropical Ii","tags":"amenity:school","lat":-2.5780508,"lng":-44.1712873},{"id":"9347637911","name":"Em Santa Terezinha","tags":"amenity:school","lat":-2.5595622,"lng":-44.195513},{"id":"9347641993","name":"Centro Educacional Estrela Guia","tags":"amenity:school","lat":-2.5506634,"lng":-44.1816084},{"id":"9347642942","name":"Escola Municipal Germano Batista","tags":"amenity:school","lat":-2.549755,"lng":-44.1810666},{"id":"9347642943","name":"Ueb Ver Raimundo Romualdo","tags":"amenity:school","lat":-2.5509716,"lng":-44.1749136},{"id":"9347643978","name":"Instituto Educacional Primeiros Passos","tags":"amenity:school","lat":-2.5559153,"lng":-44.2069097},{"id":"9347651596","name":"Instituto Educacional Princesa Do Saber","tags":"amenity:school","lat":-2.5530696,"lng":-44.197302},{"id":"9347651660","name":"Em Fruto Da Alianca","tags":"amenity:school","lat":-2.5625766,"lng":-44.1664352},{"id":"9347651894","name":"Em Olavo Bilac","tags":"amenity:school","lat":-2.5604277,"lng":-44.1915755},{"id":"9347711442","name":"Creche Paraiso Da Crianca","tags":"amenity:school","lat":-2.5683376,"lng":-44.2051394},{"id":"9347717467","name":"Centro Educacional Batista Ltda","tags":"amenity:school","lat":-2.548852,"lng":-44.2079048},{"id":"9347721803","name":"Instituto Educacional Comunitario Sonho Das Criancas","tags":"amenity:school","lat":-2.5671157,"lng":-44.206282}]