[{"id":"1581723708","name":"Club Ventos","tags":"leisure:sports_centre","lat":-2.7938038,"lng":-40.5196519},{"id":"4363626497","tags":"amenity:restaurant,cuisine:brazilian,name:en:Na Casa Dela","lat":-2.7959253,"lng":-40.5181369},{"id":"4363690096","tags":"amenity:restaurant,cuisine:brazilian,name:en:Casa de Pedra","lat":-2.7959051,"lng":-40.5180403},{"id":"4363690097","tags":"amenity:restaurant,name:en:Sugestao","lat":-2.7958941,"lng":-40.5179355},{"id":"4363720390","tags":"amenity:pharmacy,name:en:Jeri Pharma","lat":-2.795292,"lng":-40.5176469},{"id":"4365553891","tags":"amenity:restaurant,cuisine:italian_pizza,name:en:Pizza Forno a Lenha","lat":-2.7958527,"lng":-40.5182152},{"id":"4365553892","tags":"amenity:restaurant,cuisine:italian_pizza,name:en:Restaurante Senzala","lat":-2.796037,"lng":-40.518441},{"id":"4365564590","tags":"amenity:restaurant,cuisine:italian_pizza;italian,name:en:Taverna Italiana","lat":-2.795887,"lng":-40.5183503},{"id":"4365567090","tags":"amenity:restaurant,cuisine:italian_pizza,name:en:Pizza na Peperino","lat":-2.7946891,"lng":-40.5178911},{"id":"4365572889","tags":"amenity:restaurant,cuisine:brazilian,name:en:Bar Restaurante Alexandre","lat":-2.7948342,"lng":-40.5193778},{"id":"4365573089","tags":"amenity:restaurant,cuisine:japanese,name:en:Kaze Sushi Bar,opening_hours:Mo-Su 18:00-23:30","lat":-2.7942425,"lng":-40.5187038},{"id":"4365573090","tags":"amenity:bar,cuisine:brazilian,name:en:Cachaçaria","lat":-2.7948316,"lng":-40.517864},{"id":"4365573589","tags":"amenity:restaurant,cuisine:brazilian,name:en:Tamarindo Restaurante","lat":-2.7948677,"lng":-40.5179724},{"id":"4365573689","tags":"amenity:restaurant,name:en:The Lab","lat":-2.794945,"lng":-40.5178238},{"id":"4367585906","tags":"amenity:restaurant,cuisine:grill,name:en:Grilled skewers vendor","lat":-2.7960714,"lng":-40.5187425},{"id":"4367647190","tags":"amenity:bar,name:en:Bar next to Bob Wind School","lat":-2.7957696,"lng":-40.5187559},{"id":"4402969091","tags":"addr:street:Rua do Forró,amenity:restaurant,cuisine:grill;pizza;seafood,name:en:Jeri Beach Cozinha Natural","lat":-2.7944338,"lng":-40.5195643},{"id":"4993656621","name":"Dunas do Pôr Sol - Jericoacoara","tags":"name:pt:Dunas do Pôr Sol - Jericoacoara,tourism:attraction","lat":-2.8013441,"lng":-40.5207108},{"id":"5039642821","name":"zchopp Jericoacoara","tags":"amenity:bar,internet_access:wlan,name:pt:zchopp Jericoacoara","lat":-2.7958916,"lng":-40.5176648},{"id":"5676692121","name":"Pepe","tags":"amenity:restaurant","lat":-2.79471,"lng":-40.5179206},{"id":"5959792488","name":"Naturalmente Creperia","tags":"amenity:restaurant","lat":-2.7959653,"lng":-40.5188287},{"id":"5959800486","name":"Bistro Caicara","tags":"amenity:restaurant","lat":-2.7959194,"lng":-40.5184533},{"id":"5960123786","name":"Leonardo Da Vinci","tags":"amenity:restaurant","lat":-2.795817,"lng":-40.5179291},{"id":"6267837985","name":"sumindo","tags":"amenity:restaurant,name:pt:Dumundo","lat":-2.7946739,"lng":-40.5194853},{"id":"10658595299","name":"Armazém do Burro","tags":"addr:housenumber:s/n,addr:street:Rua do Forró,amenity:restaurant,check_date:currency:XBT:2023-02-16,cuisine:brazilian,currency:XBT:yes,payment:lightning:yes,payment:lightning_contactless:yes,payment:onchain:yes,phone:+55 (88) 99783-5521,website:https://www.instagram.com/armazemdoburro/","lat":-2.7943568,"lng":-40.5182641}]