[{"id":"1832734512","name":"Drograria Santa Rita","tags":"amenity:pharmacy","lat":-5.1749746,"lng":-37.352535},{"id":"1913184724","name":"Arte & Saber","tags":"shop:books","lat":-5.1750886,"lng":-37.3529378},{"id":"1913536391","name":"Churrascaria Kaliente","tags":"amenity:restaurant","lat":-5.1749031,"lng":-37.3526665},{"id":"1943735210","tags":"amenity:cafe","lat":-5.1758357,"lng":-37.3518665},{"id":"2103009547","tags":"amenity:atm,operator:Banco24Horas","lat":-5.1845737,"lng":-37.3507176},{"id":"3631543792","name":"24 Horas","tags":"amenity:atm,drive_through:no,operator:Banco24Horas","lat":-5.1747791,"lng":-37.3532914},{"id":"5769334663","tags":"amenity:parking","lat":-5.1739741,"lng":-37.3531018},{"id":"5769334726","tags":"amenity:parking","lat":-5.1737873,"lng":-37.3528085},{"id":"5779325473","name":"Churrascaria do Condiça","tags":"amenity:restaurant","lat":-5.1747089,"lng":-37.3527868},{"id":"5779325477","tags":"shop:convenience","lat":-5.1744352,"lng":-37.3528633},{"id":"5779708636","name":"Hiper Galeteria","tags":"amenity:restaurant,cuisine:chicken","lat":-5.1752593,"lng":-37.3524237},{"id":"5780429036","name":"Galeteria Dona Socorro","tags":"amenity:restaurant,cuisine:chicken","lat":-5.1748269,"lng":-37.3534545},{"id":"5780435783","name":"Drogaria Abolição","tags":"amenity:pharmacy","lat":-5.1746103,"lng":-37.3534136},{"id":"5780435791","tags":"shop:convenience","lat":-5.174542,"lng":-37.3534582},{"id":"5873895352","name":"Candidu's","tags":"amenity:restaurant","lat":-5.1752418,"lng":-37.3474415},{"id":"6394969414","name":"Mercearia dona Socorro","tags":"addr:city:Mossoró,addr:housenumber:110,addr:postcode:59618630,addr:street:Rua Antônio Soares do Couto,addr:suburb:Paredões,currency:BRL:yes,description:Lanches e conveniência,opening_hours:Mo-Sa 08:00-18:00,payment:notes:yes,shop:convenience","lat":-5.181355,"lng":-37.3336275},{"id":"6396219561","name":"Camarim da madame - Salão de beleza","tags":"addr:city:Mossoró,addr:housenumber:940,addr:postcode:59618130,addr:street:Rua Tibério Bulamarqui,addr:suburb:Paredões,beauty:hair,currency:BRL:yes,operator:Lilian Tavares,payment:credit_cards:yes,payment:mastercard:yes,payment:notes:yes,payment:visa_electron:yes,shop:beauty","lat":-5.1818722,"lng":-37.3339368}]