[{"id":"1832317050","name":"5ª Avenida","tags":"amenity:restaurant","lat":-5.1880168,"lng":-37.3545393},{"id":"1934480415","name":"Supermercado Queiroz","tags":"addr:street:Rua Francisco Sólon,shop:supermarket","lat":-5.1937204,"lng":-37.3567862},{"id":"1934482782","tags":"shop:supermarket","lat":-5.1907561,"lng":-37.3556005},{"id":"1934638695","name":"Farmácia Renato","tags":"amenity:pharmacy,healthcare:pharmacy","lat":-5.1911671,"lng":-37.3559938},{"id":"1936232062","tags":"amenity:restaurant,cuisine:burger","lat":-5.1907455,"lng":-37.3550769},{"id":"2680494068","name":"Cantina Azul","tags":"shop:supermarket","lat":-5.1877916,"lng":-37.3690694},{"id":"4266882789","name":"Churrascaria Rei da Costela","tags":"addr:street:Rua Antônio Vieira de Sá,amenity:restaurant,opening_hours:Tu-Su 06:00-24:00","lat":-5.1897177,"lng":-37.3659967},{"id":"4602164667","name":"Farmácia do Povo Trabalhador","tags":"amenity:pharmacy","lat":-5.1983433,"lng":-37.3545359},{"id":"4603695334","name":"Mercadinho Dantas","tags":"addr:city:Mossoró,addr:housenumber:861,addr:postcode:59604-010,addr:street:Rua Coelho Neto,addr:suburb:Lagoa do Mato,opening_hours:07:00-11:00,13:00-18:00,phone:+558433165594,shop:supermarket","lat":-5.1977494,"lng":-37.3558277},{"id":"5700723800","tags":"amenity:parking","lat":-5.1909813,"lng":-37.360226},{"id":"5700723801","tags":"amenity:parking","lat":-5.1913256,"lng":-37.3601842},{"id":"5700723802","tags":"amenity:parking","lat":-5.1904885,"lng":-37.3602797},{"id":"5702914151","tags":"amenity:parking","lat":-5.1859123,"lng":-37.3629598},{"id":"5702914158","tags":"amenity:parking","lat":-5.1859953,"lng":-37.3628227},{"id":"7063827408","name":"Casa & Camarão","tags":"amenity:restaurant,cuisine:seafood","lat":-5.1860869,"lng":-37.3535343},{"id":"7367516318","name":"Farmácia Daniele","tags":"amenity:pharmacy,dispensing:yes,healthcare:pharmacy","lat":-5.1900523,"lng":-37.365734},{"id":"8316574417","name":"Do Mato -Agro","tags":"addr:housenumber:32,addr:street:Rua Felipe Camarão,opening_hours:Mo-Fr 08:00-12:00, 14:00-18:00; Sa 08:00-14:00,phone:+55 84 2142-3948,shop:pet,website:http://www.Instagram.com/domato_agro","lat":-5.1921565,"lng":-37.3654342},{"id":"8590219917","name":"Supermercado Rebouças","tags":"addr:city:Mossoró,addr:street:Rua Marinho Dantas,addr:suburb:Belo Horizonte,shop:supermarket","lat":-5.2109802,"lng":-37.36246}]