[{"id":"5074691621","name":"Irmã Sulamita","tags":"addr:city:Eusébio,addr:street:Avenida Brasilía,addr:suburb:Centro,amenity:cafe","lat":-3.89729,"lng":-38.4555883},{"id":"6504211975","tags":"amenity:pharmacy,dispensing:yes,healthcare:pharmacy","lat":-3.8715592,"lng":-38.4660838},{"id":"6842019372","tags":"leisure:park","lat":-3.8697695,"lng":-38.4693661},{"id":"6967597168","name":"Escola de tipo integral Guiomar da Silva Almeida","tags":"addr:city:Fortaleza,addr:housenumber:449,addr:postcode:60873-810,addr:street:Rua Perolina De Morais,alt_name:ETI Guiomar da Silva Almeida,amenity:school,building:school,operator:Secretaria Municipal da Educação,phone:+55 85 34335281","lat":-3.8673309,"lng":-38.4940111},{"id":"7323231652","name":"JL Clube de Tiro","tags":"leisure:sports_centre,sport:shooting","lat":-3.8892639,"lng":-38.4603814}]