[{"id":"2353639961","tags":"amenity:restaurant","lat":-4.1530881,"lng":-38.1114927},{"id":"2353658271","tags":"amenity:bar","lat":-4.1455147,"lng":-38.1186287},{"id":"2353658275","tags":"amenity:bar","lat":-4.1458143,"lng":-38.1183672},{"id":"2353658283","tags":"amenity:bar","lat":-4.1445409,"lng":-38.1194884},{"id":"2353664649","tags":"amenity:cafe","lat":-4.1520689,"lng":-38.1212854},{"id":"4420063680","tags":"amenity:atm","lat":-4.1542975,"lng":-38.1117345},{"id":"4420063681","name":"Mercadinho","tags":"shop:supermarket","lat":-4.1545029,"lng":-38.1118491},{"id":"7124450885","name":"Labirinto de Falésias","tags":"tourism:attraction","lat":-4.1560159,"lng":-38.1075144},{"id":"7921734485","name":"Mercadinho Litoral","tags":"addr:housenumber:1,addr:postcode:6284000,addr:street:Avenida B,shop:supermarket","lat":-4.1520624,"lng":-38.12101},{"id":"7921736885","name":"Farmácia Morro Branco","tags":"addr:housenumber:476,addr:street:Rua Joāo Gama,amenity:pharmacy,name:pt:Farmácia Gama Morro Branco","lat":-4.1537234,"lng":-38.1138212},{"id":"8736317817","tags":"shop:supermarket","lat":-4.1540487,"lng":-38.1136811}]