[{"id":"571724628","name":"Extra","tags":"shop:supermarket","lat":-3.7543391,"lng":-38.4895441},{"id":"571728169","name":"Pague Menos","tags":"amenity:pharmacy,brand:Pague Menos,brand:wikidata:Q7124466,brand:wikipedia:pt:Pague Menos,healthcare:pharmacy","lat":-3.7498967,"lng":-38.4906255},{"id":"571728171","name":"Pague Menos","tags":"amenity:pharmacy,brand:Pague Menos,brand:wikidata:Q7124466,healthcare:pharmacy","lat":-3.743632,"lng":-38.4951641},{"id":"571728347","name":"Colégio Christus","tags":"addr:city:Fortaleza,addr:housenumber:630,addr:postcode:60135-460,addr:street:Rua Israel Bezerra,addr:suburb:Dionísio Torres,amenity:school,phone:+55 85 3277 1515","lat":-3.7501429,"lng":-38.495632},{"id":"631057857","name":"Gastroclínica","tags":"addr:city:Fortaleza,addr:country:BR,addr:housenumber:814,addr:street:Rua Maria Tomásia,amenity:hospital,healthcare:hospital,wheelchair:yes","lat":-3.7365671,"lng":-38.494391},{"id":"1620495686","name":"Farmácia Tele Jucá","tags":"amenity:pharmacy,healthcare:pharmacy","lat":-3.7373333,"lng":-38.4828007},{"id":"1620502941","name":"Shopping Pizza","tags":"amenity:restaurant,cuisine:pizza,wheelchair:yes","lat":-3.7580247,"lng":-38.4884565},{"id":"2456823686","tags":"shop:supermarket","lat":-3.7462344,"lng":-38.4890396},{"id":"2764443826","name":"Centerbox","tags":"addr:city:Fortaleza,addr:housenumber:155,addr:street:Avenida Engenheiro Santana Júnior,phone:+55 85 3115.2220,shop:supermarket,website:http://centerbox.com.br/,wheelchair:yes","lat":-3.7419545,"lng":-38.4875653},{"id":"3008916804","name":"Santander","tags":"amenity:bank,brand:Santander,brand:wikidata:Q5835668","lat":-3.7580198,"lng":-38.4881507},{"id":"3008919682","name":"Dose Certa","tags":"amenity:pharmacy,healthcare:pharmacy","lat":-3.7735294,"lng":-38.4823413},{"id":"3175252740","name":"Extrafarma","tags":"amenity:pharmacy,brand:Extrafarma,brand:wikidata:Q20055480,healthcare:pharmacy","lat":-3.7406918,"lng":-38.4941766},{"id":"3428598093","name":"Doceville","tags":"addr:city:Fortaleza,addr:housenumber:64,addr:postcode:60170080,addr:street:Rua Joaquim Siqueira,addr:suburb:Aldeota,amenity:cafe,cuisine:Patisserie,internet_access:yes,opening_hours:10:00-19:00,phone:+55 85 3046777,smoking:no","lat":-3.7365341,"lng":-38.4956785},{"id":"4585486000","name":"Cabumba","tags":"amenity:restaurant,name:pt:Cabumba","lat":-3.7399832,"lng":-38.4529921},{"id":"4908479181","name":"Farmácias Pague Menos","tags":"addr:city:Fortaleza,addr:housenumber:2088,addr:postcode:60192-240,addr:street:Rua Bento Albuquerque,addr:suburb:Papicu,amenity:pharmacy,dispensing:yes,drive_through:no,healthcare:pharmacy,payment:cash:yes,payment:credit_cards:yes,payment:debit_cards:yes,phone:+55 (85) 3262-6720","lat":-3.747821,"lng":-38.4710058},{"id":"4908479190","name":"Don Pisani - Pizza & Esfiha","tags":"addr:city:Fortaleza,addr:housenumber:39,addr:postcode:60190-611,addr:street:Avenida Central Leste,addr:suburb:Cidade 2000,amenity:restaurant,cuisine:pizza;esfiha","lat":-3.7495092,"lng":-38.4711784},{"id":"4916813125","tags":"amenity:atm","lat":-3.7430193,"lng":-38.4841709},{"id":"4995944619","name":"Vista para o Rio Cocó","tags":"opening_hours:05:30-17:45,tourism:attraction","lat":-3.7524775,"lng":-38.4844655},{"id":"4999622407","name":"Vista para as lagoas do Parque do Cocó","tags":"opening_hours:05:30-17:45,tourism:attraction","lat":-3.7496042,"lng":-38.4845623},{"id":"5026935414","name":"GBarbosa","tags":"brand:GBarbosa,brand:wikidata:Q10287817,brand:wikipedia:pt:GBarbosa,shop:supermarket","lat":-3.7748287,"lng":-38.4812195},{"id":"5071176421","name":"La Frontera Tex-Mex Grill","tags":"addr:housenumber:450,addr:street:Rua Eliseu Uchôa Beco,amenity:restaurant,cuisine:tex-mex;mexican,phone:+55 85 3051-6735","lat":-3.760992,"lng":-38.4864394},{"id":"5149965291","name":"Austin Pub","tags":"amenity:bar","lat":-3.7414853,"lng":-38.4944073},{"id":"5633797226","name":"Barraca Vira Verão","tags":"amenity:restaurant,cuisine:brazilian,internet_access:wlan","lat":-3.7358598,"lng":-38.4548781},{"id":"5695183374","name":"Extrafarma","tags":"addr:city:Fortaleza,addr:housenumber:21,addr:postcode:60810-090,addr:street:Rua Olavo Lima Silva,addr:suburb:Guararapes,amenity:pharmacy,brand:Extrafarma,brand:wikidata:Q20055480,healthcare:pharmacy","lat":-3.7579411,"lng":-38.4890926},{"id":"5705810624","name":"La Ticiane","tags":"addr:city:Fortaleza,addr:housenumber:333,addr:postcode:60190-200,addr:street:Alameda das Boninas,addr:suburb:Cidade 2000,amenity:bar,outdoor_seating:yes,smoking:outside","lat":-3.7497434,"lng":-38.4718177},{"id":"5713710086","name":"Antônio Sales","tags":"addr:city:Fortaleza,addr:suburb:Dionísio Torres,internet_access:no,light_rail:yes,public_transport:station,railway:station,station:light_rail,website:https://www.metrofor.ce.gov.br/vlt-fortaleza/,wheelchair:yes","lat":-3.7489203,"lng":-38.4937262},{"id":"5713710087","name":"Papicu","tags":"addr:city:Fortaleza,internet_access:no,light_rail:yes,public_transport:station,railway:station,station:light_rail,wheelchair:yes","lat":-3.738716,"lng":-38.4865784},{"id":"6238824729","name":"Bradesco","tags":"amenity:bank,brand:Bradesco,brand:wikidata:Q806181,brand:wikipedia:en:Banco Bradesco","lat":-3.7689367,"lng":-38.4791076},{"id":"6381196214","name":"Jardim","tags":"addr:city:Fortaleza,addr:housenumber:255,addr:postcode:60177410,addr:street:Rua Professora Francisca Almeida de Sousa,addr:suburb:De Lourdes,garden:type:residential,leisure:park","lat":-3.7526156,"lng":-38.4550646},{"id":"6429384763","name":"Caixa Econômica Federal","tags":"addr:city:Fortaleza,addr:housenumber:1294,addr:postcode:60175-070,addr:street:Rua Frei Mansueto,addr:suburb:Meireles,amenity:bank,atm:yes,brand:Caixa Econômica Federal,brand:wikidata:Q835283,brand:wikipedia:pt:Caixa Econômica Federal,drive_through:no,opening_hours:Mo-Fr 10:00-16:00,phone:+55 85 3462 8800,wheelchair:yes","lat":-3.7357614,"lng":-38.4888732},{"id":"6429398660","name":"Divina Gula","tags":"addr:city:Fortaleza,addr:housenumber:1455,addr:postcode:60150-190,addr:street:Rua Marcos Macêdo,addr:suburb:Aldeota,amenity:restaurant,cuisine:regional,opening_hours:Mo-Sa 11:00-14:30,outdoor_seating:no,phone:+55 85 3267 5938","lat":-3.7367585,"lng":-38.4897785},{"id":"6741793955","name":"Farmácia Santa Cecília","tags":"amenity:pharmacy,dispensing:yes,healthcare:pharmacy","lat":-3.7692892,"lng":-38.4796251},{"id":"6791664817","name":"Selfit","tags":"addr:city:Fortaleza,addr:housenumber:1200,addr:postcode:60160230,addr:street:Avenida Dom Luís,addr:suburb:Meireles,brand:Selfit,brand:wikidata:Q100274066,leisure:fitness_centre,sport:fitness","lat":-3.7362805,"lng":-38.4907015},{"id":"6967574998","name":"Escola de tempo parcial Washington Soares","tags":"addr:city:Fortaleza,addr:housenumber:400,addr:postcode:60812-290,addr:street:Rua do Corrente,alt_name:ETP Washington Soares,amenity:school,building:school,operator:Secretaria Municipal da Educação,phone:+55 85 34592175","lat":-3.7780124,"lng":-38.4772262},{"id":"6967575051","name":"Escola de ensino fundamental e médio Dom Antônio de Almeida Lustosa","tags":"addr:city:Fortaleza,addr:housenumber:1,addr:postcode:60811-740,addr:street:Rua Adolfo Moreira De Carvalho,alt_name:EEFM Dom Antônio de Almeida Lustosa,amenity:school,building:school,operator:Secretaria da Educação do Estado do Ceará,phone:+55 85 31012171","lat":-3.7726627,"lng":-38.4768352},{"id":"6967597135","name":"Escola Professora Maria Gondim dos Santos","tags":"addr:city:Fortaleza,addr:housenumber:620,addr:postcode:60175-790,addr:street:Travessa Guarani,addr:suburb:Papicu,amenity:school,official_name:Escola de Tempo Parcial Professora Maria Gondim dos Santos,operator:Secretaria Municipal da Educação de Fortaleza,operator:type:public,phone:+55 85 3452 7352,ref:INEP:23073608,short_name:ETP Professora Maria Gondim dos Santos,source:date:2018","lat":-3.7374283,"lng":-38.4781494},{"id":"6967597215","name":"Escola de tempo parcial José Carlos de Pinho","tags":"addr:city:Fortaleza,addr:housenumber:595,addr:postcode:60811-110,addr:street:Rua Luíza Miranda Coelho,alt_name:ETP José Carlos de Pinho,amenity:school,building:school,operator:Secretaria Municipal da Educação,phone:+55 85 34521881","lat":-3.77338,"lng":-38.4915738},{"id":"6967597267","name":"EEMTI Johnson","tags":"addr:city:Fortaleza,addr:housenumber:s/n,addr:postcode:60810-220,addr:street:Rua Gontran Giffoni,addr:suburb:Engenheiro Luciano Cavalcante,alt_name:EEFM Jonhson,amenity:school,building:school,operator:Secretaria da Educação do Estado do Ceará,operator:type:public,phone:+55 85 31016153,wheelchair:yes","lat":-3.7677572,"lng":-38.4935644},{"id":"7902929043","name":"Praça Martins Dourado","tags":"leisure:park","lat":-3.7453142,"lng":-38.4765326},{"id":"8910411763","name":"Farmácia Aldesul","tags":"addr:city:Fortaleza,addr:housenumber:2000,addr:postcode:60140-160,addr:street:Avenida Padre Antônio Tomás,addr:suburb:Aldeota,amenity:pharmacy,healthcare:pharmacy,opening_hours:Mo-Su 07:00-22:00,phone:+55 85 3224 0101,website:http://aldesul.com.br/","lat":-3.7419657,"lng":-38.4946225},{"id":"9075098294","name":"Fuxiko beer","tags":"addr:city:Fortaleza,addr:housenumber:1013,addr:postcode:60192-270,addr:street:Rua Almeida Prado,addr:suburb:Cocó,amenity:restaurant","lat":-3.7454898,"lng":-38.4756519},{"id":"9081322418","name":"Supermercado Pinheiro","tags":"addr:housenumber:3266,addr:street:Avenida Antônio Sales,opening_hours:Mo-Sa 07:00-22:00; Su 07:00-21:00,phone:+55 85 4008 2438,shop:supermarket,website:http://supermercadopinheiro.com.br/lojas/item/bom-vizinho-antonio-sales","lat":-3.748025,"lng":-38.4949541},{"id":"9223992564","name":"Hospital Jório da Escóssia","tags":"addr:city:Fortaleza,addr:housenumber:3443,addr:postcode:60192-165,addr:street:Avenida Antônio Sales,addr:suburb:Cocó,amenity:hospital,healthcare:hospital,healthcare:speciality:general;dentist","lat":-3.7482524,"lng":-38.4918518},{"id":"9238349917","name":"Guararapes Grill","tags":"addr:housenumber:151,addr:postcode:60810-080,addr:street:Rua Comandante José Cals de Oliveira,amenity:restaurant,cuisine:local,internet_access:wlan,opening_hours:Mo-Sa 10:30-22:00","lat":-3.7584145,"lng":-38.4893639},{"id":"9952443221","name":"Take a Juice!","tags":"addr:city:Fortaleza,addr:housenumber:160,addr:postcode:60160-240,addr:street:Avenida Júlio Abreu,addr:suburb:Varjota,amenity:restaurant,cuisine:sandwich,delivery:yes,opening_hours:Mo-Sa 11:00-23:00; Su 17:00-23:00,phone:+55 85 98181 6741,website:http://takeajuice.com.br","lat":-3.7361916,"lng":-38.4875919},{"id":"9952443223","name":"Mango","tags":"addr:city:Fortaleza,addr:housenumber:160,addr:postcode:60160-240,addr:street:Avenida Júlio Abreu,addr:suburb:Varjota,amenity:restaurant,opening_hours:Mo-Su 16:00-23:00,phone:+55 85 2180 3258","lat":-3.7361902,"lng":-38.4875305},{"id":"9952443224","name":"Pizza da Mirian","tags":"addr:city:Fortaleza,addr:housenumber:160,addr:postcode:60160-240,addr:street:Avenida Júlio Abreu,addr:suburb:Varjota,amenity:restaurant,cuisine:pizza,delivery:yes,opening_hours:Mo-Su 16:45-23:45,phone:+55 85 3121 1515","lat":-3.7361875,"lng":-38.487424},{"id":"9952443225","name":"Uau Pizza Delivery","tags":"addr:city:Fortaleza,addr:housenumber:160,addr:postcode:60160-240,addr:street:Avenida Júlio Abreu,addr:suburb:Varjota,amenity:restaurant,cuisine:pizza,delivery:yes,phone:+55 85 3121 1515","lat":-3.7361835,"lng":-38.4872723},{"id":"9952443226","name":"Reboot Comic Store","tags":"addr:city:Fortaleza,addr:housenumber:160,addr:postcode:60160-240,addr:street:Avenida Júlio Abreu,addr:suburb:Varjota,books:comic,opening_hours:Mo-Fr 09:00-19:00; Sa 09:00-14:00,phone:+55 85 31218793,shop:books,website:https://www.rebootcomics.com.br","lat":-3.7361818,"lng":-38.4872266},{"id":"9952443227","name":"Pasto & Pizzas","tags":"addr:city:Fortaleza,addr:housenumber:160,addr:postcode:60160-240,addr:street:Avenida Júlio Abreu,addr:suburb:Varjota,amenity:restaurant,cuisine:pizza,delivery:yes,opening_hours:Mo-Fr 18:00-24:00,phone:+55 85 3267 1364,website:https://pastoepizzas.com.br/nossas-casas/#dom-luis","lat":-3.7361343,"lng":-38.4871435},{"id":"9223986048","name":"Super Frangolândia","tags":"addr:city:Fortaleza,addr:housenumber:5916,addr:postcode:60192-035,addr:street:Rua Vilebaldo Aguiar,addr:suburb:Cocó,shop:supermarket","lat":-3.7428619,"lng":-38.4794069},{"id":"10019514016","name":"Drogasil","tags":"amenity:pharmacy,brand:Drogasil,brand:wikidata:Q5308185,brand:wikipedia:pt:Drogasil,dispensing:yes,healthcare:pharmacy,wheelchair:yes","lat":-3.7427156,"lng":-38.4795641},{"id":"10021286631","name":"Colégio Espaço Aberto Sede Papicu","tags":"addr:city:Fortaleza,addr:housenumber:1671,addr:street:Rua Bento Albuquerque,addr:suburb:Papicu,amenity:school","lat":-3.7465362,"lng":-38.4738342},{"id":"10148408335","tags":"addr:city:Fortaleza,addr:housenumber:1061,addr:postcode:60170-041,addr:street:Rua Leonardo Mota,addr:suburb:Aldeota,amenity:parking,parking:surface","lat":-3.7355336,"lng":-38.4956472},{"id":"10173993365","name":"ON CONFEITARIA CRIATIVA","tags":"addr:city:Fortaleza,addr:housenumber:1090,addr:postcode:60170-041,addr:street:Rua Leonardo Mota,addr:suburb:Meireles,air_conditioning:yes,amenity:cafe,cuisine:coffee_shop,internet_access:wlan,internet_access:fee:customers,opening_hours:Mo-Su 09:00-21:00,outdoor_seating:yes,phone:+5585982101090","lat":-3.7357147,"lng":-38.4960923},{"id":"10174017524","name":"Ale Felix Patisserie","tags":"addr:city:Fortaleza,addr:housenumber:1022,addr:postcode:60170-151,addr:street:Rua Vicente Leite,addr:suburb:Meireles,air_conditioning:yes,amenity:cafe,cuisine:coffee_shop;sandwich,delivery:yes,internet_access:yes,internet_access:fee:customers,opening_hours:Mo-Sa 08:00-18:00,phone:+5585991432561,website:https://www.instagram.com/alefelixpatisserie,wheelchair:yes","lat":-3.7356637,"lng":-38.4950477},{"id":"10174102276","name":"Açai +VC","tags":"addr:city:Fortaleza,addr:housenumber:1061,addr:postcode:60170-151,addr:street:Rua Leonardo Mota,addr:suburb:Aldeota,amenity:cafe,cuisine:coffee_shop;regional,internet_access:wlan,internet_access:fee:customers,opening_hours:Mo-Su 09:00-21:00,outdoor_seating:yes","lat":-3.7355321,"lng":-38.4953755}]