[{"id":"3339742298","name":"Nossa Sra. de Fátima","tags":"addr:city:Fortaleza,addr:street:Rua Maria Júlia Rocha,opening_hours:07:00-21:00,shop:supermarket","lat":-3.7883191,"lng":-38.5985244},{"id":"4352718240","name":"Cometa - Siqueira","tags":"addr:city:Fortaleza,addr:housenumber:6498,addr:postcode:60732142,addr:street:Avenida General Osório de Paiva,addr:suburb:Siqueira,shop:supermarket","lat":-3.811218,"lng":-38.6087799},{"id":"4477970080","name":"Super Portugal","tags":"addr:city:Fortaleza,addr:housenumber:874,addr:street:Rua Bragança,addr:suburb:Granja Portugal,shop:supermarket","lat":-3.7807419,"lng":-38.5967596},{"id":"4477970088","name":"Super Portela","tags":"addr:city:Fortaleza,addr:housenumber:1112,addr:street:Rua José Abílio,addr:suburb:Granja Portugal,shop:supermarket","lat":-3.7828726,"lng":-38.6016405},{"id":"4478095429","name":"E.M.E.I.F. Francisca Fernandes Magalhães","tags":"addr:city:Fortaleza,addr:housenumber:1020,addr:street:Rua Vital Brasil,addr:suburb:Bonsucesso,amenity:school","lat":-3.7801109,"lng":-38.5898834},{"id":"4478095431","name":"Churrascaria e Pizzaria Mikaella","tags":"addr:city:Fortaleza,addr:housenumber:788,addr:street:Rua Emílio de Menezes,addr:suburb:Bonsucesso,amenity:restaurant","lat":-3.7812805,"lng":-38.5886879},{"id":"4478095433","name":"Mercadinho Aguiar","tags":"addr:city:Fortaleza,addr:housenumber:492,addr:street:Rua Verbena,addr:suburb:Bonsucesso,shop:supermarket","lat":-3.7804837,"lng":-38.5887159},{"id":"4478095434","name":"Restaurante & Pizzaria Mouras","tags":"addr:city:Fortaleza,addr:housenumber:326,addr:street:Rua Anselmo Nogueira,addr:suburb:Bonsucesso,amenity:restaurant","lat":-3.7811454,"lng":-38.5872916},{"id":"4478095438","name":"Colégio Castro","tags":"addr:city:Fortaleza,addr:housenumber:315,addr:street:Rua Emílio de Menezes,addr:suburb:Bonsucesso,amenity:school","lat":-3.7826541,"lng":-38.5846434},{"id":"4478095458","name":"E.T.I. Maria do Socorro Alves Carneiro","tags":"addr:city:Fortaleza,addr:housenumber:s/n,addr:street:Rua Verbena,addr:suburb:Bonsucesso,amenity:school","lat":-3.7884154,"lng":-38.5893389},{"id":"4478193793","name":"Colégio Ademir Araújo","tags":"addr:city:Fortaleza,addr:housenumber:1055,addr:street:Rua Waldir Diogo,addr:suburb:Mondubim,amenity:school","lat":-3.8029566,"lng":-38.587774},{"id":"4478193795","name":"Center Box (Parque São José)","tags":"addr:city:Fortaleza,addr:housenumber:3918,addr:street:Avenida Cônego de Castro,addr:suburb:Parque São José,opening_hours:Mo-Su 07:00-22:00,shop:supermarket","lat":-3.8005389,"lng":-38.5881683},{"id":"4478193797","name":"Pague Menos (Parque São José)","tags":"addr:city:Fortaleza,addr:housenumber:3686,addr:street:Avenida Cônego de Castro,addr:suburb:Parque São José,amenity:pharmacy,healthcare:pharmacy","lat":-3.7992124,"lng":-38.5867332},{"id":"4478193798","name":"Pizzaria Sabor da Pizza","tags":"addr:city:Fortaleza,addr:housenumber:1267,addr:street:Rua Doutor João Amora,addr:suburb:Parque São José,amenity:restaurant","lat":-3.799756,"lng":-38.5849891},{"id":"4478193803","name":"Boate panteras","tags":"addr:city:Fortaleza,addr:housenumber:1272,addr:postcode:60730-115,addr:street:Rua Eça de Queirós,addr:suburb:Vila Peri,amenity:nightclub","lat":-3.7920729,"lng":-38.5880426},{"id":"4478193804","name":"Mercadinho Duarte","tags":"addr:city:Fortaleza,addr:housenumber:53,addr:street:Rua Raimundo Neri,addr:suburb:Parque Dois Irmãos,shop:supermarket","lat":-3.7969705,"lng":-38.5853335},{"id":"4873152176","name":"Escola Sonho de Criança","tags":"addr:housenumber:3794,addr:street:Rua Manuel Galdino,amenity:school","lat":-3.789858,"lng":-38.6253343},{"id":"4873166749","name":"Restaurante Cavalcante","tags":"addr:housenumber:3311,addr:street:Rua Martins Carvalho,amenity:restaurant,cuisine:pizza;regional","lat":-3.7894346,"lng":-38.6245625},{"id":"4873166751","name":"Girassol Delicatessen","tags":"addr:housenumber:2013,addr:street:Rua Sargento João Pinheiro,amenity:restaurant","lat":-3.7893062,"lng":-38.624533},{"id":"5120698315","name":"Churrasco do Eudes","tags":"addr:city:Fortaleza,addr:postcode:60540282,addr:street:Rua Coronel João Correia,addr:suburb:Granja Lisboa,addr:unit:3389,amenity:restaurant,capacity:100,opening_hours:Tu-Sa 18:30-01:00,takeaway:yes","lat":-3.7862491,"lng":-38.6227804},{"id":"5145702984","name":"Colégio Teleyos","tags":"addr:city:Fortaleza,addr:housenumber:1260,addr:postcode:60763-730,addr:street:Avenida Contorno Norte,addr:suburb:Conjunto Esperança,amenity:school,phone:+55 85 3296-2757","lat":-3.8131876,"lng":-38.5882789},{"id":"5150938886","name":"Livraria Aires","tags":"addr:city:Fortaleza,addr:housenumber:1260,addr:postcode:60763-730,addr:street:Avenida Contorno Norte,addr:suburb:Conjunto Esperança,phone:+55 85 32961476,shop:books","lat":-3.8130755,"lng":-38.5883904},{"id":"5150945983","name":"Centro Educacional São Matheus","tags":"addr:city:Fortaleza,addr:housenumber:110,addr:postcode:60763-590,addr:street:Rua 110,addr:suburb:Conjunto Esperança,amenity:school,phone:+55 85 3296 4416","lat":-3.8108271,"lng":-38.5914075},{"id":"5150953234","name":"Colégio Queiroz Belém","tags":"addr:city:Fortaleza,addr:housenumber:120,addr:postcode:60763-540,addr:street:Rua 105,addr:suburb:Conjunto Esperança,amenity:school,phone:+55 85 3296 1047,website:https://queirozbelem.com.br/","lat":-3.8127937,"lng":-38.589742},{"id":"5198676622","name":"Pizzaria El Patron","tags":"addr:city:Fortaleza,addr:housenumber:105,addr:postcode:60730-230,addr:street:Avenida Luís Vieira,addr:suburb:Parque São José,amenity:restaurant,cuisine:pizza,phone:+55 85 98414-2017","lat":-3.7975537,"lng":-38.5861166},{"id":"5283023067","name":"Grosso Bar","tags":"addr:housename:Grosso Bar,amenity:bar","lat":-3.7973087,"lng":-38.6065238},{"id":"5283023070","tags":"amenity:bar","lat":-3.7974586,"lng":-38.6075565},{"id":"5283023076","name":"Mercadinho IP Albuquerque","tags":"addr:housename:Mercadinho IP Albuquerque,shop:supermarket","lat":-3.7977289,"lng":-38.6082378},{"id":"5283023077","name":"Mercadinho J.C","tags":"shop:supermarket","lat":-3.7973382,"lng":-38.6066392},{"id":"5283035237","name":"E.E.F.M Santo Amaro","tags":"addr:housename:E.E.F.M Santo Amaro,amenity:school","lat":-3.7953416,"lng":-38.6020177},{"id":"5283035238","name":"E.E.F.M Herbert De Sousa","tags":"addr:housename:E.E.F.M Herbert De Sousa,amenity:school","lat":-3.7974613,"lng":-38.6080044},{"id":"5283035240","tags":"amenity:school","lat":-3.796083,"lng":-38.6016395},{"id":"5283035242","tags":"amenity:car_wash","lat":-3.7976219,"lng":-38.6057567},{"id":"5283035244","tags":"amenity:pharmacy","lat":-3.7975416,"lng":-38.6082753},{"id":"5283035245","tags":"amenity:bar","lat":-3.7971026,"lng":-38.6050111},{"id":"5283040694","tags":"amenity:car_wash","lat":-3.797199,"lng":-38.6056467},{"id":"5283040695","tags":"amenity:car_wash","lat":-3.7971669,"lng":-38.6048582},{"id":"5283040696","name":"Mercadinho Popular","tags":"amenity:bar","lat":-3.7974399,"lng":-38.6044451},{"id":"5283074225","name":"#BOM AÇAI","tags":"addr:city:Fortaleza - CE,addr:housename:#BOM AÇAI,addr:housenumber:1040,addr:postcode:60544-311,addr:street:Rua Urucutuba,amenity:restaurant","lat":-3.7969314,"lng":-38.6040281},{"id":"5283076050","name":"Açai","tags":"amenity:restaurant","lat":-3.7972953,"lng":-38.6062422},{"id":"5283101673","name":"Galeteria Expresso","tags":"addr:housename:Galeteria Expresso,amenity:restaurant","lat":-3.8003093,"lng":-38.6025076},{"id":"5283101676","tags":"shop:convenience","lat":-3.7974827,"lng":-38.6076799},{"id":"5283101677","name":"Boutique do Artesanato","tags":"addr:housename:Boutique do Artesanato,amenity:bar","lat":-3.8003678,"lng":-38.6039274},{"id":"5283101679","tags":"amenity:bar","lat":-3.7976192,"lng":-38.6088332},{"id":"5283101681","name":"Arte & Bolo","tags":"addr:housename:Arte & Bolo,amenity:restaurant","lat":-3.8013181,"lng":-38.6029555},{"id":"5283101682","name":"O Bom Galetomói","tags":"addr:housename:O Bom Galetomói,amenity:restaurant","lat":-3.7987352,"lng":-38.6015617},{"id":"5283101683","name":"Escola Municipal José Ferreira de Alencar","tags":"addr:housename:Escola Municipal José Ferreira de Alencar,amenity:school","lat":-3.7986442,"lng":-38.6018648},{"id":"5283101685","name":"Colégio Vencer","tags":"addr:housename:Colégio Vencer,amenity:school","lat":-3.8017675,"lng":-38.6036244},{"id":"5283102254","tags":"amenity:car_wash","lat":-3.7976058,"lng":-38.6073741},{"id":"5300071984","name":"Baratão Supermercado","tags":"addr:city:fortaleza,addr:street:Avenida Contorno Sul,addr:suburb:conjunto esperança,shop:supermarket","lat":-3.8179209,"lng":-38.5902401},{"id":"5300071988","name":"EEFM Adalgisa Bonfim Soares","tags":"addr:city:Fortaleza,addr:street:Avenida Penetração Oeste,addr:suburb:Conjunto Esperança,amenity:school","lat":-3.815105,"lng":-38.5893562},{"id":"5300071991","name":"Mirelly Supermercado","tags":"addr:city:Fortaleza,addr:housenumber:552,addr:postcode:60762-845,addr:street:Rua Francisco Almeida,addr:suburb:Parque Santa Rosa,shop:supermarket","lat":-3.8193791,"lng":-38.5924863},{"id":"5300072260","name":"Paula Castro cabelo corpo e cosmeticos","tags":"addr:city:fortaleza,addr:street:Rua Francisco Almeida,addr:suburb:conjunto esperança,shop:beauty","lat":-3.8175055,"lng":-38.5909597},{"id":"5300072261","name":"Clarita Coffee","tags":"addr:city:fortaleza,addr:street:Avenida Contorno Sul,addr:suburb:conjunto esperança,amenity:cafe","lat":-3.8178622,"lng":-38.5900026},{"id":"5300072262","name":"Bom D+","tags":"addr:city:fortaleza,addr:street:Avenida Contorno Sul,addr:suburb:conjunto esperança,amenity:restaurant,cuisine:pastel","lat":-3.8183889,"lng":-38.5895791},{"id":"5300072263","name":"Yuki Sushi Bar","tags":"addr:city:fortaleza,addr:street:Avenida Contorno Sul,addr:suburb:conjunto esperança,amenity:restaurant,cuisine:japanese","lat":-3.818446,"lng":-38.5894553},{"id":"5300072264","name":"Farmacia Pró-Saude","tags":"addr:city:fortaleza,addr:street:Avenida F,addr:suburb:conjunto esperança,amenity:pharmacy,healthcare:pharmacy","lat":-3.8182096,"lng":-38.5893153},{"id":"5300072265","name":"Caixa do Banco 24hs.","tags":"addr:city:fortaleza,addr:street:Avenida Contorno Sul,addr:suburb:conjunto esperança,amenity:bank,atm:yes","lat":-3.8178602,"lng":-38.5900454},{"id":"5300072266","name":"Central Da Pizza","tags":"addr:city:fortaleza,addr:housenumber:35,addr:street:Avenida A,addr:suburb:conjunto esperança,amenity:restaurant,cuisine:pizza;esfira,delivery:yes,takeaway:yes","lat":-3.8177095,"lng":-38.588998},{"id":"5300072267","name":"Churrascaria E Pizzaria Cantinho Do Céu","tags":"addr:city:fortaleza,addr:housenumber:102-104,addr:street:Avenida A,addr:suburb:conjunto esperança,amenity:restaurant,cuisine:churascaria;pizza,delivery:yes,outdoor_seating:yes","lat":-3.8161985,"lng":-38.5897126},{"id":"5685133734","name":"Ponto do Frango","tags":"shop:supermarket","lat":-3.7836082,"lng":-38.6212108},{"id":"5706122899","name":"Pracinha da Granja Portugal","tags":"leisure:park","lat":-3.7842631,"lng":-38.5991901},{"id":"6247064849","name":"Praça Mais Infância","tags":"addr:city:Fortaleza,addr:postcode:60732430,addr:street:Rua Tebas,addr:suburb:Siqueira,description:Praça Mais Infância localizada no melhor do Siqueira.,leisure:park,lit:yes,opening_hours:Mo-Su 06:00-22:00,operator:Governo do Estado do Ceará, Prefeitura de Maracanaú,website:https://www.ceara.gov.br/2019/08/22/cidade-de-maracanau-e-contemplada-com-a-13a-praca-mais-infancia-do-estado/","lat":-3.8159164,"lng":-38.6222861},{"id":"6386682690","name":"Teleyos Junior","tags":"amenity:school","lat":-3.8127181,"lng":-38.5869416},{"id":"6618216278","name":"Farmácia do Trabalhador","tags":"addr:city:Fortaleza,addr:street:Avenida Oscar Araripe,addr:suburb:Bom Jardim,amenity:pharmacy,dispensing:yes,healthcare:pharmacy,landuse:retail","lat":-3.7912529,"lng":-38.5993826},{"id":"6618216279","name":"Farmácia Brasil","tags":"addr:city:Fortaleza,addr:street:Avenida Oscar Araripe,addr:suburb:Bom Jardim,amenity:pharmacy,dispensing:yes,healthcare:pharmacy,landuse:retail","lat":-3.7910907,"lng":-38.5995157},{"id":"6618222484","name":"Banco 24h","tags":"addr:city:Fortaleza,addr:street:Rua Bom Jesus,addr:suburb:Bom Jardim,amenity:bank","lat":-3.7961673,"lng":-38.5957479},{"id":"6618235350","name":"Compre Farma","tags":"addr:city:Fortaleza,addr:street:Avenida Oscar Araripe,addr:suburb:Bom Jardim,amenity:pharmacy,dispensing:yes,healthcare:pharmacy,landuse:retail","lat":-3.7912034,"lng":-38.5995895},{"id":"6618235356","name":"Banco 24h","tags":"addr:city:Fortaleza,addr:street:Rua Maria Júlia Rocha,addr:suburb:Bom Jardim,amenity:bank","lat":-3.7941039,"lng":-38.6004961},{"id":"6618235357","name":"Banco 24h","tags":"addr:city:Fortaleza - CE,addr:street:Rua Martins de Carvalho,addr:suburb:Bom Jardim,amenity:bank","lat":-3.7964542,"lng":-38.6008113},{"id":"6618235364","name":"Farmácia Droga Sales","tags":"addr:city:Fortaleza,addr:street:Rua Bom Jesus,addr:suburb:Bom Jardim,amenity:pharmacy,dispensing:yes,healthcare:pharmacy","lat":-3.7946957,"lng":-38.6006436},{"id":"6618275580","name":"ART Lava Jato","tags":"addr:city:Fortaleza,addr:street:Rua Oscar França,addr:suburb:Bom Jardim,amenity:car_wash","lat":-3.7939715,"lng":-38.5935238},{"id":"6621401562","name":"Mercadinho Ximenes","tags":"addr:city:Fortaleza,addr:street:Rua Sabino Feijão,addr:suburb:Bom Jardim,landuse:retail,shop:convenience","lat":-3.7929914,"lng":-38.596501},{"id":"6621427555","name":"Barzinho","tags":"addr:city:Fortaleza,addr:street:Rua Vicente Pinheiro,addr:suburb:Bom Jardim,amenity:bar","lat":-3.7926776,"lng":-38.5945282},{"id":"6621427556","name":"Bezerrão Sushi","tags":"addr:city:Fortaleza,addr:street:Avenida Oscar Araripe,addr:suburb:Bom Jardim,amenity:restaurant,cuisine:sushi","lat":-3.7927913,"lng":-38.5941634},{"id":"6621439706","name":"Barzinho","tags":"addr:city:Fortaleza,addr:street:Rua Oscar França,addr:suburb:Bom Jardim,amenity:bar","lat":-3.7924261,"lng":-38.5979075},{"id":"6621455533","name":"Disk Frango","tags":"addr:city:Fortaleza,addr:street:Rua Maria Júlia Rocha,addr:suburb:Bom Jardim,amenity:restaurant,cuisine:steak_house","lat":-3.7897819,"lng":-38.5991024},{"id":"6621455535","name":"Farmácia do Antônio","tags":"addr:city:Fortaleza,addr:street:Rua Maria Júlia Rocha,addr:suburb:Bom Jardim,amenity:pharmacy,dispensing:yes,healthcare:pharmacy,landuse:retail","lat":-3.7895504,"lng":-38.5990367},{"id":"6621455536","name":"Barzinho do Marcelo","tags":"addr:city:Fortaleza,addr:street:Rua Maria Júlia Rocha,addr:suburb:Bom Jardim,amenity:bar","lat":-3.789491,"lng":-38.5989113},{"id":"6621459780","name":"Mercadinho","tags":"addr:city:Fortaleza,addr:street:Rua Oscar França,addr:suburb:Bom Jardim,landuse:retail,shop:convenience","lat":-3.7926871,"lng":-38.5974609},{"id":"6621467725","name":"Delícias de Macarrão","tags":"addr:city:Fortaleza,addr:street:Rua Maria Júlia Rocha,addr:suburb:Bom Jardim,amenity:restaurant","lat":-3.7934873,"lng":-38.6002749},{"id":"6621471068","tags":"addr:city:Fortaleza,addr:street:Rua José Martins,addr:suburb:Bom Jardim,amenity:bar","lat":-3.7902096,"lng":-38.597424},{"id":"6621471069","name":"Mercadinho","tags":"addr:city:Fortaleza,addr:street:Rua Raimundo Pinheiro,addr:suburb:Bom Jardim,landuse:retail,shop:convenience","lat":-3.7902363,"lng":-38.5973328},{"id":"6622027829","name":"Pizzaria Rosa dos Ventos","tags":"addr:city:Fortaleza,addr:street:Avenida Oscar Araripe,addr:suburb:Bom Jardim,amenity:restaurant,cuisine:pizza","lat":-3.790142,"lng":-38.6024434},{"id":"6622027830","name":"Churrascaria","tags":"addr:city:Fortaleza,addr:street:Avenida Oscar Araripe,addr:suburb:Bom Jardim,amenity:restaurant,cuisine:steak_house","lat":-3.7903187,"lng":-38.6023616},{"id":"6622027834","name":"Top 10 Fitness","tags":"addr:city:Fortaleza,addr:street:Avenida Oscar Araripe,addr:suburb:Bom Jardim,leisure:fitness_centre","lat":-3.7902884,"lng":-38.6019647},{"id":"6622027843","name":"Churrascaria","tags":"addr:city:Fortaleza,addr:street:Avenida Oscar Araripe,addr:suburb:Bom Jardim,amenity:restaurant,cuisine:steak_house","lat":-3.7899336,"lng":-38.6030711},{"id":"6622027844","name":"Churrascaria","tags":"addr:city:Fortaleza,addr:street:Avenida Oscar Araripe,addr:suburb:Bom Jardim,amenity:restaurant,cuisine:steak_house","lat":-3.7900995,"lng":-38.603122},{"id":"6622347352","name":"Gospel Point","tags":"addr:city:Fortaleza,addr:street:Avenida Oscar Araripe,addr:suburb:Bom Jardim,shop:books","lat":-3.7909583,"lng":-38.5998966},{"id":"6624873246","name":"Bodega da Rosa","tags":"addr:city:Fortaleza,addr:street:Rua Mirtes Cordeiro,addr:suburb:Bom Jardim,landuse:retail,shop:convenience","lat":-3.7888817,"lng":-38.5995753},{"id":"6624999266","name":"Espetiho do Chef","tags":"addr:city:Fortaleza,addr:street:Rua Coronel João Correia,addr:suburb:Bom Jardim,amenity:restaurant,cuisine:steak_house","lat":-3.7939,"lng":-38.5985298},{"id":"6635873588","name":"Rosa de Saron","tags":"amenity:restaurant","lat":-3.8135832,"lng":-38.5965317},{"id":"6668790042","name":"Espaço Roms Galeteria","tags":"amenity:restaurant,cuisine:steak_house","lat":-3.7947301,"lng":-38.6005584},{"id":"6669075783","name":"Jac Refeições","tags":"amenity:restaurant","lat":-3.7913412,"lng":-38.5893188},{"id":"6678219565","name":"Lava Jato Dois Irmãos","tags":"amenity:car_wash","lat":-3.7935867,"lng":-38.5926967},{"id":"6679178761","name":"ML Balas","tags":"shop:convenience","lat":-3.7932492,"lng":-38.5931352},{"id":"6700072138","name":"Centro de Formação Divino Salvador","tags":"amenity:school","lat":-3.7884784,"lng":-38.5857348},{"id":"6708869509","name":"Comercial Morgana","tags":"landuse:retail,shop:convenience","lat":-3.7909716,"lng":-38.599845},{"id":"6717699940","name":"Farmácia Pró Vida","tags":"amenity:pharmacy,dispensing:yes,healthcare:pharmacy","lat":-3.8018826,"lng":-38.5990108},{"id":"6717699941","name":"Farmácia Jerusalém","tags":"amenity:pharmacy,dispensing:yes,healthcare:pharmacy","lat":-3.800159,"lng":-38.5979165},{"id":"6717699942","name":"Farmácia Popular do Bom Jardim","tags":"amenity:pharmacy,dispensing:yes,healthcare:pharmacy","lat":-3.7942735,"lng":-38.6004212},{"id":"6748974044","name":"Célula de Proteção Comunitária","tags":"amenity:police","lat":-3.8076506,"lng":-38.6044416},{"id":"6778571633","name":"E. M José Carlos Matos","tags":"addr:city:Fortaleza,addr:housenumber:802,addr:postcode:60545-290,addr:street:Rua Itajaí,addr:suburb:Granja Portugal,amenity:school","lat":-3.7835309,"lng":-38.5958665},{"id":"6803484139","name":"Bom Frango","tags":"shop:convenience","lat":-3.8171523,"lng":-38.5880008},{"id":"6812023685","name":"Colégio Marina Santos","tags":"amenity:school","lat":-3.8065698,"lng":-38.5865891},{"id":"6842561245","tags":"amenity:police","lat":-3.7898212,"lng":-38.5867534},{"id":"6846086768","tags":"amenity:restaurant,cuisine:pizza","lat":-3.7932167,"lng":-38.6001982},{"id":"6853918477","name":"Mercadinho Yara","tags":"shop:supermarket","lat":-3.8076615,"lng":-38.5892532},{"id":"6853918478","name":"Mercadinho Faely","tags":"shop:supermarket","lat":-3.8080281,"lng":-38.5880409},{"id":"6853918479","name":"O Maia","tags":"shop:supermarket","lat":-3.8073577,"lng":-38.5871826},{"id":"6853918481","name":"Central Box","tags":"shop:supermarket","lat":-3.8062338,"lng":-38.5872577},{"id":"6853918482","name":"Mercadinho O Helder","tags":"shop:supermarket","lat":-3.8061562,"lng":-38.5854566},{"id":"6853923796","name":"CEI Maria Bezerra Quevedo","tags":"amenity:childcare","lat":-3.8089576,"lng":-38.5876276},{"id":"6967574996","name":"Escola de tempo parcial Noelzinda Sátiro Santiago","tags":"addr:city:Fortaleza,addr:housenumber:1298,addr:postcode:60730-165,addr:street:Rua Dom Xisto Albano,alt_name:ETP Noelzinda Sátiro Santiago,amenity:school,building:school,operator:Secretaria Municipal da Educação,phone:+55 85 31052008","lat":-3.7954292,"lng":-38.5843179},{"id":"6967574999","name":"Escola de ensino fundamental e médio São José","tags":"addr:city:Fortaleza,addr:housenumber:397,addr:postcode:60730-270,addr:street:Rua Desembargador Frota,alt_name:EEFM São José,amenity:school,building:school,operator:Secretaria da Educação do Estado do Ceará,phone:+55 85 31013046","lat":-3.8002676,"lng":-38.5898245},{"id":"6967575000","name":"Escola de ensino fundamental e médio Senador Osires Pontes","tags":"addr:city:Fortaleza,addr:housenumber:150,addr:postcode:60876-670,addr:street:Rua Divina,alt_name:EEFM Senador Osires Pontes,amenity:school,building:school,operator:Secretaria da Educação do Estado do Ceará,phone:+55 85 31016113","lat":-3.8078561,"lng":-38.6069379},{"id":"6967575010","name":"Escola de tempo parcial Secretário Escolar Francisco de Assis Morel Fernandes","tags":"addr:city:Fortaleza,addr:housenumber:1061,addr:postcode:60732-180,addr:street:Rua Costa do Sol,alt_name:ETP Secretário Escolar Francisco de Assis Morel Fernandes,amenity:school,building:school,operator:Secretaria Municipal da Educação","lat":-3.8176793,"lng":-38.617243},{"id":"6967575013","name":"Escola de tempo parcial Educador Paulo Freire","tags":"addr:city:Fortaleza,addr:housenumber:452,addr:postcode:60540-835,addr:street:Rua Coronel Fabriciano,alt_name:ETP Educador Paulo Freire,amenity:school,building:school,operator:Secretaria Municipal da Educação,phone:+55 85 32457561","lat":-3.7865144,"lng":-38.5937799},{"id":"6967575033","name":"Escola de tempo parcial Antônio Diogo de Siqueira","tags":"addr:city:Fortaleza,addr:housenumber:655,addr:postcode:60545-360,addr:street:Rua Anselmo Nogueira,alt_name:ETP Antônio Diogo de Siqueira,amenity:school,building:school,operator:Secretaria Municipal da Educação,phone:+55 85 34332895","lat":-3.7841405,"lng":-38.5878243},{"id":"6967575041","name":"Escola de tipo integral Professor Alexandre Rodrigues de Albuquerque","tags":"addr:city:Fortaleza,addr:postcode:60736-130,addr:street:Rua Alves Bezerra,alt_name:ETI Professor Alexandre Rodrigues de Albuquerque,amenity:school,building:school,operator:Secretaria Municipal da Educação","lat":-3.8054749,"lng":-38.6118707},{"id":"6967575061","name":"Escola de tempo parcial Padre Cícero Romão Batista","tags":"addr:city:Fortaleza,addr:housenumber:460,addr:postcode:60763-630,addr:street:Rua 114,alt_name:ETP Padre Cícero Romão Batista,amenity:school,building:school,operator:Secretaria Municipal da Educação,phone:+55 85 34525126","lat":-3.8116335,"lng":-38.5946731},{"id":"6967597107","name":"Escola de tempo parcial Narciso Pessoa de Araújo","tags":"addr:city:Fortaleza,addr:housenumber:4841,addr:postcode:60730-243,addr:street:Avenida General Osório de Paiva,alt_name:ETP Narciso Pessoa de Araújo,amenity:school,building:school,operator:Secretaria Municipal da Educação,phone:+55 85 31052009","lat":-3.801766,"lng":-38.5986645},{"id":"6967597153","name":"Escola de ensino fundamental São Francisco de Assis Canindezinho","tags":"addr:city:Fortaleza,addr:postcode:60731-020,addr:street:Rua Sao Felipe,alt_name:EEF São Francisco de Assis Canindezinho,amenity:school,building:school,operator:Secretaria da Educação do Estado do Ceará,phone:+55 85 31016112","lat":-3.8083017,"lng":-38.6040361},{"id":"6967597154","name":"Escola de tempo parcial Alaíde Augusto de Oliveira","tags":"addr:city:Fortaleza,addr:housenumber:525,addr:postcode:60763-646,addr:street:Rua Setembrina,alt_name:ETP Alaíde Augusto de Oliveira,amenity:school,building:school,operator:Secretaria Municipal da Educação,phone:+55 85 31051020","lat":-3.8115321,"lng":-38.5964554},{"id":"6967597165","name":"Escola de ensino fundamental e médio Paulo Elpídio","tags":"addr:city:Fortaleza,addr:housenumber:1202,addr:postcode:60732-395,addr:street:Rua Professor Manoel De Castro,alt_name:EEFM Paulo Elpídio,amenity:school,building:school,operator:Secretaria da Educação do Estado do Ceará,phone:+55 85 31016121","lat":-3.8049717,"lng":-38.6271332},{"id":"6967597172","name":"Escola de tempo parcial Catarina Lima da Silva","tags":"addr:city:Fortaleza,addr:housenumber:313,addr:postcode:60543-305,addr:street:Rua Pedro Martins,alt_name:ETP Catarina Lima da Silva,amenity:school,building:school,operator:Secretaria Municipal da Educação,phone:+55 85 31053341","lat":-3.7999194,"lng":-38.6009526},{"id":"6967597187","name":"Escola de ensino fundamental e médio São Francisco de Assis Bom Jardim","tags":"addr:city:Fortaleza,addr:housenumber:320,addr:postcode:60876-670,addr:street:Rua Nereide,alt_name:EEFM São Francisco de Assis Bom Jardim,amenity:school,building:school,operator:Secretaria da Educação do Estado do Ceará,phone:+55 85 31016118","lat":-3.7892014,"lng":-38.5926395},{"id":"6967597201","name":"Escola de ensino fundamental São Vicente","tags":"addr:city:Fortaleza,addr:housenumber:779,addr:postcode:60876-670,addr:street:Rua Martins De Carvalho,alt_name:EEF São Vicente,amenity:school,building:school,operator:Secretaria da Educação do Estado do Ceará,phone:+55 85 31016117","lat":-3.8026051,"lng":-38.6026466},{"id":"6967597234","name":"Escola de tempo parcial Florival Alves Seraine","tags":"addr:city:Fortaleza,addr:postcode:60731-455,addr:street:Rua Itatiaia,alt_name:ETP Florival Alves Seraine,amenity:school,building:school,operator:Secretaria Municipal da Educação,phone:+55 85 34883398","lat":-3.8073515,"lng":-38.602108},{"id":"6967597235","name":"Escola de ensino fundamental e médio Professor Jocie Caminha de Menezes","tags":"addr:city:Fortaleza,addr:housenumber:120,addr:postcode:60876-670,addr:street:Rua Itú,alt_name:EEFM Professor Jocie Caminha de Menezes,amenity:school,building:school,operator:Secretaria da Educação do Estado do Ceará,phone:+55 85 31016116","lat":-3.7863086,"lng":-38.6015305},{"id":"6967597238","name":"Escola de tempo parcial Francisca de Abreu Lima","tags":"addr:city:Fortaleza,addr:housenumber:535,addr:postcode:60731-415,addr:street:Rua Humberto De Almeida,alt_name:ETP Francisca de Abreu Lima,amenity:school,building:school,operator:Secretaria Municipal da Educação,phone:+55 85 34522497","lat":-3.8072601,"lng":-38.5974297},{"id":"6967597239","name":"Escola de ensino fundamental e médio Parque Presidente Vargas","tags":"addr:city:Fortaleza,addr:housenumber:1029,addr:postcode:60762-805,addr:street:Rua Iná Brito,addr:suburb:Parque Santa Rosa,alt_name:EEFM Parque Presidente Vargas,amenity:school,building:school,operator:Secretaria da Educação do Estado do Ceará,phone:+55 85 31013074","lat":-3.8225927,"lng":-38.5949887},{"id":"6967597252","name":"Escola de tempo parcial Professor José Maria Moreira Campos","tags":"addr:city:Fortaleza,addr:housenumber:525,addr:postcode:60762-845,addr:street:Rua Francisco Almeida,addr:suburb:Parque Santa Rosa,alt_name:ETP Professor José Maria Moreira Campos,amenity:school,building:school,operator:Secretaria Municipal da Educação,phone:+55 85 31051038","lat":-3.8188966,"lng":-38.5916315},{"id":"6967597264","name":"Escola de tempo parcial Tomaz Muniz","tags":"addr:city:Fortaleza,addr:housenumber:185,addr:postcode:60731-785,addr:street:Rua Doutora Vanda Cidade,alt_name:ETP Tomaz Muniz,amenity:school,building:school,operator:Secretaria Municipal da Educação,phone:+55 85 32454420","lat":-3.8044487,"lng":-38.6057571},{"id":"6967597265","name":"Escola de tempo parcial Crescer e Aprender","tags":"addr:city:Fortaleza,addr:housenumber:642,addr:postcode:60543-454,addr:street:Rua Edson Martins,alt_name:ETP Crescer e Aprender,amenity:school,building:school,operator:Secretaria Municipal da Educação,phone:+55 85 31053091","lat":-3.7907287,"lng":-38.5978208},{"id":"7055710061","name":"Esperança","tags":"light_rail:yes,network:METROFOR,operator:Companhia Cearense de Transportes Metropolitanos,public_transport:station,railway:station,station:subway,subway:yes","lat":-3.8171248,"lng":-38.5857936},{"id":"8373199077","name":"Studio Anna Romano","tags":"addr:city:Fortaleza - CE,addr:housenumber:810,addr:postcode:60543315,addr:street:Rua Urucutuba,addr:suburb:Bom Jardim,shop:beauty","lat":-3.796607,"lng":-38.6024332},{"id":"8684496720","name":"Style One fitness","tags":"addr:city:Fortaleza,addr:housenumber:128,addr:street:Rua 105,addr:suburb:Novo Mondubim,leisure:fitness_centre,opening_hours:covid19:open,phone:+5585989398999","lat":-3.8087445,"lng":-38.5899407},{"id":"8991425702","name":"Studio Anny Caroline","tags":"addr:city:Fortaleza,addr:housenumber:225,addr:postcode:60545-360,addr:street:Rua São Francisco,addr:suburb:Bonsucesso,air_conditioning:yes,beauty:spa;nails;pedicure,internet_access:yes,opening_hours:Tu-Sa 09:30-19:30,payment:american_express:yes,payment:cash:yes,payment:mastercard:yes,payment:visa:yes,phone:+55 85 98548 0423,shop:beauty","lat":-3.7843601,"lng":-38.5884324},{"id":"9306530904","name":"Seu João","tags":"operator:Seu João,shop:convenience","lat":-3.8083888,"lng":-38.5957831},{"id":"9434360662","name":"Escola Maria Dolores Petrola de Melo Jorge","tags":"addr:city:Fortaleza,addr:housenumber:1000,addr:postcode:60540-576,addr:street:Rua Paulino Rocha,addr:suburb:Granja Lisboa,amenity:school,official_name:Escola de Tempo Parcial Maria Dolores Petrola de Melo Jorge,operator:Secretaria Municipal da Educação de Fortaleza,operator:type:public,phone:+55 85 3452 2306,ref:INEP:23263121,short_name:ETP Maria Dolores Petrola de Melo Jorge,source:date:2018","lat":-3.7817183,"lng":-38.6243692},{"id":"6413289730","tags":"leaf_type:broadleaved,leisure:park","lat":-3.7947538,"lng":-38.5954909},{"id":"9966928394","tags":"leisure:park","lat":-3.8137455,"lng":-38.5968152},{"id":"9966928396","tags":"leisure:park","lat":-3.8137059,"lng":-38.5968737},{"id":"9966928397","tags":"leisure:park","lat":-3.8135341,"lng":-38.5967197},{"id":"9966990608","tags":"leaf_type:broadleaved,leisure:park","lat":-3.794916,"lng":-38.5952815},{"id":"9966990609","tags":"leaf_type:broadleaved,leisure:park","lat":-3.79493,"lng":-38.5952284},{"id":"9966990610","tags":"leaf_type:broadleaved,leisure:park","lat":-3.7949033,"lng":-38.5953235},{"id":"10019774731","name":"Banco24Horas","tags":"amenity:atm,brand:Banco24Horas,brand:wikidata:Q4854069","lat":-3.8229874,"lng":-38.6195782},{"id":"10152608667","name":"Granja Santa Ana","tags":"shop:supermarket","lat":-3.8120314,"lng":-38.5885911},{"id":"10154752372","name":"Altos Lanches","tags":"addr:city:Fortaleza,addr:postcode:60764-280,addr:street:Rua 105,addr:suburb:Conjunto Esperança,amenity:restaurant,cuisine:burger;regional;pizza;italian;chicken;sandwich;japanese;ice_cream;sushi;barbecue,delivery:yes,outdoor_seating:yes,smoking:outside,takeaway:yes","lat":-3.8082168,"lng":-38.5905709},{"id":"10154752373","tags":"amenity:restaurant,capacity:500,cuisine:regional,delivery:no,opening_hours:Mo-Fr 09:00-15:00,outdoor_seating:no,smoking:no,takeaway:no,tourism:yes,wheelchair:yes","lat":-3.8079058,"lng":-38.5932909},{"id":"10154776232","name":"Churrascaria Alvorada","tags":"amenity:restaurant,cuisine:steak_house","lat":-3.8070333,"lng":-38.5884686},{"id":"10154776251","name":"CEI Rosa Amaro Cavalcante","tags":"amenity:childcare,operator:Prefeitura de Fortaleza","lat":-3.8035551,"lng":-38.5854672},{"id":"10169822773","name":"Ana Risorlange","tags":"shop:supermarket","lat":-3.8112429,"lng":-38.5972961}]