[{"id":"3977332200","name":"Cruzeiro de Santiago","tags":"tourism:attraction","lat":-3.6940135,"lng":-38.5862418},{"id":"4202764474","name":"Mercadinho da Gente","tags":"shop:supermarket","lat":-3.7253783,"lng":-38.5848636},{"id":"4202764475","name":"Mercadinho Pai & Filho","tags":"shop:supermarket","lat":-3.7253553,"lng":-38.5849998},{"id":"4373727690","name":"Beira do Rio","tags":"amenity:bar","lat":-3.6994824,"lng":-38.5881513},{"id":"4554193589","name":"Farmácia Independência","tags":"amenity:pharmacy","lat":-3.7138341,"lng":-38.588312},{"id":"4718998731","name":"Antônio Bezerra","tags":"internet_access:no,light_rail:yes,network:Linha Oeste,operator:METROFOR,public_transport:station,rail:yes,railway:station,station:light_rail","lat":-3.7349985,"lng":-38.5922873},{"id":"5264821038","name":"Praça do GPM","tags":"leisure:park","lat":-3.7191082,"lng":-38.6057322},{"id":"5636389279","name":"Camarão Regional","tags":"amenity:restaurant","lat":-3.7279275,"lng":-38.5878978},{"id":"5636394052","name":"Camarão Regional","tags":"amenity:restaurant","lat":-3.7277281,"lng":-38.5877162},{"id":"5636403622","name":"World Fitness","tags":"leisure:fitness_centre,sport:workout","lat":-3.7293169,"lng":-38.5857129},{"id":"5636422669","name":"Adega Grill","tags":"amenity:restaurant","lat":-3.7269394,"lng":-38.5866475},{"id":"6386706660","name":"Trupe Pizzaria","tags":"addr:city:fortaleza,addr:housenumber:260,addr:postcode:60346-196,addr:street:Rua 02,addr:suburb:barra do ceara,amenity:bar,outdoor_seating:pedestrian_zone","lat":-3.7080012,"lng":-38.5902245},{"id":"6386706661","tags":"shop:supermarket","lat":-3.7074734,"lng":-38.5900025},{"id":"6797537971","name":"Colégio Cientista","tags":"amenity:school","lat":-3.7088624,"lng":-38.595256},{"id":"6797554894","name":"Black House","tags":"leisure:fitness_centre","lat":-3.7098555,"lng":-38.5965767},{"id":"6797556434","name":"MasterFit Academia","tags":"leisure:fitness_centre","lat":-3.7066519,"lng":-38.5920664},{"id":"6797582704","name":"Farmácia Vital Brasil","tags":"amenity:pharmacy,dispensing:yes,healthcare:pharmacy","lat":-3.7103562,"lng":-38.590998},{"id":"6802330894","name":"Lava Jato - Lavou ta Novo","tags":"addr:housenumber:6090,addr:street:Avenida Presidente Castelo Branco,amenity:car_wash","lat":-3.7009553,"lng":-38.5853437},{"id":"6832833353","name":"Praça do Polar","tags":"addr:city:Fortaleza,addr:housenumber:820,addr:postcode:60347345,addr:street:Avenida Mozart Pinheiro de Lucena,addr:suburb:Vila Velha,dog:yes,leisure:park,level:área_de_caminhada,smoking:yes,wikidata:Q10391339,wikipedia:pt:Vila Velha (Fortaleza)","lat":-3.7101925,"lng":-38.5926257},{"id":"6902855504","name":"EEEM Maria José Santos Ferreira Gomes","tags":"addr:city:Fortaleza,addr:housenumber:93,addr:street:Rua Dona Lúcia Pinheiro,addr:suburb:Quintino cunha,amenity:school","lat":-3.7325363,"lng":-38.5976573},{"id":"6967575002","name":"Escola de tempo parcial Francisco das Chagas de Farias","tags":"addr:city:Fortaleza,addr:housenumber:135,addr:postcode:60330-142,addr:street:Rua Des. Hermes Paraíba,alt_name:ETP Francisco das Chagas de Farias,amenity:school,building:school,operator:Secretaria Municipal da Educação","lat":-3.7144365,"lng":-38.5850178},{"id":"6967575006","name":"Escola de ensino fundamental Jesus Maria José","tags":"addr:city:Fortaleza,addr:housenumber:134,addr:postcode:60352-630,addr:street:Rua da Mangueira,alt_name:EEF Jesus Maria José,amenity:school,operator:Secretaria da Educação do Estado do Ceará,phone:+55 85 31012698","lat":-3.7321461,"lng":-38.6012397},{"id":"6967575062","name":"Escola de tempo parcial São Carlos","tags":"addr:city:Fortaleza,addr:housenumber:1009,addr:postcode:60352-150,addr:street:Rua 06,alt_name:ETP São Carlos,amenity:school,operator:Secretaria Municipal da Educação","lat":-3.7352377,"lng":-38.5965403},{"id":"6967575081","name":"Escola de tempo parcial Padre Josefino Cabral","tags":"addr:city:Fortaleza,addr:housenumber:5598,addr:postcode:60350-484,addr:street:Avenida Sargento Hermínio,alt_name:ETP Padre Josefino Cabral,amenity:school,building:school,operator:Secretaria Municipal da Educação","lat":-3.7338096,"lng":-38.5890597},{"id":"6967597106","name":"Escola de tipo integral Aldemir Martins","tags":"addr:city:Fortaleza,addr:housenumber:7460,addr:postcode:60330-878,addr:street:Avenida Francisco Sá,alt_name:ETI Aldemir Martins,amenity:school,building:school,operator:Secretaria Municipal da Educação","lat":-3.7064775,"lng":-38.5853116},{"id":"6967597159","name":"Escola de tempo parcial Maria Dalva Severino Marreiro","tags":"addr:city:Fortaleza,addr:housenumber:782,addr:postcode:60341-270,addr:street:Rua Rio Paraguai,alt_name:ETP Maria Dalva Severino Marreiro,amenity:school,operator:Secretaria Municipal da Educação,phone:+55 85 34526680","lat":-3.7253597,"lng":-38.5843895},{"id":"6967597160","name":"Escola de tempo parcial Maria Mariza Mendes de Carvalho","tags":"addr:city:Fortaleza,addr:housenumber:1174,addr:postcode:60345-151,addr:street:Rua Raimundo Cunha,alt_name:ETP Maria Mariza Mendes de Carvalho,amenity:school,building:school,operator:Secretaria Municipal da Educação,phone:+55 85 34525844","lat":-3.7198691,"lng":-38.6060014},{"id":"6967597243","name":"Escola de tempo parcial Antônio Correia Lima","tags":"addr:city:Fortaleza,addr:housenumber:934,addr:postcode:60347-155,addr:street:Rua Hermes Paraíba,alt_name:ETP Antônio Correia Lima,amenity:school,operator:Secretaria Municipal da Educação,phone:+55 85 34526648","lat":-3.7126337,"lng":-38.5920693},{"id":"7115367447","name":"grafite vivace","tags":"addr:city:fortaleza,addr:postcode:60330065,addr:street:Rua 1,addr:suburb:barra do ceara,leisure:park","lat":-3.7077503,"lng":-38.5902949},{"id":"9592491400","name":"Mercadinho Sabrina","tags":"addr:street:Rua Francisco Mendes de Oliveira,opening_hours:Mo-Sa 06:00-22:00,shop:supermarket","lat":-3.7316261,"lng":-38.5926115},{"id":"9606359419","name":"Fit & Life","tags":"addr:city:Fortaleza,addr:housenumber:344,addr:postcode:Rua General João Couto,addr:street:Rua General João Couto,addr:suburb:Olavo Oliveira,contact:facebook:FiteLife,leisure:fitness_centre,phone:+55 85 99924 9970","lat":-3.7301489,"lng":-38.588571},{"id":"9609263894","name":"Mercantil Apuiarés","tags":"addr:city:Fortaleza,addr:housenumber:273,addr:postcode:60351-105,addr:street:Rua General Alípio dos Santos,addr:suburb:Olavo Oliveira,opening_hours:Mo-Sa 06:30-12:30, 14:30-21:00; Su 06:30-12:30,phone:+55 85 3282 6308,shop:supermarket","lat":-3.7296849,"lng":-38.5877359},{"id":"9609263896","name":"Lia Fest Eventos","tags":"addr:city:Fortaleza,addr:housenumber:570,addr:postcode:60346-256,addr:street:Avenida Independência,addr:suburb:Jardim Guanabara,addr:unit:A,amenity:restaurant,phone:+55 85 98701 1858","lat":-3.728313,"lng":-38.5858108},{"id":"10302773560","tags":"amenity:restaurant","lat":-3.691951,"lng":-38.6056824},{"id":"10303059665","tags":"amenity:restaurant","lat":-3.6920488,"lng":-38.6035931},{"id":"10303071525","tags":"amenity:restaurant","lat":-3.6917595,"lng":-38.6044025}]