[{"id":"479158318","name":"Farmácia Vilgna","tags":"amenity:pharmacy","lat":-3.7655048,"lng":-38.6380756},{"id":"2640625458","name":"Escola Moderna William Cartesius","tags":"addr:street:Avenida São Vicente de Paula,amenity:school","lat":-3.7671613,"lng":-38.6401873},{"id":"4183752960","name":"Terminal Planalto Caucaia","tags":"amenity:bus_station,bus:yes,public_transport:bus_stop","lat":-3.7447972,"lng":-38.665666},{"id":"4202782694","name":"MFC","tags":"shop:supermarket","lat":-3.7658129,"lng":-38.6400341},{"id":"4419279529","name":"Amigão Restaurante e Pizzaria","tags":"addr:city:Caucaia,addr:housenumber:668,addr:postcode:61655010,addr:street:Avenida Contorno Oeste,addr:suburb:Conjunto Nova Metrópole,amenity:restaurant,capacity:100,cuisine:pizza,delivery:yes,opening_hours:16:00-24:00,smoking:outside,takeaway:yes","lat":-3.7715875,"lng":-38.6578943},{"id":"4510693098","name":"Fla Lanches","tags":"addr:street:Rua NW 6,amenity:restaurant,cuisine:diner;sandwich;ice_cream;pizza,name:pt:Fla Lanches,phone:+55 85 3475-3096","lat":-3.7650261,"lng":-38.6397229},{"id":"4718998737","name":"Araturi","tags":"internet_access:no,light_rail:yes,network:Linha Oeste,operator:METROFOR,public_transport:station,rail:yes,railway:station,station:light_rail","lat":-3.7626414,"lng":-38.6398047},{"id":"4718998738","name":"Caucaia","tags":"internet_access:no,light_rail:yes,network:Linha Oeste,operator:METROFOR,public_transport:station,rail:yes,railway:station,station:light_rail","lat":-3.7357496,"lng":-38.6603448},{"id":"5154243076","name":"Padaria Mãe Rainha","tags":"addr:city:Caucaia,addr:housenumber:196,addr:postcode:61658-040,addr:street:Avenida Contorno Sul,addr:suburb:Conjunto Nova Metrópole V,amenity:restaurant,opening_hours:Mo-Sa 05:30-19:00","lat":-3.7738551,"lng":-38.6547177},{"id":"5154243077","name":"Espetim do Magão","tags":"addr:city:Caucaia,addr:housenumber:264-334,addr:postcode:61658-730,addr:street:Rua Trezentos e Quarenta e Cinco,addr:suburb:Conjunto Nova Metrópole V,amenity:bar,opening_hours:24/7","lat":-3.7732238,"lng":-38.6546144},{"id":"5154243082","name":"Mercadinho São Francisco","tags":"addr:city:Caucaia,addr:postcode:61658-750,addr:street:Rua Trezentos e Quarenta e Cinco,addr:suburb:Nova Metropole,shop:supermarket","lat":-3.7723941,"lng":-38.6550436},{"id":"5154243083","name":"Churrascaria e Pizzaria O Dedé","tags":"addr:city:Caucaia,addr:street:Rua Trezentos e Quarenta e Cinco,addr:suburb:Conjunto Nova Metrópole V,amenity:restaurant,delivery:yes,opening_hours:Mo-Su 09:30-23:30,takeaway:yes","lat":-3.7722491,"lng":-38.6551021},{"id":"6308108392","name":"Escola Sonho Meu","tags":"addr:city:Caucaia,addr:street:Rua Celio Rodrigues Viana,addr:suburb:Parque Soledade,amenity:school","lat":-3.7389225,"lng":-38.6518328},{"id":"6308108393","name":"Super Gêmeos","tags":"addr:city:Caucaia,addr:postcode:61603110,addr:street:Rua Celio Rodrigues Viana,addr:suburb:Parque Soledade,opening_hours:07:00-19:00,shop:supermarket","lat":-3.7437239,"lng":-38.6531221},{"id":"6476531887","tags":"amenity:atm","lat":-3.7716041,"lng":-38.6330467},{"id":"6604219223","name":"praça do terminal do araturi","tags":"leisure:park","lat":-3.7633668,"lng":-38.6397102},{"id":"6604226587","name":"Salão de beleza Alci cabeleireira","tags":"shop:beauty","lat":-3.7644086,"lng":-38.6404974},{"id":"6902751051","tags":"addr:city:Caucaia,addr:street:Avenida São Vicente de Paula,addr:suburb:Araturi,leisure:fitness_centre","lat":-3.7699816,"lng":-38.6331364},{"id":"6902826597","name":"Escola Brasileirinho","tags":"addr:city:Caucaia,addr:street:Rua Calçadão e 17,addr:suburb:Araturi,amenity:school","lat":-3.7687633,"lng":-38.6325855},{"id":"6902826598","tags":"addr:city:Caucaia,addr:street:Avenida São Vicente de Paula,addr:suburb:Araturi,leisure:fitness_centre","lat":-3.7698997,"lng":-38.6332706},{"id":"6902884075","name":"Escola São Raimundo","tags":"addr:city:Caucaia,addr:street:Avenida São Vicente de Paula,addr:suburb:Araturi,amenity:school","lat":-3.7692594,"lng":-38.634573},{"id":"8743133293","name":"Terminal Potira","tags":"amenity:bus_station,bus:yes,public_transport:station","lat":-3.7543558,"lng":-38.638824}]