[{"id":"1711761299","name":"Rodoviária Internacional de Boa Vista","tags":"amenity:bus_station,bus:yes,internet_access:wlan,public_transport:station","lat":2.8043571,"lng":-60.6885344},{"id":"1711761362","tags":"amenity:parking,parking:surface","lat":2.8050831,"lng":-60.6894115},{"id":"4178356337","name":"Mercado Super 10","tags":"shop:supermarket","lat":2.8057703,"lng":-60.7217031},{"id":"4178400339","name":"Ultrafarma","tags":"amenity:pharmacy,healthcare:pharmacy","lat":2.8025231,"lng":-60.7169039},{"id":"4232924693","name":"5° Distrito Policial","tags":"addr:street:Rua Parque Industrial,amenity:police,opening_hours:24/7","lat":2.7703325,"lng":-60.7154524},{"id":"4296455027","tags":"amenity:parking","lat":2.8054112,"lng":-60.6900394},{"id":"4311855196","name":"São Jorge","tags":"addr:street:Avenida Centenário,shop:supermarket","lat":2.8001328,"lng":-60.7112565},{"id":"4323859941","name":"Restaurante Maria Bonita","tags":"addr:city:Boa Vista,addr:housenumber:259,addr:postcode:69300-000,addr:street:Rua Curió,addr:suburb:brigadeiro,amenity:restaurant","lat":2.7830032,"lng":-60.7096001},{"id":"4323870207","name":"Supermercado São Lucas","tags":"addr:street:Manoel Felipe,shop:supermarket","lat":2.8116411,"lng":-60.7234722},{"id":"4323877489","name":"Supermercado Gavião - Raiar do Sol","tags":"addr:city:Boa Vista,addr:housenumber:361,addr:street:Rua Estrela D'alva,addr:suburb:Raiar do Sol,name:pt:Supermercado Gavião,shop:supermarket","lat":2.7742711,"lng":-60.71735},{"id":"4324072514","name":"Escola Pedro Elias de Aburquerque Pereira","tags":"amenity:school","lat":2.8058113,"lng":-60.7308322},{"id":"4324079378","name":"Praça do Centenário","tags":"leisure:park","lat":2.793195,"lng":-60.716855},{"id":"4324157889","name":"Barracas do Poeta","tags":"amenity:cafe,cuisine:coffee_shop;brazilian,internet_access:wlan,name:pt:Barracão do Poeta","lat":2.8073212,"lng":-60.7160256},{"id":"4337349989","name":"Ponto de Ônibus","tags":"addr:street:Rua Santa Maria,amenity:bus_station","lat":2.7956546,"lng":-60.7140208},{"id":"4368589957","name":"Pizzaria bonanza","tags":"amenity:restaurant","lat":2.804189,"lng":-60.7110067},{"id":"4396291691","name":"Mercantil Samara","tags":"addr:street:Rua Bem Te Vi,name:pt:Mercantil Samara,opening_hours:Mo-Sa 08:00-12:00, 14:30-18:00,shop:supermarket","lat":2.7821588,"lng":-60.7059567},{"id":"4419277348","name":"Banco24Horas","tags":"amenity:atm,brand:Banco24Horas,brand:wikidata:Q4854069,brand:wikipedia:pt:Banco24Horas","lat":2.7969774,"lng":-60.6986248},{"id":"4419279257","name":"Banco24Horas","tags":"amenity:atm,brand:Banco24Horas,brand:wikidata:Q4854069,brand:wikipedia:pt:Banco24Horas","lat":2.8075149,"lng":-60.690196},{"id":"4438975998","name":"Café da Manhã Mae e Filha","tags":"addr:street:Rua Santa Maria,amenity:cafe,cuisine:diner;pasta;breakfast;coffee_shop,name:pt:Café da Manhã Mae e Filha,opening_hours:Mo-Su 06:00-11:30","lat":2.8001615,"lng":-60.7125374},{"id":"4873102422","name":"Canto do Açaí Gelateria","tags":"addr:street:Avenida Centenário,amenity:restaurant,cuisine:sandwich;regional;grill;diner;brazilian;local,name:pt:Canto do Açaí Gelateria,opening_hours:Mo-Su 09:00-22:30","lat":2.7966238,"lng":-60.6988383},{"id":"5011777455","name":"Escola Infantil Querubim","tags":"amenity:school","lat":2.8084875,"lng":-60.7265401},{"id":"5011777458","name":"escola estadual professora maria das neves rezende","tags":"amenity:school","lat":2.81216,"lng":-60.7222256},{"id":"5011777459","tags":"amenity:school","lat":2.8113529,"lng":-60.7223294},{"id":"5349889424","name":"Posto de saúde do Raiar do Sol","tags":"addr:street:Rua das Estrelas,amenity:hospital,opening_hours:Mo-Fr 08:00-18:00","lat":2.7751128,"lng":-60.7203624},{"id":"5713778621","name":"Rancho Silva","tags":"addr:street:Rua São Leopoldo,opening_hours:Mo-Sa 08:00-22:00,shop:supermarket","lat":2.8054651,"lng":-60.71531},{"id":"5969669787","name":"Clube do Servidor","tags":"leisure:sports_centre","lat":2.8084093,"lng":-60.7085715},{"id":"6112061258","name":"Pizzaria e Sorveteria Fornelonne 2","tags":"addr:housenumber:1463,addr:street:Alameda dos Bambus,amenity:restaurant,opening_hours:Tu-Su 18:00-00:00,phone:+55 95 3626-6703","lat":2.812259,"lng":-60.7026422},{"id":"6262163753","name":"Esquina da Economia","tags":"shop:convenience","lat":2.805591,"lng":-60.7218626},{"id":"6658305076","name":"Polo de Lazer Adonias Rabelo de Raujo - Clube do Trabalhardor","tags":"leisure:sports_centre","lat":2.8044918,"lng":-60.7320209},{"id":"6772863892","name":"Almeida Luiz - Sobrancelhas","tags":"addr:housenumber:589,addr:street:Rua Estrela Bonita,opening_hours:Mo-Sa 09:00-17:00,shop:beauty","lat":2.7723635,"lng":-60.7208128},{"id":"6799191687","name":"Meats and more meats","tags":"shop:supermarket","lat":2.7867336,"lng":-60.7005511},{"id":"7029712661","name":"Sabor de Casa","tags":"amenity:restaurant","lat":2.8111963,"lng":-60.6946779},{"id":"7029712668","name":"Frutaria WL","tags":"shop:supermarket","lat":2.811349,"lng":-60.72519},{"id":"9062405823","name":"Queiroz Boa Vista","tags":"shop:supermarket","lat":2.7987857,"lng":-60.7063148},{"id":"9062405824","name":"Interglobal Supermercado","tags":"shop:supermarket","lat":2.7993644,"lng":-60.7081494},{"id":"9063126986","name":"Banco24Horas","tags":"amenity:atm,brand:Banco24Horas,brand:wikidata:Q4854069,brand:wikipedia:pt:Banco24Horas","lat":2.7866824,"lng":-60.7009638},{"id":"9366204111","name":"Macuxi","tags":"shop:supermarket","lat":2.7969179,"lng":-60.7310877},{"id":"9367533629","name":"Maternidade Nossa Senhora de Nazaré","tags":"amenity:hospital,healthcare:birthing_centre,healthcare:speciality:obstetrics","lat":2.8040508,"lng":-60.6917573},{"id":"9560575254","tags":"shop:supermarket","lat":2.8099551,"lng":-60.7273512},{"id":"9654273210","name":"Drogaria do Trabalhador","tags":"amenity:pharmacy","lat":2.8001814,"lng":-60.7113993},{"id":"9858858659","name":"Caixa Econômica Federal","tags":"amenity:bank,brand:Caixa Econômica Federal,brand:wikidata:Q835283","lat":2.7749913,"lng":-60.7176047},{"id":"10078685592","name":"Banco24horas","tags":"amenity:atm","lat":2.8016151,"lng":-60.6958769},{"id":"10557798633","name":"Banco24Horas","tags":"amenity:atm,brand:Banco24Horas,brand:wikidata:Q4854069","lat":2.8044658,"lng":-60.6885361}]