[{"id":"2077528140","tags":"amenity:atm","lat":0.050128,"lng":-51.0682968},{"id":"4598367791","name":"Casa do Aldemir","tags":"addr:street:Rua Raimundo Ramos da Silva,amenity:bar,name:pt:Casa do Aldemir","lat":0.0735619,"lng":-51.0908345},{"id":"4774834541","name":"Farmacia Fortaleza","tags":"addr:city:Macapá,addr:street:Rua Brasil Novo,addr:suburb:Brasil Novo,amenity:pharmacy","lat":0.0875763,"lng":-51.0858565},{"id":"4774890087","name":"Escola Estadual Maria Neusa Carmo de Souza","tags":"addr:city:Macapá,addr:street:Rua Milton Souza Corrêa,addr:suburb:Jardim Felicidade I,amenity:school","lat":0.083642,"lng":-51.0656476},{"id":"5233319422","name":"2° Batalhão PM","tags":"amenity:police","lat":0.0772784,"lng":-51.0668104},{"id":"5233319426","name":"Mercantil Romão","tags":"shop:supermarket","lat":0.0692016,"lng":-51.0858604},{"id":"5235202022","name":"Comercial Pegue e Pague","tags":"shop:supermarket","lat":0.0700195,"lng":-51.0846389},{"id":"5235202523","name":"Farmafort Popular","tags":"amenity:pharmacy","lat":0.0706947,"lng":-51.0835228},{"id":"5235210922","name":"Central da Economia","tags":"shop:supermarket","lat":0.0697021,"lng":-51.0852742},{"id":"5235210923","name":"Escola verá Lúcia Pinon","tags":"amenity:school","lat":0.0708267,"lng":-51.0830417},{"id":"5247181624","tags":"amenity:atm,operator:Caixa eletrônico da farmácia","lat":0.0706506,"lng":-51.0835525},{"id":"5824566660","name":"Mini Box do Nego","tags":"shop:supermarket","lat":0.0757152,"lng":-51.0760717},{"id":"5834930778","name":"Escola Profº Antônio Ferreira de Lima Neto","tags":"amenity:school","lat":0.071495,"lng":-51.0899437},{"id":"6396469426","name":"Mercadinha do Jogador","tags":"addr:city:Macapá,addr:street:Rua Ayrton Senna,addr:suburb:Boné Azul,operator:Jogador,shop:supermarket","lat":0.0826205,"lng":-51.0748412},{"id":"6396470742","name":"Comercial São Jorge","tags":"addr:city:Macapá,addr:street:Rua Nações Unidas,addr:suburb:Boné Azul,operator:Alda,shop:supermarket","lat":0.0832803,"lng":-51.0744594},{"id":"6396496807","name":"Comercial Goias","tags":"addr:city:Macapá,addr:street:Avenida Anníbal Barcellos,addr:suburb:Boné Azul,operator:Seu Pedro,shop:supermarket","lat":0.0821538,"lng":-51.0733784},{"id":"6396496808","name":"Padaria Pão Nosso","tags":"addr:city:Macapá,addr:street:Avenida Anníbal Barcellos,addr:suburb:Boné Azul,amenity:cafe,outdoor_seating:yes","lat":0.0820643,"lng":-51.0734236},{"id":"6396496809","name":"Escola Mundo Colorido","tags":"addr:city:Macapá,addr:street:Avenida Anníbal Barcellos,addr:suburb:Boné Azul,amenity:school","lat":0.0819394,"lng":-51.0734905},{"id":"6396496810","name":"Escola Tia Oneide","tags":"addr:city:Macapá,addr:street:Rua das Flores,addr:suburb:Boné Azul,amenity:school","lat":0.0836297,"lng":-51.0732236},{"id":"8204263445","name":"Automotiva Lava Jato","tags":"amenity:car_wash","lat":0.0826236,"lng":-51.0647293}]