[{"id":"3818152283","name":"Escuela 646 Pedro Rómulo Tuoti","tags":"addr:city:Monte Caseros,addr:housenumber:548,addr:postcode:3220,addr:street:Avenida Del Libertador,amenity:school,isced:level:1,official_name:Escuela Primaria Nº 646 Pedro Rómulo Tuoti,operator:type:public,ref:cue:180098200","lat":-30.2545424,"lng":-57.6449108},{"id":"5110357229","name":"Escuela 88 Del Centenario","tags":"addr:city:Monte Caseros,addr:housenumber:1050,addr:postcode:3220,addr:street:Juan Pujol,amenity:school,isced:level:1,operator:type:public,ref:cue:180081300","lat":-30.2533809,"lng":-57.6358728},{"id":"5110357280","name":"Escuela de Educación Técnica Pedro Ferre","tags":"addr:city:Monte Caseros,addr:housenumber:1284,addr:postcode:3220,addr:street:Juan Pujol,amenity:school,isced:level:2,operator:type:public,ref:cue:180043100","lat":-30.2536507,"lng":-57.6387181},{"id":"9803897740","name":"Banco de la Provincia de Corrientes","tags":"addr:city:Monte Caseros,addr:housenumber:1602,addr:postcode:3220,addr:street:Eva Duarte,amenity:bank,description:Susti,operator:Monte Caseros","lat":-30.2528683,"lng":-57.6436881},{"id":"9806238632","name":"Cajero Automático Monte Caseros (Alvear 1602)","tags":"addr:housenumber:1602,addr:street:Eva Duarte,amenity:atm,description:Susti,network:Link,operator:Banco de la Provincia de Corrientes","lat":-30.2528904,"lng":-57.643666}]