[{"id":"6750893299","name":"CDD (Centro de Distribuição) Uruguaiana","tags":"amenity:post_office,operator:Correios","lat":-29.7508209,"lng":-57.0814079},{"id":"7711769929","name":"Free Shop","tags":"shop:supermarket","lat":-29.7490345,"lng":-57.0815106},{"id":"8273867494","name":"Polícia Federal","tags":"amenity:police,operator:Polícia Federal do Brasil,operator:en:Federal Police of Brazil,operator:wikidata:Q2289697,operator:wikipedia:pt:Polícia Federal do Brasil","lat":-29.7479775,"lng":-57.0836458},{"id":"8963159267","name":"Churrascaria Braseiru's River","tags":"addr:city:uruguaiana,addr:housenumber:1112,addr:postcode:97501618,addr:street:Rua Sete de Setembro,amenity:restaurant,cuisine:regional,phone:+555534024332","lat":-29.7490382,"lng":-57.0818136},{"id":"9043997267","name":"Delegacia PRF","tags":"addr:city:Uruguaiana,addr:street:Terminal Aduaneiro da BR-290,amenity:police,opening_hours:Mo-Fr 08:00-17:00,operator:Polícia Rodoviária Federal,operator:wikidata:Q1158853,operator:wikipedia:pt:Polícia Rodoviária Federal,phone:+55 55 3412 4774","lat":-29.7480193,"lng":-57.0836695}]