[{"id":"2127242882","name":"Banco Santa Fe","tags":"addr:city:Alvear,addr:postcode:3344,addr:street:Carlos pellegrini,amenity:bank,brand:Banco Santa Fe,brand:en:Santa Fe Bank,brand:es:Banco Santa Fe,brand:wikidata:Q6046871,brand:wikipedia:es:Nuevo Banco de Santa Fe,drive_through:no,name:en:Santa Fe Bank,name:es:Banco Santa Fe,official_name:Nuevo Banco de Santa Fe,official_name:en:New Bank of Santa Fe,official_name:es:Nuevo Banco de Santa Fe,phone:+54 03772 470035,website:https://www.bancodecorrientes.com.ar,wheelchair:limited","lat":-29.1000707,"lng":-56.5542912},{"id":"2127242888","name":"Santa Teresita","tags":"addr:city:Alvear,addr:housenumber:547,addr:postcode:3344,addr:street:Centenario,amenity:pharmacy,drive_through:no,healthcare:pharmacy,operator:Santa Teresita,payment:cash:yes,payment:coins:yes,payment:credit_cards:yes,phone:+54 03772 470099,wheelchair:limited","lat":-29.0989877,"lng":-56.5527678},{"id":"2127242891","name":"Banco Nación","tags":"addr:city:Alvear,addr:housenumber:499,addr:postcode:3344,addr:street:Centenario,amenity:bank,atm:yes,brand:Banco Nación,brand:en:Nation Bank,brand:es:Banco Nación,brand:wikidata:Q2883376,brand:wikipedia:en:Banco de la Nación Argentina,contact:website:http://www.bna.com.ar/,drive_through:no,fax:+54 0810 6664444,name:en:Nation Bank,name:es:Banco Nación,official_name:Banco de la Nación Argentina,official_name:en:Bank of the Argentine Nation,official_name:es:Banco de la Nación Argentina,phone:+54 03772 470109,short_name:BNA,website:https://www.bna.com.ar/,wheelchair:limited","lat":-29.0995504,"lng":-56.5527999},{"id":"4228999311","name":"Policía","tags":"addr:city:Alvear,addr:postcode:3344,addr:street:Carlos pellegrini,amenity:police,wheelchair:limited","lat":-29.0995076,"lng":-56.5539395},{"id":"4376764101","name":"Escuela Especial 18","tags":"addr:city:Alvear,addr:full:Carlos Pellegrini y Belmont,addr:housenumber:687,addr:postcode:3344,addr:street:Carlos Pellegrini,amenity:school,operator:type:public,ref:cue:180029500,wheelchair:yes","lat":-29.0976469,"lng":-56.5534851},{"id":"5111998271","name":"Escuela 226 Luisa Cuareta","tags":"addr:city:Alvear,addr:housenumber:884,addr:postcode:3344,addr:street:San Martín,amenity:school,isced:level:1,operator:type:public,ref:cue:180029300,wheelchair:limited","lat":-29.0996547,"lng":-56.5488945},{"id":"5370348365","name":"Biblioteca Popular Carlos Maria de Alvear","tags":"addr:city:Alvear,addr:housenumber:532,addr:postcode:3344,addr:street:Centenario,amenity:library,description:En Plaza 9 de Julio.,internet_access:no,operator:Francisco Alcaraz,phone:+54 03772 470167,website:https://bibliotecapopularcarlosmariadealvear.wordpress.com","lat":-29.0990556,"lng":-56.5530578},{"id":"5370348366","name":"Patio Cervecero Coco RestoBar","tags":"addr:city:Alvear,addr:postcode:3344,addr:street:Belmont,amenity:bar,brewery:various;yes,operator:Coco RestoBar,smoking:outside","lat":-29.0974819,"lng":-56.5519886},{"id":"5370348367","name":"Autoservicio Vicenti","tags":"addr:city:Alvear,addr:postcode:3344,addr:street:San Martín,operator:Vicenti,payment:cash:yes,payment:coins:yes,payment:credit_cards:yes,payment:debit_cards:yes,shop:supermarket","lat":-29.0995252,"lng":-56.5533894},{"id":"9804035809","name":"Sucursal Alvear","tags":"addr:city:Alvear,addr:postcode:3344,addr:street:Eladio Hidalgo,amenity:bank,description:Dirección: Eladio Hidalgo y Carlos Pellegrini,operator:Banco de Corrientes","lat":-29.1000904,"lng":-56.5542363},{"id":"9806137999","tags":"addr:city:Alvear,addr:housenumber:Eladio Hidalgo y Carlos Pellegrini,amenity:atm,network:Link,operator:Banco de Corrientes","lat":-29.1000868,"lng":-56.554249}]