[{"id":"3805293135","name":"Colegio","tags":"amenity:school","lat":-33.6918213,"lng":-53.4655753},{"id":"10073006307","name":"Muni Market","tags":"shop:supermarket","lat":-33.6917066,"lng":-53.4693566},{"id":"10073101392","name":"Sesquinho Guarderia","tags":"amenity:childcare","lat":-33.6919145,"lng":-53.4655198},{"id":"10073284375","name":"Jardin Maternal Primeros Pasos","tags":"amenity:childcare","lat":-33.6922877,"lng":-53.4673427},{"id":"10073284381","name":"Lavadero Punto VIP","tags":"amenity:car_wash","lat":-33.6923577,"lng":-53.4653568}]