[{"id":"8892919769","name":"Comercial Silva","tags":"shop:convenience","lat":-31.7512309,"lng":-52.3674013},{"id":"8892919771","name":"Casa das Rações","tags":"shop:pet","lat":-31.7522858,"lng":-52.3668773},{"id":"8892919774","name":"Bar do Alimão","tags":"amenity:bar","lat":-31.7522695,"lng":-52.3664318},{"id":"8892919776","name":"Só Remédios","tags":"amenity:pharmacy","lat":-31.7529339,"lng":-52.3664632},{"id":"8892919779","name":"Mercado Bergman","tags":"shop:convenience","lat":-31.7537322,"lng":-52.3644365},{"id":"8892919780","tags":"addr:housenumber:91,addr:street:Rua Almirante Guilhobel,amenity:pharmacy,brand:Tchê Farmácias","lat":-31.754166,"lng":-52.3643646},{"id":"8892919782","name":"Xavier Alimentos","tags":"shop:convenience","lat":-31.7540512,"lng":-52.3636839},{"id":"8892919783","tags":"addr:housenumber:62,addr:street:Rua Almirante Guilhobel,amenity:bar","lat":-31.7538843,"lng":-52.3641253},{"id":"8892919784","name":"Super Cantina","tags":"shop:convenience","lat":-31.7531601,"lng":-52.3662135}]