[{"id":"4777683923","name":"Só Remédios","tags":"amenity:pharmacy,healthcare:pharmacy","lat":-31.7189158,"lng":-52.3537672},{"id":"4777683924","name":"Tamaju","tags":"addr:housenumber:505,addr:street:Rua São Paulo,amenity:restaurant","lat":-31.7200714,"lng":-52.3542341},{"id":"8931353961","name":"Carol Minimercado","tags":"shop:convenience","lat":-31.7179231,"lng":-52.3531045},{"id":"8931353966","name":"Confraria","tags":"amenity:bar","lat":-31.7193036,"lng":-52.3539239},{"id":"8931353967","name":"Bar do Ronaldo","tags":"amenity:bar","lat":-31.7192395,"lng":-52.353898},{"id":"8931448766","tags":"amenity:bar","lat":-31.7227719,"lng":-52.3537097},{"id":"8931448768","name":"Comercial Reichow","tags":"shop:convenience","lat":-31.7228696,"lng":-52.3533867}]