[{"id":"4777662639","name":"Karnopp","tags":"amenity:restaurant,cuisine:barbecue","lat":-31.7236847,"lng":-52.3498712},{"id":"7983541585","name":"Assados Moreira","tags":"amenity:restaurant,cuisine:regional,opening_hours:Mo-Su 10:00-20:00,wheelchair:yes","lat":-31.7283291,"lng":-52.350299},{"id":"7983541600","name":"Quitanda","tags":"addr:city:Pelotas,addr:housenumber:179,addr:postcode:96065-340,addr:street:Rua João Jacob Baini,addr:suburb:Três Vendas,opening_hours:Mo-Su 09:00-21:00,shop:supermarket","lat":-31.7283288,"lng":-52.350625},{"id":"7983541759","tags":"shop:convenience","lat":-31.7277657,"lng":-52.3501298},{"id":"8931448776","name":"Restaurante Mezenga","tags":"addr:housenumber:371,addr:street:Rua Santa Clara,amenity:restaurant","lat":-31.7235768,"lng":-52.3510478},{"id":"8931448778","tags":"amenity:pharmacy,brand:Tchê Farmácias","lat":-31.7235792,"lng":-52.35022},{"id":"8931448779","name":"C. A. F. Supera","tags":"leisure:fitness_centre","lat":-31.7238228,"lng":-52.3502343}]