[{"id":"3277018309","name":"Casa de Saúde","tags":"amenity:hospital,healthcare:hospital","lat":-30.8985559,"lng":-55.5302971},{"id":"3277018311","name":"Itaú","tags":"addr:city:Sant'Ana do Livramento,addr:housenumber:88,addr:postcode:97573-000,addr:street:Rua dos Andradas,addr:suburb:Centro,amenity:bank,atm:yes","lat":-30.8943167,"lng":-55.5355488},{"id":"3277018313","tags":"amenity:police","lat":-30.8937035,"lng":-55.5344132},{"id":"6557855404","name":"Banrisul","tags":"addr:city:Sant'Ana do Livramento,addr:street:Rua dos Andradas,addr:suburb:Centro,amenity:bank,atm:yes,brand:Banrisul,brand:wikidata:Q4857098,brand:wikipedia:en:Banrisul","lat":-30.8948615,"lng":-55.5358732},{"id":"6558509622","name":"MP Fit","tags":"addr:city:Sant'Ana do Livramento,addr:housenumber:2270,addr:street:Avenida Tamandaré,addr:suburb:Centro,leisure:fitness_centre,phone:+55 55 3243-4724","lat":-30.8955839,"lng":-55.5348698},{"id":"6558528824","tags":"shop:convenience","lat":-30.8954753,"lng":-55.5349555}]