[{"id":"2320037291","name":"Banco do Brasil","tags":"amenity:bank,brand:Banco do Brasil,brand:wikidata:Q610817,brand:wikipedia:en:Banco do Brasil","lat":-30.2591536,"lng":-54.9151567},{"id":"2448060619","name":"Bradesco","tags":"amenity:bank,atm:yes,brand:Bradesco,brand:wikidata:Q806181,brand:wikipedia:en:Banco Bradesco","lat":-30.2574295,"lng":-54.9172684},{"id":"2448060838","name":"Mais Econômica I","tags":"amenity:pharmacy,healthcare:pharmacy","lat":-30.2574295,"lng":-54.9174455},{"id":"5775874295","name":"Lavacar","tags":"amenity:car_wash,building:yes","lat":-30.2582054,"lng":-54.9189658},{"id":"9124482763","name":"GoCoffee Rosário do Sul","tags":"addr:city:Rosário do Sul,addr:housenumber:2355,addr:postcode:97590-000,addr:street:Rua Amaro Souto,addr:suburb:Centro,air_conditioning:yes,amenity:cafe,cuisine:coffee,internet_access:yes,phone:55996188619,wheelchair:yes","lat":-30.2590846,"lng":-54.9174288},{"id":"9894139899","name":"Drogaria Cidade","tags":"amenity:pharmacy","lat":-30.2574395,"lng":-54.9167851},{"id":"9894139905","name":"Caverá","tags":"amenity:restaurant","lat":-30.2588223,"lng":-54.9173637}]