[{"id":"2149864164","name":"Telúrica","tags":"amenity:restaurant,cuisine:pizza","lat":-30.8115929,"lng":-53.9005129},{"id":"2149864353","name":"Supermercado Center","tags":"shop:supermarket","lat":-30.8121542,"lng":-53.8998438},{"id":"2602381792","tags":"amenity:restaurant","lat":-30.812879,"lng":-53.8994637},{"id":"2602381794","name":"Restaurante e Lancheria Central","tags":"amenity:restaurant","lat":-30.8131343,"lng":-53.8993238},{"id":"5455215217","name":"Praia do Paredão","tags":"leisure:park","lat":-30.8120644,"lng":-53.9070464},{"id":"6428362817","name":"Agência de Correios","tags":"addr:city:Lavras do Sul,addr:housenumber:330,addr:postcode:97390-000,addr:street:Rua João Luchsinger Bulcão,addr:suburb:Centro,amenity:post_office","lat":-30.8120901,"lng":-53.8990422}]