[{"id":"3375841987","name":"Nascimento","tags":"alt_name:Mercado, Açougue e Padaria Nascimento,old_name:Mercado Caturrita,shop:supermarket","lat":-29.6713148,"lng":-53.84201},{"id":"3375841989","name":"Parada do Rancho","tags":"shop:supermarket","lat":-29.6696073,"lng":-53.8395192},{"id":"9001944928","name":"EMEI Zahie Bered Farret","tags":"addr:postcode:97040-430,addr:street:Rua Santa Bárbara,amenity:school,official_name:Escola Municipal de Ensino Infantil Zahie Bered Farret,operator:Prefeitura,operator:type:public,ref:INEP:43188940","lat":-29.6704879,"lng":-53.8410544},{"id":"9001944929","name":"EMEF Lidovino Fanton","tags":"addr:postcode:97040-430,addr:street:Rua Santa Bárbara,amenity:school,contact:email:lidovinofanton.fanton43@gmail.com,official_name:Escola Municipal de Ensino Fundamental Lidovino Fanton,operator:Prefeitura,operator:type:public,ref:INEP:43123775","lat":-29.6703609,"lng":-53.841269},{"id":"9101610208","name":"Mercado Moreira","tags":"shop:convenience","lat":-29.6709342,"lng":-53.8391259}]