[{"id":"4213073690","name":"Academia","tags":"contact:phone:+55 55 3027-6960,leisure:sports_centre,sport:fitness","lat":-29.702517,"lng":-53.8226495},{"id":"4214385702","name":"Mini Mercado Bordin","tags":"contact:phone:+55 55 3221-8602,shop:convenience","lat":-29.7029032,"lng":-53.8227286},{"id":"4214385703","name":"Shirley","tags":"alt_name:Salão de Beleza Shirley,contact:phone:+55 55 3286-4104;+55 55 99142-6970;+55 55 98418-3319;+55 55 99952-8806,description:Depilação, peicure, manicure, hidratação, corte, tinturas, luzes, escovas,shop:beauty","lat":-29.7028176,"lng":-53.8227672},{"id":"4214385707","tags":"amenity:car_wash","lat":-29.7021389,"lng":-53.8232177},{"id":"8980311360","name":"Faculdade Palotina","tags":"addr:housenumber:115,addr:postcode:97020-590,addr:street:Rua Padre Alziro Roggia,amenity:university,contact:email:fapas@fapas.edu.br,contact:phone:+55 55 3220-4575,contact:website:https://fapas.edu.br,ref:vatin:BR17597895000439,short_name:FAPAS","lat":-29.7028107,"lng":-53.8269675},{"id":"8980311361","name":"Pallotti","tags":"addr:housenumber:115,addr:postcode:97020-590,addr:street:Rua Padre Alziro Roggia,alt_name:Colégio Antônio Alves Ramos,amenity:school,contact:email:colegioantonioalves@pallottism.com.br,contact:phone:+55 55 3220-4550,contact:website:http://www.colegioantonioalvesramos.g12.br/,ref:vatin:BR17597895000358","lat":-29.7027594,"lng":-53.8279009}]