[{"id":"1446521787","name":"Big Santa Maria","tags":"addr:housenumber:1483,addr:street:Avenida Fernando Ferrari,contact:website:http://www.walmartbrasil.com.br/,operator:WMS Supermercados do Brasil Ltda,ref:vatin:BR93209765002080,shop:supermarket","lat":-29.6974974,"lng":-53.7976813},{"id":"3304647535","tags":"addr:housenumber:1450,addr:postcode:97050-590,addr:street:Rua Pedro Pereira,amenity:atm,brand:Banco24Horas,brand:wikidata:Q4854069,contact:phone:0800 56 2400;0800 772 1820,contact:website:https://www.banco24horas.com.br,network:Banco24Horas,opening_hours:24/7,operator:Tecnologia Bancária S.A.","lat":-29.7015183,"lng":-53.796769},{"id":"4348113123","name":"CIA dos Bichos","tags":"addr:city:Santa Maria,addr:housenumber:1651,addr:street:Avenida Fernando Ferrari,addr:suburb:Nossa senhora de Lourdes,contact:phone:+55 55 3028-1446,opening_hours:covid19:open,payment:cash:yes,payment:coins:yes,payment:credit_cards:yes,payment:debit_cards:yes,payment:mastercard:yes,payment:visa:yes,phone:+55 55 30281446,shop:pet","lat":-29.6979125,"lng":-53.7955918},{"id":"4348113126","name":"Santo Sabor","tags":"addr:housenumber:2160,addr:postcode:97050-800,addr:street:Avenida Fernando Ferrari,amenity:restaurant,contact:phone:+55 55 3222-0503;+55 55 3027-1513,cuisine:steak_house","lat":-29.7001652,"lng":-53.7918788},{"id":"4348113128","name":"Zappas","tags":"addr:housenumber:224,addr:postcode:97050-550,addr:street:Rua Otavio Alves de Oliveira,contact:phone:+55 55 3225-1130,shop:supermarket","lat":-29.6964742,"lng":-53.7940294},{"id":"4413505224","tags":"addr:housenumber:1450,addr:postcode:97050-590,addr:street:Rua Pedro Pereira,amenity:atm,brand:Banco24Horas,brand:wikidata:Q4854069,contact:phone:0800 56 2400;0800 772 1820,contact:website:https://www.banco24horas.com.br,network:Banco24Horas,opening_hours:24/7,operator:Tecnologia Bancária S.A.","lat":-29.7015245,"lng":-53.7967624},{"id":"4429052738","name":"Del fuego","tags":"alt_name:Las Lenas Uruguai Brasil,amenity:restaurant,contact:phone:+55 55 3027-2550","lat":-29.6984014,"lng":-53.7943865},{"id":"4430938049","name":"Escola Estadual Indígena de Ensino Fundamental Augusto Ope da Silva","tags":"addr:street:Rua Joana D'arc,amenity:school,operator:Estadual","lat":-29.700472,"lng":-53.7983166},{"id":"4440646708","tags":"amenity:parking","lat":-29.700739,"lng":-53.794944},{"id":"4608876447","tags":"addr:housenumber:1483,addr:postcode:97050-801,addr:street:Avenida Fernando Ferrari,amenity:atm,brand:Banrisul,contact:phone:0800 646 1515;0800 648 1907,contact:website:https://www.banrisul.com.br/,operator:Banrisul S.A.","lat":-29.6974118,"lng":-53.7971145},{"id":"4608876448","tags":"addr:housenumber:1483,addr:postcode:97050-801,addr:street:Avenida Fernando Ferrari,amenity:atm,brand:Banrisul,contact:phone:0800 646 1515;0800 648 1907,contact:website:https://www.banrisul.com.br/,operator:Banrisul S.A.","lat":-29.6974131,"lng":-53.7970823},{"id":"4608876449","tags":"addr:housenumber:1483,addr:postcode:97050-801,addr:street:Avenida Fernando Ferrari,amenity:atm,brand:Banco24Horas,brand:wikidata:Q4854069,contact:phone:0800 56 2400;0800 772 1820,contact:website:https://www.banco24horas.com.br,network:Banco24Horas,operator:Tecnologia Bancária S.A.","lat":-29.6971198,"lng":-53.7968945},{"id":"5015644241","name":"Big","tags":"addr:housenumber:1483,addr:street:Avenida Fernando Ferrari,amenity:pharmacy","lat":-29.6973311,"lng":-53.7979516},{"id":"5106514588","name":"All Set South","tags":"addr:housenumber:1483,addr:street:Avenida Fernando Ferrari,contact:phone:+55 55 3217-7852;+55 55 98464-4241,contact:website:http://www.allsetsouth.com.br/,shop:convenience","lat":-29.6974008,"lng":-53.7974077},{"id":"5129875833","name":"Andréia Rios Coiffeur","tags":"contact:phone:+55 55 3221-4578,contact:website:http://www.andreiarios.com.br/,shop:beauty","lat":-29.6972411,"lng":-53.7948494},{"id":"5308424393","tags":"level:1,shop:convenience","lat":-29.7013385,"lng":-53.7962587},{"id":"6093998793","name":"Maccherone","tags":"amenity:restaurant,contact:facebook:https://www.facebook.com/pg/MaccheroneTrattoria/,cuisine:italian_pizza,diet:vegan:no,diet:vegetarian:yes,drink:cola:draught,drink:water:bottled,opening_hours:11:45-14:45,15:15-22:00,outdoor_seating:yes,reservation:yes,self_service:only,takeaway:yes","lat":-29.6977258,"lng":-53.7970215},{"id":"6432040460","name":"Livraria Santos","tags":"shop:books","lat":-29.6975533,"lng":-53.7969611},{"id":"6432040461","name":"Fino Trato","tags":"description:Clínica de Embelezamento,shop:beauty","lat":-29.6974846,"lng":-53.7971019},{"id":"6432040462","name":"Via Exata","tags":"addr:door:Loja 20,amenity:pharmacy,contact:email:viaexata@viaexata.com.br,contact:phone:+55 55 3025-3026,contact:website:http://www.viaexata.com.br/,opening_hours:Mo-Sa 10:00-22:00","lat":-29.697544,"lng":-53.7970805}]