[{"id":"2656924097","name":"Nacional","tags":"addr:housenumber:1321,addr:postcode:97060-003,addr:street:Avenida Nossa Senhora Medianeira,contact:website:http://www.walmartbrasil.com.br/,opening_hours:Mo-Sa 08:00-22:00,operator:Walmart Brasil,shop:supermarket","lat":-29.6967455,"lng":-53.8057758},{"id":"3334432717","name":"Focinhos Carinhosos","tags":"contact:phone:+55 55 3307-1624,description:Pet Shop e estética animal,shop:pet","lat":-29.699748,"lng":-53.803863},{"id":"3334432718","name":"Mercado Weber","tags":"contact:email:mercadowebersm@gmail.com,contact:phone:+55 55 3307-5801,shop:convenience","lat":-29.6997647,"lng":-53.8013524},{"id":"3361522802","name":"Mercado Kuntz","tags":"shop:convenience","lat":-29.7006655,"lng":-53.8037334},{"id":"3361522809","name":"Estilo Lavagem","tags":"amenity:car_wash","lat":-29.7007703,"lng":-53.803677},{"id":"4401924892","name":"Medianeira","tags":"addr:housenumber:1045,addr:street:Avenida Nossa Senhora Medianeira,amenity:bank,atm:yes,brand:Banrisul,contact:website:https://www.banrisul.com.br,opening_hours:Mo-Fr 11:00-16:00 open \\Agência\\; PH off \\Agência\\; Mo-Sa 07:00-20:00 open \\Autoatendimento\\; Su 08:30-17:00 open \\Autoatendimento\\,operator:Banrisul S.A.,wheelchair:yes","lat":-29.6973485,"lng":-53.8087505},{"id":"4401926392","name":"Sicredi","tags":"addr:housenumber:1040,addr:postcode:97060-002,addr:street:Avenida Nossa Senhora Medianeira,amenity:bank,brand:Sicredi,brand:wikidata:Q3483060,brand:wikipedia:pt:Sistema de Crédito Cooperativo,contact:website:https://www.sicredi.com.br,opening_hours:Mo-Fr 11:00-16:00 open \\Agência\\,operator:Sicredi Participações S.A.","lat":-29.6969721,"lng":-53.8089831},{"id":"4600632839","tags":"addr:housenumber:1321,addr:postcode:97060-003,addr:street:Avenida Nossa Senhora Medianeira,amenity:atm,brand:Banco24Horas,brand:wikidata:Q4854069,contact:phone:0800 56 2400;0800 772 1820,contact:website:https://www.banco24horas.com.br,network:Banco24Horas,operator:Tecnologia Bancária S.A.","lat":-29.6966659,"lng":-53.8056868},{"id":"5023175806","name":"Agafarma","tags":"addr:housenumber:1321,addr:street:Avenida Nossa Senhora Medianeira,amenity:pharmacy,contact:website:http://www.agafarma.com.br/,level:0","lat":-29.6966029,"lng":-53.8063782},{"id":"5208819906","name":"Santander","tags":"addr:housenumber:901,addr:postcode:97060-001,addr:street:Avenida Nossa Senhora Medianeira,amenity:bank,atm:yes,brand:Santander,brand:wikidata:Q2882087,brand:wikipedia:pt:Banco Santander (Brasil),contact:website:https://www.santander.com.br,opening_hours:Mo-Fr 11:00-16:00 open \\Agência\\; 06:00-22:00 open \\Autoatendimento\\,operator:Banco Santander (Brasil) S.A.","lat":-29.6981243,"lng":-53.8100279},{"id":"5627362679","name":"Berola","tags":"amenity:cafe,contact:phone:+55 55 3033-1501;+55 55 99931-2497,shop:coffee","lat":-29.6967138,"lng":-53.8056076},{"id":"5627362681","name":"Bellrose","tags":"amenity:restaurant,contact:phone:+55 55 3213-4680","lat":-29.6966748,"lng":-53.8053899},{"id":"5627362694","name":"Centro Integrado de Formação Tecnologica","tags":"amenity:school,contact:phone:+55 55 3025-3000,contact:website:http://www.escolacietec.com.br/,level:1,short_name:Cietec","lat":-29.6966873,"lng":-53.8060579},{"id":"5627430024","name":"Museu Histórico e Cultural das Irmãs Franciscanas","tags":"addr:housenumber:1267,addr:postcode:97060-003,addr:street:Avenida Nossa Senhora Medianeira,contact:phone:+55 55 3220-5525,short_name:MHIF,tourism:museum,wikidata:Q56694574","lat":-29.6970995,"lng":-53.8072132},{"id":"6541095070","name":"Mamma Veg","tags":"addr:housenumber:326,addr:postcode:97060-130,addr:street:Travessa Ceará,amenity:restaurant,contact:facebook:https://www.facebook.com/MammaVegBrasil,contact:instagram:https://www.instagram.com/mammavegbrasil,contact:phone:+55 55 98111-9420,diet:vegan:only,opening_hours:Tu-Sa 11:30-14:00","lat":-29.7000006,"lng":-53.8016258}]