[{"id":"3310640535","name":"Bar do Kiko","tags":"amenity:bar","lat":-29.6941586,"lng":-53.8580134},{"id":"3310640540","name":"Mercado e Açougue do Alemão","tags":"shop:convenience","lat":-29.6940781,"lng":-53.8573883},{"id":"3310640542","name":"Santa Marta","tags":"addr:street:Avenida Alcides Roth,brand:Rede Super,shop:supermarket","lat":-29.6918055,"lng":-53.8585473},{"id":"3310640560","tags":"shop:supermarket","lat":-29.6911319,"lng":-53.8584715},{"id":"7508165936","name":"Farmácia Distrital Floriano Rocha","tags":"amenity:pharmacy,opening_hours:Mo-Fr 07:30-12:00, 13:00-15:00","lat":-29.6909371,"lng":-53.86263},{"id":"9088585514","name":"Farmácia T. Neves","tags":"amenity:pharmacy","lat":-29.6912249,"lng":-53.8590296},{"id":"9088585515","name":"MB Farmácias","tags":"amenity:pharmacy,contact:whatsapp:+55 55 3195-0800,delivery:yes","lat":-29.6914081,"lng":-53.8587852},{"id":"9142940736","name":"Lavagem Ávila","tags":"amenity:car_wash","lat":-29.6959306,"lng":-53.8630177},{"id":"9142940741","tags":"amenity:veterinary,shop:pet","lat":-29.6960308,"lng":-53.8633409}]