[{"id":"3310192211","name":"Lavagem Fagundes","tags":"amenity:car_wash","lat":-29.697436,"lng":-53.734797},{"id":"3338253717","tags":"description:Rações e aquarios,shop:pet","lat":-29.6972203,"lng":-53.7349962},{"id":"3687032352","name":"Help Veterinária","tags":"amenity:veterinary,contact:phone:+55 55 99132-6066;+55 55 99972-8947,description:Banho e tosa, consultório e atendimento veterinário,shop:pet","lat":-29.6964815,"lng":-53.7387474},{"id":"3687132366","name":"Jane Banho e Tosa","tags":"contact:phone:+55 55 3226-3586,shop:pet","lat":-29.6964073,"lng":-53.7380203},{"id":"3743492503","name":"Lavagem da Velha","tags":"amenity:car_wash","lat":-29.6965066,"lng":-53.7365018},{"id":"5889527556","name":"Edileni Staevie","tags":"contact:phone:+55 55 3311-7981;+55 55 99698-7131,description:Depilação, massagens, estética, terapêutica relaxante, drenagem linfática,shop:beauty,slogan:Corpo em equilíbrio","lat":-29.6987708,"lng":-53.7352976}]