[{"id":"3246245457","tags":"amenity:parking","lat":-29.699688,"lng":-53.7307223},{"id":"3883788428","name":"Royal","tags":"addr:housenumber:132,addr:postcode:97110-000,addr:street:Avenida João Machado Soares,alt_name:Supermercado Royal,contact:email:supermercadoroyal@gmail.com,contact:facebook:facebook.com/roial.royal,contact:phone:+55 55 3226-2424,description:Aceita banricompras, visa, mastercard, cielo, VerdeCard, Sodexo, Sicredi, ticket alimentação, vale, elo,opening_hours:Mo-Sa 08:00-20:00,shop:supermarket","lat":-29.697419,"lng":-53.7318037},{"id":"3916381980","tags":"amenity:parking,description:Estacionamento subterrâneo coberto,layer:-1","lat":-29.7005761,"lng":-53.7308904},{"id":"4581871710","tags":"addr:housenumber:5941,addr:street:Avenida Prefeito Evandro Behr,amenity:atm,brand:Banco24Horas,brand:wikidata:Q4854069,contact:phone:0800 56 2400;0800 772 1820,contact:website:https://www.banco24horas.com.br,network:Banco24Horas,operator:Tecnologia Bancária S.A.","lat":-29.7004798,"lng":-53.7306329},{"id":"4581871711","tags":"addr:housenumber:5941,addr:street:Avenida Prefeito Evandro Behr,amenity:atm,brand:Banrisul,contact:phone:0800 646 1515;0800 648 1907,contact:website:https://www.banrisul.com.br/,operator:Banrisul S.A.","lat":-29.7004801,"lng":-53.7306608},{"id":"4581871719","name":"Agafarma","tags":"amenity:pharmacy,contact:phone:+55 55 3026-6608","lat":-29.7004311,"lng":-53.7306316},{"id":"4581871720","name":"Due Fratelli","tags":"amenity:restaurant,contact:phone:+55 55 3217-6615","lat":-29.700268,"lng":-53.7309789},{"id":"5849732374","tags":"addr:housenumber:5941,addr:postcode:97110-800,addr:street:Avenida Prefeito Evandro Behr,amenity:atm,cash_in:yes,contact:phone:0800 648 1919,contact:website:https://www.saqueepague.com.br/,network:Saque e Pague","lat":-29.7006369,"lng":-53.7307792},{"id":"6374786615","name":"Quality Lavagem","tags":"amenity:car_wash,description:Lavagem geral simples ou com aplicação de cera. Polimento e espelhamento 3M. Higienização de ar condicionado. Hidratação de bancos em couros. Micro-pinturas","lat":-29.7011076,"lng":-53.724383},{"id":"6374802521","name":"Quality Lavagem","tags":"amenity:car_wash,description:Lavagem geral simples ou com aplicação de cera. Polimento e espelhamento 3M. Higienização de ar condicionado. Hidratação de bancos em couros. Micro-pinturas","lat":-29.7011076,"lng":-53.724383}]