[{"id":"6237318861","name":"Sicredi","tags":"addr:housenumber:273,addr:street:R. João Gonçalves, 273, Bossoroca - RS, 97850-000,amenity:bank,opening_hours:Mo-Fr 10:00-15:00,phone:+55 55 3356-1778","lat":-28.728615,"lng":-54.912926},{"id":"6237324400","name":"Supermercado Modelo","tags":"addr:street:R. João Fagundes, 145-293, Bossoroca - RS, 97850-000,opening_hours:Mo-Sa 08:00-12:00,14:00-19:00,phone:+55 55 3356-1426,shop:supermarket","lat":-28.7278432,"lng":-54.9097648},{"id":"6237688749","name":"Edifarma Farmacia","tags":"amenity:pharmacy,opening_hours:Mo-Sa 08:00-22:00,phone:+55 55 3356-1296","lat":-28.7288527,"lng":-54.9098535},{"id":"6237694034","name":"Escola Estadual Miguel Fernandes","tags":"addr:housenumber:511,addr:street:Rua jošo gonçalves,amenity:school,phone:+55 55 3356-1280","lat":-28.7292,"lng":-54.9121525},{"id":"6237708228","name":"Escola Estadual  Prof.Haydee Nascimento","tags":"amenity:school","lat":-28.7260627,"lng":-54.9103603},{"id":"7155224804","name":"Visual Salão de Beleza e Barbearia","tags":"addr:housenumber:599,addr:street:R. Cel. João Luís Nascimento, 599, Bossoroca - RS, 97850-000,phone:+55 55 99952-2155,shop:beauty","lat":-28.7287502,"lng":-54.9102859},{"id":"7155242423","name":"Mercado Estrela","tags":"opening_hours:Mo-Sa 08:00-12:00,13:30-19:30,phone:+55 55 3356-1338,shop:supermarket","lat":-28.7289257,"lng":-54.9138947}]