[{"id":"7236079444","name":"Farmácias São João","tags":"addr:street:R. Marquês do Herval, 1624 - Centro, Santo Ângelo - RS, 98801-640,amenity:pharmacy,opening_hours:Mo-Su 12:00-00:00,phone:+55 55 3312-8080,website:http://www.saojoaofarmacias.com.br/","lat":-28.3003464,"lng":-54.2615738},{"id":"7236140223","name":"Farmacia São Lucas 2","tags":"addr:street:Av. Brasil, 874-930 - Boa Esperança, Santo Ângelo - RS, 98801-590,amenity:pharmacy","lat":-28.2997837,"lng":-54.2615356},{"id":"7236154613","name":"Quick Restaurante e Sorveteria","tags":"addr:street:R. Marquês do Herval, 1650 - Centro, Santo Ângelo - RS, 98801-640,amenity:restaurant,opening_hours:Mo-Fr 11:00-01:00,phone:+55 55 3313-4488","lat":-28.3000832,"lng":-54.2615166},{"id":"7236164718","name":"Farmácias São João","tags":"addr:street:Av. Brasil, 876 - Centro, Santo Ângelo - RS, 98801-590,amenity:pharmacy,opening_hours:Mo-Sa 08:00-20:00,phone:+55 55 3313-1556,website:http://www.saojoaofarmacias.com.br/","lat":-28.299736,"lng":-54.2619057},{"id":"7236175464","name":"Arena Grill","tags":"addr:housenumber:1784,addr:street:R. Marquês do Herval, 1784 - Centro, Santo Ângelo - RS, 98801-590,amenity:restaurant,description:Braseiro descontraído serve grelhados seletos e opções, com música sertaneja ao vivo e mesas ao ar livre.,opening_hours:Mo-Su 11:45-23:00,phone:+55 55 3313-5600","lat":-28.2989712,"lng":-54.2617416},{"id":"9175700402","name":"Casa do Frango","tags":"shop:convenience","lat":-28.2966701,"lng":-54.2662544}]