[{"id":"4555441689","name":"Banrisul - Agência Plácido de Castro","tags":"amenity:bank","lat":-28.6471782,"lng":-53.5941742},{"id":"4899647328","name":"E.M.E.F. Castelo Branco","tags":"amenity:school","lat":-28.6514349,"lng":-53.6002237},{"id":"5923382381","name":"Ana Paula Cabeleireira","tags":"shop:beauty","lat":-28.6500041,"lng":-53.5979031},{"id":"5930525454","name":"Minimercado Azevedo","tags":"shop:convenience","lat":-28.6517007,"lng":-53.5982253},{"id":"5930525455","name":"Telê Mercado e Açougue","tags":"shop:convenience","lat":-28.6518832,"lng":-53.5992713}]