[{"id":"5191029948","name":"DCEEng","tags":"amenity:university","lat":-28.3884548,"lng":-53.9296601},{"id":"5191034260","name":"Museu Antropológico Diretor Pestana","tags":"tourism:museum","lat":-28.3884906,"lng":-53.9283377},{"id":"5216028179","name":"Novo Hospital Bom Pastor","tags":"amenity:hospital,healthcare:hospital","lat":-28.3851552,"lng":-53.9298999},{"id":"5718144342","name":"FIDENE-Fundação Integração Desenv Educação Noroeste do Estado do Rio Grande do Sul","tags":"amenity:university,gymnasium:multi-sport gym,technology:other - please specify","lat":-28.3880117,"lng":-53.9276282},{"id":"6540495287","name":"ginásio de esportes - São Geraldo","tags":"building:yes,gymnasium:recreation,leisure:sports_centre","lat":-28.3876582,"lng":-53.928504}]