[{"id":"452816937","tags":"amenity:pharmacy,healthcare:pharmacy","lat":-30.8534812,"lng":-51.8069787},{"id":"452816938","name":"Supermercado Roxo","tags":"addr:city:Camaquã,addr:housenumber:1037,addr:postcode:96180-000,addr:street:Rua Bento Gonçalves,addr:suburb:Centro,shop:supermarket","lat":-30.8533686,"lng":-51.8057477},{"id":"452816939","name":"Nacional Supermercados","tags":"shop:supermarket","lat":-30.8537386,"lng":-51.8051546},{"id":"452816943","tags":"amenity:restaurant","lat":-30.8535342,"lng":-51.807457},{"id":"452816944","name":"Banco do Brasil","tags":"addr:city:Camaquã,addr:housenumber:373,addr:postcode:96180-000,addr:street:Rua Antônio José Centeno,addr:suburb:Centro,amenity:bank,atm:yes,brand:Banco do Brasil,brand:wikidata:Q610817,brand:wikipedia:en:Banco do Brasil,operator:Banco do Brasil","lat":-30.8524611,"lng":-51.8080197},{"id":"2629381567","name":"Bistrô","tags":"amenity:cafe","lat":-30.8525526,"lng":-51.8105298},{"id":"2862520565","name":"Sicredi","tags":"addr:housenumber:1035,addr:street:Avenida Olavo Moraes,amenity:bank,brand:Sicredi,brand:wikidata:Q3483060,brand:wikipedia:pt:Sistema de Crédito Cooperativo","lat":-30.8512395,"lng":-51.8086525},{"id":"2862521506","name":"Caixa Econômica Federal","tags":"addr:city:Camaquã,addr:housenumber:1000,addr:postcode:96180-000,addr:street:Rua Marechal Floriano Peixoto,addr:suburb:Centro,amenity:bank,atm:yes,brand:Caixa Econômica Federal,brand:wikidata:Q835283,brand:wikipedia:pt:Caixa Econômica Federal","lat":-30.8529982,"lng":-51.8091268},{"id":"3019334241","name":"OIGALÊ","tags":"amenity:restaurant","lat":-30.8506186,"lng":-51.809166}]