[{"id":"2055741207","name":"Banco do Brasil","tags":"amenity:bank,atm:yes,brand:Banco do Brasil,brand:wikidata:Q610817,brand:wikipedia:en:Banco do Brasil","lat":-30.2928724,"lng":-51.3018112},{"id":"2310540556","name":"Bradesco","tags":"addr:housename:Rua Araújo Ribeiro,amenity:bank,atm:yes,brand:Bradesco,brand:wikidata:Q806181,brand:wikipedia:en:Banco Bradesco","lat":-30.292857,"lng":-51.3011866},{"id":"2310541680","name":"Banrisul","tags":"amenity:bank,atm:yes,brand:Banrisul,brand:wikidata:Q4857098,brand:wikipedia:en:Banrisul","lat":-30.2931638,"lng":-51.3021241},{"id":"2310541994","name":"Clube Sete de Setembro","tags":"amenity:nightclub","lat":-30.2923717,"lng":-51.3013087},{"id":"3645017750","name":"Elite Pub","tags":"amenity:bar","lat":-30.291627,"lng":-51.3000621},{"id":"3645017757","name":"Escola São José","tags":"amenity:school","lat":-30.2942549,"lng":-51.3011183},{"id":"3645055305","name":"Correios","tags":"amenity:post_office,brand:Correios,brand:wikidata:Q3375004,brand:wikipedia:en:Correios","lat":-30.293129,"lng":-51.3024945},{"id":"3645055311","name":"Bradesco","tags":"amenity:bank,brand:Bradesco,brand:wikidata:Q806181,brand:wikipedia:en:Banco Bradesco","lat":-30.2929316,"lng":-51.3010778},{"id":"3645055312","name":"Sorveteria","tags":"amenity:restaurant","lat":-30.2931563,"lng":-51.3015648}]