[{"id":"8373914165","name":"Recantus Grill","tags":"amenity:restaurant","lat":-29.9542188,"lng":-51.7246306},{"id":"10537994569","name":"Restaurante Recantus Grill","tags":"addr:city:São Jerônimo,addr:housenumber:35,addr:postcode:96700-000,addr:street:Rua Senador Ramiro Barcellos,addr:suburb:Centro,air_conditioning:yes,amenity:restaurant,cuisine:brazilian,internet_access:yes,internet_access:fee:customers,level:1,opening_hours:Mo-Su 11:00-15:00,outdoor_seating:no,payment:cash:yes,payment:credit_cards:yes,payment:pix:yes,phone:+55 51 3651-1020,ref:vatin:36.288.411/0001-71,reservation:yes,toilets:yes,wheelchair:yes","lat":-29.9540394,"lng":-51.7244988},{"id":"10555615544","name":"Manus Praia","tags":"addr:city:São Jerônimo,addr:housenumber:60,addr:postcode:96700-000,addr:street:Rua Mineiro Nicácio Machado,addr:suburb:Centro,amenity:restaurant,cuisine:brazilian","lat":-29.953609,"lng":-51.7237853},{"id":"10557421067","name":"Departamento de Polícia do Interior","tags":"addr:city:São Jerônimo,addr:housenumber:41,addr:postcode:96700-000,addr:street:Rua Mineiro Nicácio Machado,addr:suburb:Centro,amenity:police,operator:Polícia Civil Gaúcha","lat":-29.9541132,"lng":-51.7240263},{"id":"10557421068","name":"17ª Delegacia de Polícia Civil","tags":"addr:city:São Jerônimo,addr:housenumber:35,addr:postcode:96700-000,addr:street:Rua Mineiro Nicácio Machado,addr:suburb:Centro,amenity:police,operator:Polícia Civil Gaúcha","lat":-29.9542042,"lng":-51.7240832}]