[{"id":"1245887101","name":"Pizza Pizza","tags":"amenity:restaurant,cuisine:pizza","lat":-30.106936,"lng":-51.2536001},{"id":"2129780381","name":"Bella Gula Paseo","tags":"amenity:restaurant,cuisine:regional,opening_hours:Mo-Su 10:00-22:00,phone:+55 51 3085-3760,shop:confectionery,website:https://bellagula.com.br/","lat":-30.104994,"lng":-51.2544129},{"id":"2129780383","name":"Gelateria Gianluca Zaffari","tags":"amenity:cafe,cuisine:ice_cream,opening_hours:Mo-Sa 11:00-22:00; Su 12:00-22:00,phone:+55 51 3311-7207","lat":-30.1049818,"lng":-51.2543481},{"id":"2129780385","name":"Oak's California Burritos Paseo Zona Sul","tags":"amenity:restaurant,cuisine:mexican,email:contato@oaksburritos.com,opening_hours:Su-Sa 11:00-23:00,phone:+55 51 3084-9884,website:https://www.oaksburritos.com/","lat":-30.1049543,"lng":-51.2542904},{"id":"2209960245","name":"Estação dos Livros","tags":"phone:+55 51 3086-4407,shop:books,wheelchair:yes","lat":-30.1050549,"lng":-51.2546747},{"id":"2280097334","name":"Dom Bar & Party House","tags":"addr:housename:Loja 1,addr:housenumber:838,addr:postcode:91900-050,addr:street:Avenida Copacabana,amenity:bar,email:contato@dompartyhouse.com.br,opening_hours:Tu-Sa 19:00-01:00,phone:+55 51 3516-4154,start_date:2012,website:http://www.dompartyhouse.com.br","lat":-30.1038888,"lng":-51.2536474},{"id":"2280097343","name":"Sushi Drive Zona Sul","tags":"addr:housename:Loja 3,addr:housenumber:1125,addr:postcode:91900-240,addr:street:Avenida Pereira Passos,amenity:restaurant,cuisine:japanese,opening_hours:Su-Sa 11:00-23:30,phone:+55 51 3222-8484,website:https://sushidrive.com.br/","lat":-30.1036258,"lng":-51.2536646},{"id":"2280097344","name":"Verbena Manipulação","tags":"addr:housename:Loja 3,addr:housenumber:838,addr:postcode:91900-050,addr:street:Avenida Copacabana,amenity:pharmacy,dispensing:yes,opening_hours:Mo-Fr 09:00-19:00; Sa 09:00-12:00,phone:+55 51 3346-3346,start_date:2012,website:http://verbenamanipulac.web116.f1.k8.com.br","lat":-30.1038609,"lng":-51.2535468},{"id":"3698991537","name":"Espaço Maestro","tags":"amenity:bar","lat":-30.10716,"lng":-51.2532275},{"id":"4880339941","name":"Positano Café","tags":"addr:housenumber:155,addr:street:Rua Vicente Failace,amenity:cafe,opening_hours:Mo-Sa 08:30-19:00; Su 14:00-19:00,phone:+55 51 3392-4155,website:http://www.positanocafe.com.br/","lat":-30.1074711,"lng":-51.2573954},{"id":"6254615062","name":"Galeteria Casa do Marquês","tags":"addr:street:Av. Wenceslau Escobar, 1598 - Cristal, Porto Alegre - RS, 90550-143,amenity:restaurant,description:Menu italiano em espaço pré-modernista de ambiente cordial e descontraído para eventos sociais e empresariais.,opening_hours:Tu-Sa 19:00-23:00; Su 11:30-16:00,phone:+55 51 3508-3478","lat":-30.1038914,"lng":-51.25214},{"id":"6254617888","name":"Pastificio Italiano","tags":"addr:street:Av. Wenceslau Escobar, 1601 - Tristeza, Porto Alegre - RS, 91900-000,amenity:restaurant,opening_hours:Mo-Sa 09:00-20:00; Su 09:00-14:00,phone:+55 51 3084-2911","lat":-30.1031628,"lng":-51.2519646},{"id":"6259975209","name":"Bendizê Hamburgueria","tags":"addr:street:R. Srg. Nicolau Dias de Farias, 188 - Tristeza, Porto Alegre - RS, 91900-250,amenity:restaurant,cuisine:burger,opening_hours:Tu-Su 18:00-22:00,phone:+55 51 99707-9652,website:https://www.bendize.com/","lat":-30.105771,"lng":-51.2578762}]