[{"id":"1118102920","name":"Colégio Marista Ipanema","tags":"addr:housenumber:1959,addr:postcode:91760-000,addr:street:Coronel Marcos,amenity:school,contact:email:ipanema@maristas.org.br,contact:phone:+55 51 3086-2200,fee:yes","lat":-30.1305786,"lng":-51.239623},{"id":"1118102922","tags":"amenity:restaurant","lat":-30.1306018,"lng":-51.2381585},{"id":"4423078311","name":"Ipanema Sports - Academia","tags":"addr:city:Porto Alegre,addr:housenumber:2353,addr:postcode:91760-000,addr:street:Avenida Coronel Marcos,addr:suburb:Ipanema,leisure:sports_centre,opening_hours:Mo-Fr 06:00-23:00; Sa 09:00-18:00; Su, PH 09:00-13:00,phone:+55 51 3246-9000,toilets:wheelchair:yes,website:http://www.ipanemasports.com.br/,wheelchair:yes","lat":-30.1316974,"lng":-51.2355491},{"id":"6903916013","name":"Pizza Hut","tags":"amenity:restaurant,brand:Pizza Hut,brand:wikidata:Q191615,brand:wikipedia:en:Pizza Hut,cuisine:pizza","lat":-30.1317397,"lng":-51.2359276},{"id":"6903954895","name":"São João","tags":"amenity:pharmacy,brand:São João,brand:wikidata:Q62663306,dispensing:yes,healthcare:pharmacy","lat":-30.1325527,"lng":-51.2334278}]