[{"id":"5317023242","name":"São Luís","tags":"alt_name:São Luís / ULBRA,opening_hours:Mo-Su, PH 05:00-23:35,operator:Trensurb,platforms:1,public_transport:station,railway:station,source:name:survey,station:subway,subway:yes,website:http://www.trensurb.gov.br/,wheelchair:limited","lat":-29.8875691,"lng":-51.1795928},{"id":"8359001577","name":"EMEI Vó Inezinha","tags":"addr:city:Canoas,addr:housenumber:333,addr:postcode:92420-070,addr:street:Rua Engenheiro Rebouças,amenity:school,phone:+55 51 3477 5000","lat":-29.8864993,"lng":-51.1833876},{"id":"8462416797","name":"EEI Pingo de Gente","tags":"addr:city:Canoas,addr:housenumber:203,addr:postcode:92420-310,addr:street:Rua Pindorama,addr:suburb:São José,amenity:school,phone:+55 51 3032 0845","lat":-29.884771,"lng":-51.1743349},{"id":"8462483777","name":"EEF Kessler","tags":"addr:city:Canoas,addr:housenumber:179,addr:postcode:92420-310,addr:street:Rua Pindorama,addr:suburb:São José,amenity:school,phone:+55 51 3427 4524","lat":-29.8836888,"lng":-51.1745511},{"id":"8484041746","name":"Escola Estadual Ensino Fundamental Cristóvão Colombo","tags":"addr:city:Canoas,addr:housenumber:250,addr:postcode:92420-120,addr:street:Rua Senador Salgado Filho,addr:suburb:São Luiz,amenity:school,phone:+55 51 3477 7300","lat":-29.8875453,"lng":-51.1823802}]