[{"id":"2430103278","name":"Mezanino","tags":"amenity:restaurant","lat":-30.0545653,"lng":-51.1985962},{"id":"2994579939","name":"Caixa Econômica Federal","tags":"amenity:bank,atm:yes,brand:Caixa Econômica Federal,brand:wikidata:Q835283,brand:wikipedia:pt:Caixa Econômica Federal,operator:Caixa Econômica Federal","lat":-30.0547429,"lng":-51.1999572},{"id":"3739428570","name":"Partenom Grill","tags":"addr:street:Avenida Bento Gonçalves,amenity:restaurant,wheelchair:limited","lat":-30.0540962,"lng":-51.2002577},{"id":"5379597014","name":"Arquivo Histórico","tags":"email:arquivohistorico@smc.prefpoa.com.br,office:government,official_name:Arquivo Histórico de Porto Alegre Moysés Vellinho,phone:+55 51 3289-8282,start_date:1988,tourism:museum,url:http://www2.portoalegre.rs.gov.br/smc/default.php?p_secao=270,website:http://ahpoa.blogspot.com.br/,wikipedia:pt:Arquivo Histórico de Porto Alegre Moysés Vellinho","lat":-30.0540425,"lng":-51.2016508},{"id":"9060100674","name":"Boa Compra Mercado Fruteira e Padaria","tags":"addr:city:Porto Alegre,addr:housenumber:1577,addr:street:Avenida Bento Gonçalves,shop:supermarket","lat":-30.0563064,"lng":-51.1982118}]