[{"id":"8361051992","name":"Farmácia Sudoeste","tags":"addr:city:Canoas,addr:street:Rua José de Alencar,amenity:pharmacy,dispensing:yes,healthcare:pharmacy","lat":-29.9631381,"lng":-51.1896455},{"id":"8462426248","name":"Escola Maria Imaculada","tags":"addr:city:Canoas,addr:housenumber:1285,addr:postcode:92200-250,addr:street:Rua Ana Nery,addr:suburb:Rio Branco,amenity:school,phone:+55 51 3466 7536","lat":-29.9607314,"lng":-51.1898022},{"id":"9755918330","name":"Unisuper","tags":"shop:supermarket","lat":-29.9616119,"lng":-51.1898278},{"id":"9755918874","name":"São João","tags":"amenity:pharmacy,brand:São João,brand:wikidata:Q62663306,dispensing:yes,healthcare:pharmacy","lat":-29.9623685,"lng":-51.1893328},{"id":"9755918875","name":"Todo Dia","tags":"shop:supermarket","lat":-29.9630496,"lng":-51.189335}]