[{"id":"1676252678","name":"Restaurante Metropole","tags":"addr:postcode:90440-150,addr:street:Rua Felipe Neri,amenity:restaurant,cuisine:international","lat":-30.0234083,"lng":-51.192701},{"id":"1786937992","tags":"leisure:sports_centre","lat":-30.0253572,"lng":-51.1905642},{"id":"1786938565","tags":"amenity:bank","lat":-30.0251506,"lng":-51.1899688},{"id":"1786939616","tags":"amenity:bar","lat":-30.0246322,"lng":-51.1901172},{"id":"3590752332","name":"Escola Visconde de Pelotas","tags":"addr:housenumber:200,addr:postcode:90450-170,addr:street:Rua Artur Rocha,amenity:school,contact:email:eeviscon@gmail.com,contact:phone:+55 51 3332-1238,official_name:Escola Estadual de Ensino Fundamental Visconde de Pelotas,short_name:EEEF Visconde de Pelotas","lat":-30.0248199,"lng":-51.1884116},{"id":"3605731037","name":"Sharin","tags":"addr:housenumber:332,addr:street:Rua Felipe Neri,amenity:restaurant,cuisine:indian,opening_hours:Mo-Sa 11:00-14:30,19:30-23:45,phone:+55 51 3333-8596,website:http://www.sharin.com.br","lat":-30.0228707,"lng":-51.1922987},{"id":"3735357471","name":"Xavier 260","tags":"addr:city:Porto Alegre,addr:housenumber:260,addr:postcode:90540-110,addr:street:Rua Auxiliadora,addr:suburb:Auxiliadora,amenity:restaurant,cuisine:international,description:Cozinha tradicional catalã, apoiada em técnicas contemporâneas e ingredientes gaúchos, e ambiente sofisticado.R$ 130 por pessoa,opening_hours:Tu-Sa 20:00-23:00; Su 12:30-15:00,website:https://xavier.restaurant,wheelchair:no","lat":-30.0214913,"lng":-51.1908508},{"id":"4153333569","tags":"addr:housenumber:675,addr:street:Rua Eudoro Berlink,amenity:post_office","lat":-30.0243459,"lng":-51.1908351},{"id":"5022993844","name":"Dia","tags":"brand:Dia,brand:wikidata:Q925132,brand:wikipedia:es:Supermercados DIA,shop:supermarket","lat":-30.0243299,"lng":-51.1905377},{"id":"5291960992","name":"Roister","tags":"addr:city:Porto Alegre,addr:housenumber:1454,addr:postcode:90510-001,addr:street:Rua 24 de Outubro,addr:suburb:Auxiliadora,amenity:restaurant,description:Restaurante e bar com área lounge em espaço despojado serve menu sofisticado de lanches e pratos autorais.,opening_hours:Mo-Fr 11:30-14:00, 18:00-23:00; Sa 12:00-00:00","lat":-30.0220601,"lng":-51.1948305},{"id":"5296220663","name":"Love It","tags":"addr:housenumber:884,addr:street:Avenida Mariland,amenity:cafe,operator:Tu-Sa 09:00-20:00; Su 10:00-15:00,phone:+55 51 3094-6184","lat":-30.0225237,"lng":-51.1933951},{"id":"6111097974","name":"Carnitas","tags":"addr:city:Porto Alegre,addr:housenumber:908,addr:postcode:90440-190,addr:street:Avenida Mariland,addr:suburb:Auxiliadora,amenity:restaurant,capacity:40,cuisine:regional;international;burger,delivery:yes,opening_hours:Mo-Sa 11:30-20:00,takeaway:yes","lat":-30.0227393,"lng":-51.1936193},{"id":"6243171983","name":"Casa Vecchia Ristorante","tags":"addr:city:Porto Alegre,addr:housenumber:176,addr:postcode:90540-120,addr:street:Rua Auxiliadora,amenity:restaurant,cuisine:italian,description:A cozinha italiana tradicional de massas e carnes em pratos clássicos, com ambiente aconchegante e familiar..,opening_hours:Tu-Sa 11:30-23:30; Su 11:00-15:30,phone:+55 51 3342-1004","lat":-30.0207844,"lng":-51.1909561},{"id":"6243233204","name":"Bella Morano Pizzaria","tags":"addr:housenumber:23,addr:street:Avenida Coronel Lucas Oliveira, 23 - Auxiliadora, Porto Alegre - RS, 90440-01,amenity:restaurant,description:Cantina especializa em pizzas especiais servidas em ambiente elegantemente rústico de cabana aconchegante.Preço médio por pessoa: 50 reais,opening_hours:Tu-Su 19:00-23:00; Mo 09:00-17:00,payment:cryptocurrencies:Visa, Mastercard,phone:+55 51 3333-9899,website:http://www.bellamorano.com.br","lat":-30.0228233,"lng":-51.1954918},{"id":"6246537649","name":"Fornellone Ristorante","tags":"addr:city:Porto Alegre,addr:housenumber:93,addr:postcode:90550-070,addr:street:Avenida Nova York,addr:suburb:Auxiliadora,amenity:restaurant,cuisine:pizza;Italiana;$$_-_$$$;european,delivery:yes,description:Culinária descontraída em ambiente aconchegante com menu variado de carnes, massas e pizzas salgadas e doces.,opening_hours:Mo-Su 19:00-00:00,phone:+55 51 3028-7575,website:http://www.fornellone.com.br,wheelchair:limited","lat":-30.0214556,"lng":-51.1948308},{"id":"6246537650","name":"Restaurante Bene Naturale","tags":"addr:city:Porto Alegre,addr:housenumber:79,addr:postcode:90550-000,addr:street:Avenida Nova York,addr:suburb:Auxiliadora,amenity:restaurant,cuisine:Buffet;$,description:Buffet à vontade, aconchegante, casual Opções vegetarianas,diet:vegetarian:yes,opening_hours:Mo-Sa 11:00-15:00,phone:+55 51 3085-1222,wheelchair:yes","lat":-30.0215385,"lng":-51.1947795},{"id":"6250171956","name":"Sette Pastabar","tags":"addr:street:R. Auxiliadora, 248 - Auxiliadora, Porto Alegre - RS, 90540-130,amenity:restaurant,description:Focado em massas, a casa em nada se parece com uma tradicional cantina italiana. Os ambientes são amplos e cozinha é aberta,. A amatriciana é um dos pratos favoritos: rigatoni ao molho de tomate, com pancetta da casa, pimenta calabresa e pecorino romano.,opening_hours:Tu-Sa 19:00-23:00; Su 12:00-15:00,phone:+55 51 3012-2926","lat":-30.0214157,"lng":-51.1909065},{"id":"6250178691","name":"ROCK'S RESTAURANTE","tags":"amenity:restaurant,description:Gastrobar tradicional e intimista serve o menu alemão de filés altos grelhados em panelas de ferro e opções.O Jaeger Schnitzel (lombo suíno grelhado com molho madeira, nata e champignon, acompanhado d Späetzel) é um dos  pratos favoritos,opening_hours:Mo-Sa 17:30-23:30,phone:+55 51 3085-0203,website:https://www.restauranterocks.com.br/","lat":-30.0215244,"lng":-51.1920395},{"id":"6250183918","name":"Tartare Restaurante","tags":"addr:street:Av. Mariland, 696 - São João, Porto Alegre - RS, 90440-190,amenity:restaurant,description:Ideal para ir a dois, com a família, amigos ou sozinho, Recomendamos o filé à Portuguesa, servido com cebola, ovos, azeitonas pretas, pimentão vermelho e arroz.,opening_hours:Mo-Fr 18:00-00:00; Sa 12:00-15:00, 18:00-00:00; Su 12:00-15:00,phone:+55 51 3026-3888","lat":-30.0208111,"lng":-51.1937752},{"id":"6258945071","name":"Restaurante You Yi","tags":"addr:street:R. Cândido Silveira, 242 - Auxiliadora, Porto Alegre - RS, 90540-010,amenity:restaurant,description:A casa chinesa é autêntica até na decoração. Os molhos de pimenta, gengibre e agridoce dispostos nas latinhas são uma assinatura. A Meia Lua é uma entrada para repetir sempre, e o Pato Laqueado é uma bagunça maravilhosa para comer com as mãos.,opening_hours:Mo-Su 12:00-14:00, 19:00-23:00,phone:+55 51 3342-3828,website:http://www.youyi.com.br/","lat":-30.0214615,"lng":-51.1920204},{"id":"6258973165","name":"Brizza Forneria","tags":"addr:street:R. 24 de Outubro, 1409 - Independência, Porto Alegre - RS, 90510-002,amenity:restaurant,description:Apesar de as pizzas seguirem a tradicional receita italiana e serem feitas no forno a lenha, com massa de fermentação natural, os sabores são bem autênticos e inusitados. Prove a Sgt. Pepperoni, que utiliza creme de moranga no lugar do molho de tomate.,opening_hours:Mo-Fr 18:00-22:30, 09:00-18:00; Sa 11:30-22:30,phone:+55 51 3573-5539,website:https://m.facebook.com/brizzaforneria/","lat":-30.0223675,"lng":-51.1945839},{"id":"7214924073","name":"Mark Hamburgueria","tags":"addr:housenumber:909,addr:street:Av. Mariland, 908 - Auxiliadora, Porto Alegre - RS, 90440-190,amenity:restaurant,opening_hours:Mo-Sa 11:30-15:00, 18:30-23:30,phone:+55 51 3519-6638","lat":-30.022768,"lng":-51.1936684},{"id":"7214956136","name":"Pane di Nanne","tags":"addr:housenumber:1566,addr:street:R. 24 de Outubro, 1566 - Auxiliadora, Porto Alegre - RS, 90510-001,craft:bakery,opening_hours:Mo-Fr 08:00-19:00; Sa 08:00-18:00,phone:+55 51 3207-8607","lat":-30.02178,"lng":-51.1932106},{"id":"7214990366","name":"Los Cinco Parrillaria","tags":"addr:housenumber:62,addr:street:Av. Nova York, 62 - Auxiliadora, Porto Alegre - RS, 90550-070,amenity:restaurant,description:Gastrobar convidativo com área externa tem grelhados robustos à moda uruguaia, com vinhos e cervejas seletas.,opening_hours:Su 11:30-16:00; Tu-Fr 18:00-23:30; Sa 11:30-15:00, 19:00-23:30,phone:+55 51 3392-8055","lat":-30.0216408,"lng":-51.1951637},{"id":"7214997077","name":"Restaurante Bene Naturale","tags":"addr:housenumber:79,addr:street:Av. Nova York, 79 - Auxiliadora, Porto Alegre - RS, 90550-000,amenity:restaurant,opening_hours:Mo-Sa 11:00-15:00,phone:+55 51 3085-1222","lat":-30.0214481,"lng":-51.194809},{"id":"7217213488","name":"Restaurante Sevilla Garden","tags":"addr:housenumber:1344,addr:street:R. 24 de Outubro, 1344 - Independência, Porto Alegre - RS, 90510-001,amenity:restaurant,opening_hours:Mo-Fr 11:00-14:30; Sa 11:30-14:45,phone:+55 51 99263-4682","lat":-30.0223103,"lng":-51.1953697}]