[{"id":"593534848","name":"Gecepel","tags":"addr:city:Porto Alegre,addr:housenumber:8453,addr:postcode:91310-000,addr:street:Avenida Protásio Alves,addr:suburb:Protásio Alves,opening_hours:09:00-21:00,phone:+55 51 3386-4699,shop:supermarket,wheelchair:limited","lat":-30.040313,"lng":-51.1268004},{"id":"593534849","name":"Super Beck","tags":"shop:supermarket","lat":-30.0389894,"lng":-51.1239197},{"id":"595704235","name":"Alto Petrópolis","tags":"amenity:police","lat":-30.038499,"lng":-51.1227178},{"id":"598724534","name":"Agafarma","tags":"addr:city:Porto Alegre,addr:housenumber:8711,addr:postcode:91260-000,addr:street:Avenida Protásio Alves,addr:suburb:Morro Santana,amenity:pharmacy,dispensing:no,healthcare:pharmacy,phone:+55 51 3386-1737,wheelchair:no","lat":-30.0396772,"lng":-51.12465},{"id":"598724543","name":"FarMais","tags":"amenity:pharmacy,dispensing:no,wheelchair:yes","lat":-30.0399572,"lng":-51.1258896},{"id":"598724556","name":"CompreBem","tags":"addr:city:Porto Alegre,addr:housenumber:8565,addr:postcode:90410-004,addr:street:Avenida Protásio Alves,addr:suburb:Morro Santana,amenity:pharmacy,dispensing:no,phone:+55 51 3387-1655,wheelchair:no","lat":-30.040066,"lng":-51.1263298},{"id":"598724566","tags":"amenity:parking,parking:surface","lat":-30.0404219,"lng":-51.1280734},{"id":"598724567","tags":"amenity:parking,parking:surface","lat":-30.0402838,"lng":-51.1275246},{"id":"1836749399","name":"Todo Dia","tags":"addr:city:Porto Alegre,addr:housenumber:8435,addr:postcode:91310-000,addr:street:Avenida Protásio Alves,addr:suburb:Morro Santana,opening_hours:08:00-21:00,phone:+55 51 3083-2952,shop:supermarket,wheelchair:yes","lat":-30.040346,"lng":-51.12711},{"id":"4227636653","name":"Farmácia PANVEL 24hs","tags":"addr:city:Porto Alegre,addr:housenumber:8323,addr:postcode:90410-004,addr:street:Avenida Protásio Alves,addr:suburb:Morro Santana,amenity:pharmacy,dispensing:yes,healthcare:pharmacy,opening_hours:00:00 - 23:59,wheelchair:yes","lat":-30.0406506,"lng":-51.1288742}]