[{"id":"2104291348","name":"Supermercado Livinalli","tags":"addr:housenumber:370,addr:postcode:91450-140,addr:street:Beco Souza Costa,shop:supermarket,wheelchair:limited","lat":-30.045945,"lng":-51.1364771},{"id":"3733833049","name":"Banrisul","tags":"addr:housenumber:7211,addr:postcode:91310-003,addr:street:Avenida Protásio Alves,addr:suburb:Protásio Alves,amenity:atm,atm:yes,brand:Banrisul,brand:wikidata:Q4857098,brand:wikipedia:en:Banrisul,opening_hours:Mo-Fr 10:00-16:00,operator:Banrisul,operator:wikidata:Q4857098,operator:wikipedia:en:Banrisul,wheelchair:limited","lat":-30.0443073,"lng":-51.1413561},{"id":"3733884608","name":"Costelão na Brasa","tags":"addr:city:Porto Alegre,addr:housenumber:7586,addr:postcode:90410-004,addr:street:Avenida Protásio Alves,addr:suburb:Protásio Alves,amenity:restaurant,cuisine:regional,delivery:yes,opening_hours:Mo-Sa 10:00-14:00,18:00-21:30; Su 10:00-15:00,takeaway:yes,wheelchair:yes","lat":-30.0421918,"lng":-51.1351002},{"id":"3733884609","name":"Ypu Drogaria","tags":"addr:city:Porto Alegre,addr:housenumber:7525,addr:postcode:91310-003,addr:street:Avenida Protásio Alves,amenity:pharmacy,healthcare:pharmacy,operator:Farmácias Associadas,wheelchair:no","lat":-30.0426904,"lng":-51.1356226},{"id":"3736459299","name":"El Divino","tags":"addr:city:Porto Alegre,addr:housenumber:42,addr:postcode:91450-150,addr:street:Rua Sylvio Torres,amenity:restaurant,phone:+55 51 99794-4088,wheelchair:limited","lat":-30.0433637,"lng":-51.1363641},{"id":"3753436059","name":"academia","tags":"leisure:sports_centre,wheelchair:no","lat":-30.0424383,"lng":-51.1347488},{"id":"4597382721","tags":"addr:street:Farmácia São João,amenity:pharmacy,healthcare:pharmacy,wheelchair:yes","lat":-30.0430869,"lng":-51.1368201}]