[{"id":"1246428056","name":"Estacionamento Santo Expedito","tags":"amenity:parking,fee:yes","lat":-30.0356543,"lng":-51.2239649},{"id":"1246428101","name":"Universidade São Leopoldo Mandic","tags":"amenity:university,website:https://www.slmandic.edu.br/","lat":-30.0352804,"lng":-51.2222169},{"id":"1246428106","name":"Banrisul","tags":"amenity:bank,brand:Banrisul,brand:wikidata:Q4857098,brand:wikipedia:en:Banrisul,opening_hours:Mo-Fr 10:00-16:00,operator:Banrisul","lat":-30.0352169,"lng":-51.2217505},{"id":"1398057027","name":"Restaurante Villandry","tags":"amenity:restaurant","lat":-30.03285,"lng":-51.2203154},{"id":"1398057028","name":"Banco do Brasil","tags":"amenity:bank,atm:yes,brand:Banco do Brasil,brand:wikidata:Q610817,brand:wikipedia:en:Banco do Brasil,email:age1899@bb.com.br,fax:+55 51 3227-7696,official_name:Banco do Brasil Universidade Federal do Rio Grande do Sul,opening_hours:Mo-Fr 10:00-16:00,operator:Banco do Brasil,phone:+55 51 3226-6491,wheelchair:yes","lat":-30.0330504,"lng":-51.2192408},{"id":"1398057421","tags":"amenity:restaurant","lat":-30.0332725,"lng":-51.2199075},{"id":"1398057519","name":"Santander","tags":"amenity:bank,atm:yes,brand:Santander,brand:wikidata:Q5835668,brand:wikipedia:en:Santander Bank,operator:Santander","lat":-30.0337984,"lng":-51.21927},{"id":"1398057520","name":"Banrisul","tags":"amenity:atm,brand:Banrisul,brand:wikidata:Q4857098,brand:wikipedia:en:Banrisul,opening_hours:Mo-Sa 6:00-20:00,operator:Banrisul,operator:wikidata:Q4857098,operator:wikipedia:en:Banrisul","lat":-30.0338026,"lng":-51.2191699},{"id":"1400997891","tags":"amenity:parking","lat":-30.0342343,"lng":-51.2273179},{"id":"2150330717","name":"Coprobel Matriz","tags":"addr:housenumber:1639,addr:postcode:90010-273,addr:street:Rua Riachuelo,email:coprobel@coprobel.com.br,opening_hours:Mo-Fr 08:30-18:30; Sa 08:30-13:00,phone:+55 51 3073-0909,shop:chemist,website:https://www.coprobel.com.br/","lat":-30.0316662,"lng":-51.2251649},{"id":"2380759409","name":"Banco do Brasil","tags":"amenity:bank,brand:Banco do Brasil,brand:wikidata:Q610817,brand:wikipedia:en:Banco do Brasil","lat":-30.0312315,"lng":-51.2276676},{"id":"2429533205","name":"Restaurante Universitário RU1 (Centro)","tags":"access:private,addr:housenumber:41,addr:street:Avenida João Pessoa,amenity:restaurant,cuisine:regional,diet:non-vegetarian:yes,diet:vegetarian:yes,official_name:Restaurante Universitário do Campus Centro","lat":-30.0329435,"lng":-51.2229814},{"id":"2558893363","name":"Bar do Antônio","tags":"amenity:restaurant","lat":-30.0335192,"lng":-51.2192443},{"id":"2558893366","name":"Espaço de Comercialização e Consumo Consciente","tags":"shop:convenience","lat":-30.0332602,"lng":-51.2200878},{"id":"2784124692","name":"Temakeria Sushi Lounge","tags":"addr:housenumber:140,addr:postcode:90050-100,addr:street:Rua General Lima e Silva,amenity:restaurant,cuisine:sushi,opening_hours:Mo-Th 19:30-00:00; Fr-Sa 19:30-01:00,phone:+55 51 3085-7760,start_date:2009,website:http://sushilounge.com.br/,wheelchair:yes","lat":-30.0353981,"lng":-51.2251071},{"id":"2994579955","tags":"amenity:parking","lat":-30.0365539,"lng":-51.2202037},{"id":"3108273637","tags":"amenity:restaurant,wheelchair:no","lat":-30.0335295,"lng":-51.2272054},{"id":"3108273645","name":"Banco do Brasil","tags":"amenity:bank,brand:Banco do Brasil,brand:wikidata:Q610817,brand:wikipedia:en:Banco do Brasil","lat":-30.0325965,"lng":-51.2282802},{"id":"3108273671","tags":"shop:convenience","lat":-30.0334309,"lng":-51.2261288},{"id":"3108273692","tags":"amenity:pharmacy,healthcare:pharmacy","lat":-30.0348398,"lng":-51.2282285},{"id":"3108273693","name":"Ponto Grill","tags":"amenity:restaurant","lat":-30.0353039,"lng":-51.2282112},{"id":"3108273696","name":"Nova Vida","tags":"addr:city:Porto Alegre,addr:housenumber:1182,addr:street:Rua Demétrio Ribeiro,amenity:restaurant,cuisine:regional;international,diet:vegan:yes,diet:vegetarian:only,email:novavidarestaurante@hotmail.com,opening_hours:Mo-Fr 08:00-19:00; Sa 08:00-15:00,organic:yes,payment:cash:yes,payment:credit_cards:yes,phone:+55 51 3226-8876,wheelchair:limited","lat":-30.0359678,"lng":-51.2275476},{"id":"3230414567","tags":"amenity:parking","lat":-30.0345365,"lng":-51.2290198},{"id":"3570985708","name":"Ponto Certo","tags":"amenity:restaurant,cuisine:buffet","lat":-30.0326286,"lng":-51.2231462},{"id":"3570985709","name":"Xirú","tags":"amenity:bar","lat":-30.0338076,"lng":-51.222314},{"id":"3735357472","name":"Del Barbiere Bistrô","tags":"addr:city:Porto Alegre,addr:housenumber:188,addr:postcode:90010-241,addr:street:Rua Jerônimo Coelho,addr:suburb:Centro,amenity:cafe,wheelchair:limited","lat":-30.0324646,"lng":-51.2275982},{"id":"3753138889","name":"Paladar Restaurante e Grill","tags":"addr:city:Porto Alegre,addr:housenumber:296,addr:postcode:90050-101,addr:street:Rua General Lima e Silva,addr:suburb:Cidade Baixa,amenity:restaurant,phone:+55 51 3212-7545,wheelchair:yes","lat":-30.0363964,"lng":-51.2238184},{"id":"3753298533","name":"Fontanas","tags":"amenity:restaurant,wheelchair:limited","lat":-30.0361759,"lng":-51.2273268},{"id":"3753308021","name":"Bagda Café bar restaurante","tags":"amenity:restaurant,wheelchair:no","lat":-30.0365813,"lng":-51.2267641},{"id":"3753340230","name":"CIA da Picanha","tags":"addr:postcode:90050-100,amenity:restaurant,contact:phone:+55 51 3221-5254,opening_hours:Fr-Sa 11:00-24:00; Su 11:00-16:00,outdoor_seating:yes,website:http://www.ciadapicanha.com.br,wheelchair:limited","lat":-30.0351696,"lng":-51.2256489},{"id":"3753340231","tags":"amenity:restaurant,wheelchair:no","lat":-30.03584,"lng":-51.2270275},{"id":"4146074591","name":"Mr. Chau","tags":"addr:city:Porto Alegre,addr:housenumber:171,addr:street:Rua Coronel Genuíno,addr:suburb:Centro Histórico,amenity:restaurant,contact:facebook:https://www.facebook.com/mr.chau.bistro,cuisine:noodle;curry,delivery:no,opening_hours:Mo-Fr 11:00-14:30, Th-Fr 19:00-22:30; Sa-Su 11:30-15:00; PH off,phone:+55 51 3084-1771,takeaway:yes,website:https://mrchauyakisoba.com","lat":-30.03527,"lng":-51.2268517},{"id":"4159783001","tags":"amenity:parking","lat":-30.0319146,"lng":-51.2189269},{"id":"4163722589","name":"Núcleo Estadual de Educação de Jovens e Adultos Cardeal Alfredo Vicente Scherer","tags":"addr:housenumber:730,addr:postcode:90020-110,addr:street:Rua Vigario José Inácio,amenity:school,contact:phone:+55 51 3224-8994,short_name:NEEJA Cardeal Vicente Scherer","lat":-30.0321287,"lng":-51.2258972},{"id":"4185352534","name":"Van Gogh","tags":"addr:street:R. da República, 14 - Cidade Baixa, Porto Alegre - RS, 90050-321,amenity:restaurant,description:É o jeito mais adulto de se encerrar uma noitada: com um pastel e uma sopa no Van Gogh. Com sorte, o Creme de Aspargos estará no cardápio.,opening_hours:Mo-Th 17:00-02:00; Fr 17:00-06:00; Sa 11:45-06:00; Su 11:45-02:00,phone:+55 51 3226-7480","lat":-30.0364798,"lng":-51.2202571},{"id":"4442538509","name":"Donna Laura Doces e Salgados","tags":"addr:city:Porto Alegre,addr:housenumber:1164,addr:postcode:90010-320,addr:street:Rua Coronel Fernando Machado,addr:suburb:Centro Histórico,amenity:cafe,contact:facebook:https://www.facebook.com/quindim/,contact:phone:+55 51 3519-3571,cuisine:regional,diet:vegan:only,opening_hours:Mo-Th 09:30-19:30; Tu,Fr 09:30-22:00; Sa 09:30-15:30","lat":-30.034782,"lng":-51.2268557},{"id":"4567065707","name":"Farmácia Ars Curandi","tags":"addr:city:Porto Alegre,addr:postcode:90020-130,addr:street:Praça Conde de Porto Alegre,addr:suburb:Centro Histórico,amenity:pharmacy,drive_through:yes,healthcare:pharmacy,opening_hours:08:00 - 18:00","lat":-30.031502,"lng":-51.2246433},{"id":"4567065708","name":"EJA Universitário","tags":"addr:city:Porto Alegre,addr:housenumber:1645,addr:postcode:90010-273,addr:street:Rua Riachuelo,addr:suburb:Centro Histórico,amenity:university","lat":-30.0316337,"lng":-51.2251013},{"id":"4567065709","name":"Estética Karla Flores","tags":"addr:city:Porto Alegre,addr:housenumber:19,addr:street:Praça Conde de Porto Alegre,addr:suburb:Centro Histórico,phone:+55 51 3319-2474,shop:beauty","lat":-30.0317945,"lng":-51.2249296},{"id":"4567065710","name":"Mini Mercado Água do Rosário","tags":"addr:city:Porto Alegre,addr:street:Praça Conde de Porto Alegre,addr:suburb:Centro Histórico,phone:+55 51 3211-5012,shop:convenience","lat":-30.0318022,"lng":-51.2249394},{"id":"4937831708","name":"Brechó do Futebol","tags":"addr:housenumber:1188,addr:street:Rua Coronel Fernando Machado,amenity:bar,email:brechodofutebol@hotmail.com,opening_hours:Mo-Sa 13:00-24:00; Su 16:00-22:00,phone:+55 51 3737-3782,shop:clothes,website:http://brechodofutebol.com/","lat":-30.0347663,"lng":-51.2266036},{"id":"4937831709","name":"Espumantes La Cava","tags":"addr:housenumber:1176,addr:street:Rua Coronel Fernando Machado,amenity:bar,email:lacava.cava@gmail.com,opening_hours:Mo-Fr 18:00-23:45; Sa 20:00-23:45,phone:+55 51 3407-2447,shop:beverages","lat":-30.0347741,"lng":-51.2267296},{"id":"5126759458","tags":"addr:housenumber:710,addr:street:Avenida Borges de Medeiros,amenity:bar,opening_hours:Mo 11:00-14:00; Tu-We 11:00-14:00,17:00-22:00; Th 11:00-14:00; Fr 11:00-14:00,17:00-22:00,operator:Tutti Giorni","lat":-30.0328072,"lng":-51.227669},{"id":"5349208130","name":"Estética Companhia do Cabelo","tags":"addr:city:Porto Alegre,addr:street:Rua Duque de Caxias,addr:suburb:Centro Histórico,beauty:nails,phone:+55 51 3228-2491,shop:beauty","lat":-30.0322722,"lng":-51.2245105},{"id":"5349247319","name":"Estética Marina","tags":"addr:city:Porto Alegre,addr:street:Rua Duque de Caxias,addr:suburb:Centro Histórico,beauty:nails,phone:+55 51 3212-8911,shop:beauty","lat":-30.032645,"lng":-51.2250524},{"id":"5349247320","name":"Livraria Erico Veríssimo","tags":"addr:city:Porto Alegre,addr:street:Rua Jerônimo Coelho,addr:suburb:Centro Histórico,shop:books","lat":-30.0326507,"lng":-51.225637},{"id":"5349248421","name":"Restaurante Oriental Vegetariano","tags":"addr:city:Porto Alegre,addr:housenumber:355-357,addr:street:Rua Jerônimo Coelho,addr:suburb:Centro Histórico,amenity:restaurant,diet:vegetarian:only,outdoor_seating:no","lat":-30.032648,"lng":-51.2258666},{"id":"5349248422","name":"Central Pet","tags":"addr:city:Porto Alegre,addr:street:Rua Vigário José Inácio,addr:suburb:Centro Histórico,phone:+55 51 3028-0101,shop:pet","lat":-30.0326159,"lng":-51.2261346},{"id":"5349248423","name":"Restaurante Vida","tags":"addr:city:Porto Alegre,addr:street:Rua Jerônimo Coelho,addr:suburb:Centro Histórico,amenity:restaurant,outdoor_seating:no","lat":-30.0325079,"lng":-51.2264605},{"id":"5349248424","name":"Restaurante Estrela do Porto","tags":"addr:city:Porto Alegre,addr:street:Rua Jerônimo Coelho,addr:suburb:Centro Histórico,amenity:restaurant,outdoor_seating:no","lat":-30.0326205,"lng":-51.2267206},{"id":"5349255794","name":"Pharmaplus","tags":"addr:city:Porto Alegre,addr:street:Rua Marechal Floriano Peixoto,addr:suburb:Centro Histórico,amenity:pharmacy,healthcare:pharmacy","lat":-30.0326007,"lng":-51.2269852},{"id":"5349255795","name":"Correios","tags":"addr:city:Porto Alegre,addr:street:Rua Jerônimo Coelho,addr:suburb:Centro Histórico,amenity:post_office,operator:Correios,operator:wikidata:Q3375004,operator:wikipedia:en:Correios","lat":-30.0326007,"lng":-51.227122},{"id":"5349255800","name":"Restaurante Vivenda Portuguesa","tags":"addr:city:Porto Alegre,addr:street:Rua Jerônimo Coelho,addr:suburb:Centro Histórico,amenity:restaurant,outdoor_seating:no","lat":-30.0325832,"lng":-51.2273568},{"id":"5349266953","name":"Top Saloon","tags":"addr:city:Porto Alegre,addr:street:Praça Conde de Porto Alegre,addr:suburb:Centro Histórico,shop:beauty","lat":-30.0313805,"lng":-51.2241339},{"id":"5352516920","name":"Cosmobel","tags":"addr:city:Porto Alegre,addr:street:Rua Riachuelo,addr:suburb:Centro Histórico,shop:beauty","lat":-30.0315228,"lng":-51.2255508},{"id":"5352518121","name":"Empório do Cabelo","tags":"addr:city:Porto Alegre,addr:street:Rua Riachuelo,addr:suburb:Centro Histórico,shop:beauty","lat":-30.0315197,"lng":-51.2256171},{"id":"5352518123","name":"Dibel","tags":"addr:city:Porto Alegre,addr:street:Rua Riachuelo,addr:suburb:Centro Histórico,shop:beauty","lat":-30.0315143,"lng":-51.2258286},{"id":"5352518125","name":"GlitzHair","tags":"addr:city:Porto Alegre,addr:street:Rua Riachuelo,addr:suburb:Centro Histórico,beauty:aesthetic,shop:beauty","lat":-30.0316507,"lng":-51.2260047},{"id":"5352518128","name":"Restaurante Martinelli","tags":"addr:city:Porto Alegre,addr:street:Rua Riachuelo,addr:suburb:Centro Histórico,amenity:restaurant,phone:+55 51 3024-4737","lat":-30.031516,"lng":-51.2263117},{"id":"5352518129","name":"Encantado","tags":"addr:city:Porto Alegre,addr:street:Rua Riachuelo,addr:suburb:Centro Histórico,amenity:restaurant,outdoor_seating:no","lat":-30.0315134,"lng":-51.2263391},{"id":"5352518130","name":"Van der Laan","tags":"addr:city:Porto Alegre,addr:street:Rua Riachuelo,addr:suburb:Centro Histórico,amenity:pharmacy,healthcare:pharmacy","lat":-30.0315108,"lng":-51.2263981},{"id":"5352518131","name":"Beco dos Livros","tags":"addr:city:Porto Alegre,addr:street:Rua Riachuelo,addr:suburb:Centro Histórico,shop:books","lat":-30.0315081,"lng":-51.2264306},{"id":"5352518134","name":"Estética Mary Ferreira","tags":"addr:city:Porto Alegre,addr:street:Rua Riachuelo,addr:suburb:Centro Histórico,beauty:nails,shop:beauty","lat":-30.0316339,"lng":-51.226518},{"id":"5352518136","name":"Stanivet","tags":"addr:city:Porto Alegre,addr:street:Rua Marechal Floriano Peixoto,addr:suburb:Centro Histórico,shop:pet","lat":-30.0317545,"lng":-51.2269103},{"id":"5405432274","name":"Minimercado Lopes","tags":"addr:housenumber:80,addr:street:Avenida Desembargador André da Rocha,shop:supermarket","lat":-30.0331606,"lng":-51.2237731},{"id":"5922691924","name":"Squisito Pizzeria","tags":"addr:housenumber:826,addr:street:Rua Sarmento Leite,amenity:restaurant,contact:facebook:https://www.facebook.com/squisitopizzeria/,cuisine:italian;pizza,diet:vegan:yes,diet:vegetarian:yes,email:pizza@squisito.com.br,opening_hours:Tu-Sa 17:00-23:00; Su 16:00-22:00,operator:pizza,phone:+55 51 3737-0013,website:http://squisito.com.br/","lat":-30.0362099,"lng":-51.2230137},{"id":"5927758911","name":"Butcher Burger","tags":"addr:housenumber:119,addr:street:Rua General Lima e Silva,amenity:restaurant,contact:email:admbutcher@gmail.com,contact:facebook:https://www.facebook.com/butcherburgerpoa/,contact:phone:+55 51 3377-9995,cuisine:burger,diet:vegan:yes,opening_hours:Mo-Fr 12:00-14:30,17:30-22:00; Sa 12:30-16:00,18:30-23:00","lat":-30.0352259,"lng":-51.2252649},{"id":"5927758912","name":"Hot Dog Retro","tags":"addr:housenumber:266,addr:street:Rua General Lima e Silva,amenity:bar,contact:facebook:https://www.facebook.com/HotdogRetro-434497033652976/,cuisine:sausage;burger,delivery:yes,diet:vegan:yes,outdoor_seating:yes,takeaway:yes","lat":-30.0361444,"lng":-51.2241183},{"id":"6252123537","name":"La cucina di Fontana","tags":"amenity:restaurant,description:Oferece produtos regionais,opções de produtos delicatessen, temperos, cervejas artesanais, cachaças premiadas,. A loja tem uma pequena cafeteria, o Piccolo Bar, e este lugar oferece salgados com queijo e salame e vinho mediante reserva.,opening_hours:Mo-Fr 09:30-19:00; Sa 10:30-16:00,phone:+55 51 3557-2300","lat":-30.0334988,"lng":-51.224453},{"id":"6258976194","name":"Pizzaria Gaeta","tags":"addr:housenumber:1548,addr:street:R. Duque de Caxias, 1548 - Centro Histórico, Porto Alegre - RS, 90010-280,amenity:restaurant,description:É uma daquelas surpresas boas no centro da cidade. Apesar de ter algumas mesas, o lugar é uma opção perfeita para buscar e comer em casa. Fica a dica para a pizza de calabresa.,opening_hours:Tu-Su 18:00-00:00,phone:+55 51 3224-4444,website:https://www.pizzariagaeta.com.br","lat":-30.0330486,"lng":-51.2258606},{"id":"6259035246","name":"Du Magu","tags":"addr:street:Av. Loureiro da Silva, 1776 - Cidade Baixa, Porto Alegre - RS, 90050-240,amenity:restaurant,description:A cozinha popular com descontração e simplicidade de lanches diversos, petiscos, opções executivas e boemia.,opening_hours:Mo-Su 11:00-01:00,phone:+55 51 3286-7916","lat":-30.0358829,"lng":-51.2250633},{"id":"6277719385","name":"COFFEEHOOD","tags":"addr:housenumber:282,addr:postcode:90050-170,addr:street:Sarmento Leite,amenity:cafe,cuisine:tea;cake;coffee_shop,email:contato@coffeehood.com.br,internet_access:wlan,opening_hours:Mo-Fr 07:00-20:00,website:http://www.coffeehood.com.br","lat":-30.0319117,"lng":-51.2201497},{"id":"6294313095","name":"Clube 259 CB","tags":"addr:housenumber:259,addr:postcode:90050-101,addr:street:R. Gen. Lima e Silva, 259 - Centro Histórico, Porto Alegre - RS, 90050-101,opening_hours:Mo 13:00-20:00; Tu-Sa 09:00-20:00,phone:+55 51 3574-4972,shop:beauty","lat":-30.036283,"lng":-51.22416},{"id":"6356212079","name":"Pare Bem","tags":"amenity:parking","lat":-30.0335525,"lng":-51.2236763},{"id":"6356212201","name":"Farmácias Associadas","tags":"amenity:pharmacy,healthcare:pharmacy","lat":-30.0349732,"lng":-51.225589},{"id":"6416353534","name":"Restaurante Chicago Grill","tags":"addr:city:Porto Alegre,addr:housenumber:1040,addr:postcode:90010-310,addr:street:Rua Demétrio Ribeiro,addr:suburb:Centro Histórico,amenity:restaurant","lat":-30.0360194,"lng":-51.2290502},{"id":"7143280216","name":"Palmarinca","tags":"phone:+55 51 3026-2744,shop:books","lat":-30.0326344,"lng":-51.2265936},{"id":"9831692473","name":"Restaurante Onze e Meia","tags":"amenity:restaurant,cuisine:lunch","lat":-30.0359995,"lng":-51.2283195},{"id":"9831692474","name":"Padaria Captólio","tags":"amenity:cafe,outdoor_seating:no","lat":-30.035411,"lng":-51.228202},{"id":"9831692479","name":"Olá","tags":"amenity:restaurant","lat":-30.0357529,"lng":-51.2282315},{"id":"9831692480","tags":"amenity:bar,cuisine:barbecue;burger;pizza,drive_through:no","lat":-30.0359289,"lng":-51.2282546}]