[{"id":"2168287714","name":"Banrisul","tags":"addr:housename:Loja 114,addr:housenumber:390,addr:postcode:90550-142,addr:street:Rua Dom Pedro II,amenity:bank,atm:yes,branch:Benjamin Constant,brand:Banrisul,brand:wikidata:Q4857098,brand:wikipedia:en:Banrisul,opening_hours:Mo-Fr 10:00-16:00,operator:Banrisul,phone:+55 51 3343-2765","lat":-30.0100471,"lng":-51.1885397},{"id":"3777680858","name":"Shark","tags":"addr:street:Rua Dom Pedro II,amenity:restaurant,cuisine:japanese","lat":-30.0140081,"lng":-51.1869779},{"id":"4613902690","name":"Farmácia Super Econômica","tags":"amenity:pharmacy,healthcare:pharmacy","lat":-30.0104625,"lng":-51.1928306},{"id":"7128364718","tags":"amenity:atm,cash_in:yes,currency:BRL:yes,drive_through:no,network:Saque e Pague,operator:Saque e Pague","lat":-30.0140493,"lng":-51.1869385},{"id":"9169735979","name":"Banco24Horas","tags":"amenity:atm,brand:Banco24Horas,brand:wikidata:Q4854069,brand:wikipedia:pt:Banco24Horas,drive_through:no,operator:banco24horas","lat":-30.0140575,"lng":-51.1869603}]