[{"id":"537130483","name":"Rissul","tags":"shop:supermarket","lat":-29.7301409,"lng":-51.1510667},{"id":"1095606001","name":"Minimercado Zico","tags":"addr:city:São Leopoldo,addr:country:BR,addr:housenumber:2870,addr:street:Avenida Mauá,shop:convenience","lat":-29.7320375,"lng":-51.1417096},{"id":"1095606234","name":"Mercado Pereira","tags":"addr:city:São Leopoldo,addr:country:BR,addr:housenumber:2650,addr:street:Avenida Mauá,shop:convenience","lat":-29.7338882,"lng":-51.1424368},{"id":"1114341324","name":"Bradesco","tags":"amenity:bank,brand:Bradesco,brand:wikidata:Q806181,brand:wikipedia:en:Banco Bradesco,operator:Bradesco","lat":-29.7319091,"lng":-51.1499805},{"id":"1186760565","name":"Farmácia Sulbrasileira","tags":"addr:city:São Leopoldo,addr:country:BR,addr:housenumber:80,addr:street:Rua Leopoldo Wasun,amenity:pharmacy,healthcare:pharmacy","lat":-29.7344737,"lng":-51.1414372},{"id":"1186760584","name":"Pereiras","tags":"amenity:restaurant","lat":-29.7339748,"lng":-51.1425004},{"id":"1374291835","name":"Posto Makro São Leopoldo","tags":"amenity:fuel,brand:BR,shop:convenience","lat":-29.7312051,"lng":-51.148301},{"id":"1925852970","name":"Correios - Agência Scharlau","tags":"addr:housenumber:44,addr:postcode:93121-970,addr:street:Rua Pinto Bandeira,amenity:post_office,contact:phone:+55 51 3568-1200,opening_hours:Mo-Fr 09:00-17:00,operator:Correios,operator:wikidata:Q3375004,operator:wikipedia:en:Correios,short_name:AC Scharlau","lat":-29.7312058,"lng":-51.1509348},{"id":"1925852971","name":"Capilé","tags":"amenity:pharmacy,healthcare:pharmacy","lat":-29.7294043,"lng":-51.1522051},{"id":"5387489981","name":"São João","tags":"amenity:pharmacy,brand:São João,brand:wikidata:Q62663306,healthcare:pharmacy","lat":-29.7290155,"lng":-51.1516672},{"id":"5387507480","name":"EEEF Prof. Augusto Meyer","tags":"amenity:school","lat":-29.7306443,"lng":-51.1515636},{"id":"7152470565","name":"EEEF Firmino Acauan","tags":"amenity:school","lat":-29.7332177,"lng":-51.143862}]