[{"id":"1068643869","name":"Escola Municipal de Ensino Fundamental Barão do Rio Branco","tags":"amenity:school","lat":-29.7646927,"lng":-51.1233093},{"id":"1070182545","name":"Casa Velha Produtos Coloniais","tags":"shop:convenience","lat":-29.7668188,"lng":-51.1273272},{"id":"1073406845","name":"3ª Delegacia de Polícia Civil","tags":"addr:city:São Leopoldo,addr:housenumber:1592,addr:street:Avenida Feitoria,alt_name:3ª DPRM/DPM,amenity:police,operator:Polícia Civil","lat":-29.766215,"lng":-51.1206308},{"id":"1077289790","name":"Pinheiros","tags":"addr:city:São Leopoldo,addr:country:BR,addr:housenumber:1270,addr:street:Avenida Feitoria,amenity:restaurant","lat":-29.7654595,"lng":-51.1238207},{"id":"1079964218","name":"Agropecuária Veiga","tags":"shop:pet,trade:agricultural_supplies","lat":-29.7664423,"lng":-51.1195793}]