[{"id":"3213142038","name":"Hospital Sapiranga","tags":"amenity:hospital,emergency:yes,healthcare:hospital,operator:Sociedade Beneficente Sapiranguense,phone:+55 51 3599-8100,website:http://www.hospitalsapiranga.com.br/,wheelchair:yes","lat":-29.6407167,"lng":-51.007056},{"id":"4792486021","name":"Museu Municipal","tags":"addr:city:Sapiranga,addr:suburb:Centro,tourism:museum","lat":-29.6364778,"lng":-51.0074563},{"id":"4792563247","name":"Spetaccolo","tags":"addr:city:Sapiranga,addr:suburb:Centro,amenity:restaurant","lat":-29.6387744,"lng":-51.0064673},{"id":"4792571831","name":"Imaculado","tags":"addr:city:Sapiranga,addr:suburb:Centro,amenity:school","lat":-29.638203,"lng":-51.0037451},{"id":"4795451246","name":"Yutaka Sushi Bar","tags":"amenity:restaurant,cuisine:sushi","lat":-29.6386652,"lng":-51.0081973},{"id":"8606339083","name":"Praça","tags":"addr:city:Sapiranga,addr:postcode:93800-222,addr:street:Rua João Otto Saenger,addr:suburb:Centro,architect:Gustavo Schiaffino,building:flats:180,building:levels:13,height:43.95,leisure:park","lat":-29.6382837,"lng":-51.0004213},{"id":"9193005732","name":"Farmácia Agafarma 24 Horas","tags":"addr:city:Sapiranga,addr:housenumber:507,addr:street:Avenida João Corrêa,addr:suburb:Centro,amenity:pharmacy,dispensing:yes,healthcare:pharmacy","lat":-29.637408,"lng":-51.0015157},{"id":"9193017464","name":"Café das Nações","tags":"addr:city:Sapiranga,addr:housenumber:629,addr:street:Avenida João Corrêa,addr:suburb:Centro,amenity:cafe","lat":-29.6382874,"lng":-51.0022714}]