[{"id":"538392800","name":"Biblioteca Municipal Machado de Assis","tags":"amenity:library","lat":-29.6808715,"lng":-51.1231278},{"id":"1200933494","name":"Bradesco","tags":"amenity:bank,branch:Prime,brand:Bradesco,brand:wikidata:Q806181,brand:wikipedia:en:Banco Bradesco,operator:Bradesco","lat":-29.683579,"lng":-51.1281358},{"id":"1200933553","name":"Itaú","tags":"amenity:bank,brand:Itaú Unibanco,brand:wikidata:Q1424293,brand:wikipedia:pt:Itaú Unibanco,operator:Itaú","lat":-29.683688,"lng":-51.1290737},{"id":"1236544710","name":"Star Park","tags":"amenity:parking,fee:yes,parking:surface,wheelchair:limited","lat":-29.6829671,"lng":-51.1299593},{"id":"1236544738","name":"Panvel","tags":"amenity:pharmacy,brand:Panvel,brand:wikidata:Q10344254,brand:wikipedia:pt:Panvel,healthcare:pharmacy","lat":-29.6834675,"lng":-51.1299724},{"id":"1236544794","name":"Mais Econômica","tags":"addr:city:Novo Hamburgo,addr:country:BR,addr:housenumber:5550,addr:street:Avenida Pedro Adams Filho,amenity:pharmacy,healthcare:pharmacy","lat":-29.6837841,"lng":-51.1301252},{"id":"1236544819","name":"Santander","tags":"addr:city:Novo Hamburgo,addr:country:BR,addr:housenumber:726,addr:street:Rua Joaquim Nabuco,amenity:bank,brand:Santander,brand:wikidata:Q5835668,brand:wikipedia:en:Santander Bank,operator:Santander","lat":-29.6835008,"lng":-51.1302103},{"id":"1236544921","name":"Maxxi Econômica","tags":"amenity:pharmacy,healthcare:pharmacy","lat":-29.683756,"lng":-51.1298881},{"id":"1917756737","name":"Armazém Toast","tags":"addr:city:Novo Hamburgo,addr:country:BR,addr:housenumber:17,addr:street:Rua Almirante Barroso,shop:convenience,website:http://www.toastrestobar.com.br/armazem","lat":-29.6831717,"lng":-51.1215125},{"id":"1917756739","name":"Toast","tags":"addr:city:Novo Hamburgo,addr:country:BR,addr:housenumber:11,addr:street:Rua Almirante Barroso,amenity:restaurant,website:http://www.toastrestobar.com.br","lat":-29.6832714,"lng":-51.1214717},{"id":"4562818090","name":"IERGS/UNIASSELVI","tags":"addr:housenumber:2842,addr:street:Rua Bento Gonçalves,amenity:school,opening_hours:Mo-Fr 10:00-22:00; Sa 08:00-12:00","lat":-29.6812129,"lng":-51.129181},{"id":"5810877254","name":"VegTal","tags":"addr:housenumber:890,addr:postcode:93510-250,addr:street:Avenida Doutor Maurício Cardoso,alt_name:Vegtal Cozinha Vegana,amenity:restaurant,diet:vegan:only,phone:+55 51 3586-3116,website:https://facebook.com/vegtal","lat":-29.6817773,"lng":-51.1195264},{"id":"9470447561","name":"Droga Raia","tags":"addr:city:Novo Hamburgo,addr:housenumber:5837,addr:postcode:93320-105,addr:street:Avenida Pedro Adams Filho,addr:suburb:Centro,amenity:pharmacy,brand:Droga Raia,brand:wikidata:Q10357101,brand:wikipedia:pt:RaiaDrogasil,contact:phone:+55 51 3581 2076,dispensing:yes,drive_through:no,healthcare:pharmacy,opening_hours:Mo-Su 07:00-23:00,opening_hours:covid19:same,phone:+55 51 99500 5004","lat":-29.6810789,"lng":-51.1302819},{"id":"9482113517","name":"Boteco 1538","tags":"amenity:restaurant","lat":-29.6840175,"lng":-51.1211159}]