[{"id":"1106153222","name":"Livraria Ipê","tags":"shop:books","lat":-29.6097467,"lng":-51.1634109},{"id":"1883585288","name":"Drogaria Ivoti","tags":"amenity:pharmacy,brand:Vida Farmácias","lat":-29.6098899,"lng":-51.1638791},{"id":"1898318323","name":"Farmácia Sereia","tags":"amenity:pharmacy","lat":-29.6123299,"lng":-51.1642342},{"id":"1898318324","name":"Mini Mercado do Careca","tags":"shop:convenience","lat":-29.6099988,"lng":-51.1635194},{"id":"1898318325","name":"Restaurante Rosengarten","tags":"amenity:restaurant","lat":-29.6133334,"lng":-51.164442}]