[{"id":"3764672876","name":"Centro Sinodal de Ensino Medio Dorothea Schäfke","tags":"addr:city:Taquara,addr:housenumber:1223,addr:postcode:95600-000,addr:street:Pinheiro Machado,addr:suburb:Centro,amenity:school,phone:+55 51 3542-2202","lat":-29.6514837,"lng":-50.7801618},{"id":"3784469024","name":"Rissul","tags":"addr:city:Taquara,addr:housenumber:2710,addr:postcode:95600-000,addr:street:Rua Júlio de Castilhos,addr:suburb:Centro,phone:+55 51 3542-4344,shop:supermarket","lat":-29.6477062,"lng":-50.780677},{"id":"3784483194","name":"Dia","tags":"addr:city:Taquara,addr:housenumber:1658,addr:postcode:95600-000,addr:street:Rua Marechal Floriano,addr:suburb:Centro,brand:Dia,brand:wikidata:Q925132,brand:wikipedia:es:Supermercados DIA,shop:supermarket,wheelchair:limited","lat":-29.6492045,"lng":-50.7842996},{"id":"4025553062","name":"Itaú","tags":"addr:city:Taquara,addr:housenumber:2619,addr:postcode:95600-000,addr:street:Julho de Castilhos,addr:suburb:Centro,amenity:bank,phone:+55 11 4004-4828","lat":-29.6482845,"lng":-50.781117},{"id":"4026534014","name":"Banrisul","tags":"addr:city:Taquara,addr:housenumber:2462,addr:postcode:95600-000,addr:street:Rua Júlio de Castilhos,addr:suburb:Centro,amenity:bank,atm:yes,phone:+55 51 3542-6433","lat":-29.6497187,"lng":-50.7808632},{"id":"6821619002","name":"Escola Estadual de Ensino Fundamental Rodolfo Von Ihering","tags":"amenity:school,wheelchair:limited","lat":-29.6506138,"lng":-50.7833501},{"id":"8536709551","name":"Desco Super & Atacado","tags":"addr:city:Taquara,addr:housenumber:2525,addr:postcode:95600-000,addr:street:R. Ernesto Alves,addr:suburb:Centro,shop:supermarket","lat":-29.6491111,"lng":-50.7856858},{"id":"9900754361","name":"Shopping Viena","tags":"shop:mall","lat":-29.6492711,"lng":-50.7807531}]