[{"id":"2402983304","name":"Igreja Evangélica","tags":"amenity:place_of_worship,building:church,denomination:evangelical,religion:christian","lat":-29.3932058,"lng":-51.9243789},{"id":"2402983351","name":"Igreja Católica","tags":"amenity:place_of_worship,building:church,denomination:catholic,religion:christian","lat":-29.392673,"lng":-51.9244915},{"id":"4293722062","tags":"amenity:place_of_worship,building:church,denomination:pentecostal,religion:christian","lat":-29.3903907,"lng":-51.9267149},{"id":"4293747907","tags":"amenity:pharmacy","lat":-29.3922227,"lng":-51.924402},{"id":"4296383231","name":"Escola João Beda Korbes","tags":"amenity:school","lat":-29.3924566,"lng":-51.9249456}]