[{"id":"2154568730","name":"Instituto Estadual de Educação Monsenhor Scalabrini","tags":"amenity:school","lat":-29.2363095,"lng":-51.8723119},{"id":"2154859780","name":"Estação Rodoviária de Encantado","tags":"DER:RS:categoria_rodoviaria:terceira,DER:RS:zona_de_fiscalizacao:11,addr:housenumber:264,addr:postcode:95960-000,addr:street:Rua Tiradentes,addr:suburb:Centro,amenity:bus_station,contact:email:rodoencantado@gmail.com,contact:phone:+55 51 3751-3038;+55 51 3751-1280,network:BR:RS,official_name:Encantado,operator:Estação Rodoviária de Encantado Ltda ME,public_transport:station,ref:vatin:BR91977256000109","lat":-29.2398751,"lng":-51.8699576},{"id":"2154859781","name":"Delegacia de Polícia","tags":"amenity:police","lat":-29.2381853,"lng":-51.8690081},{"id":"2154859783","name":"Brigada Militar","tags":"amenity:police","lat":-29.2388734,"lng":-51.8677529},{"id":"4318188091","name":"São João","tags":"amenity:pharmacy","lat":-29.2375298,"lng":-51.8718968},{"id":"5697078782","tags":"amenity:bank,brand:Banco do Brasil","lat":-29.2381354,"lng":-51.8694109},{"id":"9643291536","name":"Farmácia Municipal de Encantado","tags":"addr:city:Encantado,addr:housenumber:1676,addr:postcode:95960-000,addr:street:Rua João Lucca,amenity:pharmacy,dispensing:yes,healthcare:pharmacy","lat":-29.2392705,"lng":-51.868464}]