[{"id":"3409331750","tags":"amenity:post_office","lat":-29.2552792,"lng":-51.5266025},{"id":"3449305123","name":"Hospital São Pedro","tags":"amenity:hospital,website:http://www.hbsp.com.br/","lat":-29.2539683,"lng":-51.5338548},{"id":"5750420390","name":"Arquivo Histórico Municipal","tags":"tourism:museum,website:http://turismo.garibaldi.rs.gov.br/museu-e-arquivo-historico-municipal","lat":-29.2540775,"lng":-51.5318576},{"id":"5796871925","name":"Marisa","tags":"amenity:restaurant","lat":-29.2542265,"lng":-51.5326194},{"id":"6088760196","name":"Centro Histórico de Garibaldi","tags":"historic:district,tourism:attraction","lat":-29.2556181,"lng":-51.5299246},{"id":"6261014742","name":"Super Apolo","tags":"shop:supermarket","lat":-29.2538039,"lng":-51.5304935},{"id":"6261017908","name":"Caitá Supermercados","tags":"addr:city:Garibaldi,addr:housenumber:120,addr:postcode:95720-000,addr:street:Avenida Rio Branco,shop:supermarket","lat":-29.2561425,"lng":-51.5272156},{"id":"7389797005","name":"Papaula Lanches","tags":"amenity:cafe","lat":-29.2545031,"lng":-51.5312196},{"id":"7390011469","name":"Santander","tags":"amenity:bank,brand:Santander,brand:wikidata:Q5835668,brand:wikipedia:en:Santander Bank","lat":-29.2560279,"lng":-51.5295638},{"id":"7390011470","name":"Clube 31 de Outubro","tags":"amenity:restaurant","lat":-29.2549343,"lng":-51.5295588},{"id":"7559732000","name":"Piccola Garibaldi","tags":"tourism:attraction,website:http://turismo.garibaldi.rs.gov.br/rotas-atrativos/piccola-garibaldi","lat":-29.2551131,"lng":-51.5302569},{"id":"8804794608","name":"Oftalmologista - Dra. Camila Eccker","tags":"addr:city:Garibaldi,addr:housenumber:203, Sala 304,addr:postcode:95720-000,addr:street:Avenida Rio Branco,addr:suburb:Centro,amenity:hospital,healthcare:hospital,healthcare:speciality:ophthalmology","lat":-29.2557648,"lng":-51.5275274}]