[{"id":"4633900759","name":"Mais Econômica","tags":"amenity:pharmacy,healthcare:pharmacy","lat":-29.2281764,"lng":-51.3471299},{"id":"4633900760","name":"Farmácia do Círculo","tags":"amenity:pharmacy,healthcare:pharmacy","lat":-29.2279377,"lng":-51.3470548},{"id":"4633900761","name":"Banrisul","tags":"amenity:bank,brand:Banrisul,brand:wikidata:Q4857098,brand:wikipedia:en:Banrisul","lat":-29.2285158,"lng":-51.3472693},{"id":"4633900762","name":"Shopping O. Valentini","tags":"shop:mall","lat":-29.2285978,"lng":-51.3468214},{"id":"4633900763","name":"Galeria Merlin","tags":"shop:mall","lat":-29.2276479,"lng":-51.3466447},{"id":"4633900765","name":"Hospital Beneficente São Carlos","tags":"amenity:hospital,healthcare:hospital","lat":-29.2268129,"lng":-51.3490615},{"id":"4633900766","name":"Nossa Senhora de Lourdes","tags":"amenity:school","lat":-29.2260675,"lng":-51.3491375},{"id":"6511425473","name":"Itaú","tags":"amenity:bank,brand:Itaú Unibanco,brand:wikidata:Q1424293,brand:wikipedia:pt:Itaú Unibanco","lat":-29.2246183,"lng":-51.3477444},{"id":"6511425475","name":"Dia","tags":"brand:Dia,brand:wikidata:Q925132,brand:wikipedia:es:Supermercados DIA,shop:supermarket","lat":-29.2251997,"lng":-51.3474148},{"id":"6511425476","name":"Imec","tags":"shop:supermarket","lat":-29.2244776,"lng":-51.3465733},{"id":"6511426194","name":"Andreazza","tags":"shop:supermarket","lat":-29.2289765,"lng":-51.3418826},{"id":"7573380879","name":"Farmácia Marlene","tags":"amenity:pharmacy,dispensing:yes,healthcare:pharmacy","lat":-29.2274998,"lng":-51.3487315},{"id":"7573431549","name":"Galeria Central","tags":"shop:mall","lat":-29.2269513,"lng":-51.3456197},{"id":"9519045882","name":"Museu Casal Moschetti","tags":"tourism:museum","lat":-29.2278414,"lng":-51.3481859}]