[{"id":"5859800826","name":"Motter","tags":"shop:supermarket","lat":-29.1829562,"lng":-51.2018841},{"id":"6221580091","name":"Prolar","tags":"amenity:pharmacy,dispensing:yes,healthcare:pharmacy","lat":-29.184768,"lng":-51.1999804},{"id":"6380962013","name":"Design dos Fios","tags":"shop:beauty","lat":-29.1808872,"lng":-51.2004603},{"id":"6381040616","name":"Stop Dog","tags":"shop:pet","lat":-29.1810866,"lng":-51.1999508},{"id":"6381354938","name":"Mercado Parenti","tags":"shop:supermarket","lat":-29.1815007,"lng":-51.1998158},{"id":"6381524715","name":"Cattani","tags":"amenity:restaurant,cuisine:pizza,outdoor_seating:no","lat":-29.1813449,"lng":-51.1998478},{"id":"6789470596","name":"Escola de Educação Infantil Vovó Lú","tags":"amenity:childcare","lat":-29.1825038,"lng":-51.1967777},{"id":"9384648592","name":"Brigada Militar - 12º BPM","tags":"amenity:police","lat":-29.1848932,"lng":-51.1964063}]