[{"id":"5763902744","name":"Escola Estadual de 1º Grau José Generosi","tags":"amenity:school","lat":-29.2170817,"lng":-51.2838827},{"id":"5763905488","name":"Museu Primo Slomp","tags":"tourism:museum","lat":-29.2145771,"lng":-51.2815559},{"id":"5835213508","name":"Escola de Educação Infantil Aurora Milesi Rizzi","tags":"amenity:school","lat":-29.2126874,"lng":-51.2792173},{"id":"6791463118","name":"Escola Cenecista São Vicente","tags":"amenity:school","lat":-29.2154008,"lng":-51.2795001},{"id":"7776373977","name":"Sanar","tags":"amenity:pharmacy,dispensing:yes,healthcare:pharmacy","lat":-29.2142463,"lng":-51.2831792}]