[{"id":"5315680189","name":"Super Sacolão Rizzo","tags":"shop:supermarket","lat":-29.1919154,"lng":-51.2374143},{"id":"5323072138","name":"Farmácia São João","tags":"amenity:pharmacy,healthcare:pharmacy","lat":-29.1918266,"lng":-51.2353954},{"id":"5721265893","name":"Escola Infantil Santa Rita de Cássia","tags":"amenity:school","lat":-29.1922108,"lng":-51.232952},{"id":"5758451241","name":"Sacolão Dia e Noite","tags":"shop:supermarket","lat":-29.1917544,"lng":-51.2369292},{"id":"7603478849","name":"Super Adriham - Rede Super Bom","tags":"shop:supermarket,website:https://pt-br.facebook.com/superadrihan/","lat":-29.1907463,"lng":-51.2332093},{"id":"7618741191","name":"Editora e Livraria Correa","tags":"shop:books","lat":-29.1921324,"lng":-51.2355663},{"id":"7618741192","name":"Preço Popular","tags":"amenity:pharmacy,dispensing:yes,healthcare:pharmacy","lat":-29.1920597,"lng":-51.235936},{"id":"7619771245","name":"Sacolão São José","tags":"shop:supermarket","lat":-29.191802,"lng":-51.2348763}]