[{"id":"4977499121","name":"Farmácia São João","tags":"amenity:pharmacy,brand:Farmácia São João,brand:wikidata:Q65164556,dispensing:yes,healthcare:pharmacy","lat":-29.1803,"lng":-51.2170459},{"id":"4977500420","name":"Multi Villagio","tags":"shop:supermarket","lat":-29.1799583,"lng":-51.2171542},{"id":"5323072140","name":"Sacolão Madrid","tags":"shop:supermarket","lat":-29.1838554,"lng":-51.2166173},{"id":"5714395204","name":"Escola de Ensino Fundamental Fermino Ferronato","tags":"amenity:school","lat":-29.1848262,"lng":-51.2143596},{"id":"5714404096","name":"Supermercado Comarim","tags":"shop:supermarket","lat":-29.1835166,"lng":-51.2131789},{"id":"5760762973","name":"Academia Conexão Esportiva","tags":"leisure:fitness_centre","lat":-29.1805865,"lng":-51.2129081},{"id":"5760762974","name":"Restaurante Anzolin","tags":"amenity:restaurant","lat":-29.180652,"lng":-51.2149895},{"id":"6498619466","name":"Saque e Pague","tags":"amenity:atm,operator:Saque e Pague","lat":-29.1827974,"lng":-51.215021}]