[{"id":"1998475547","name":"Correios","tags":"amenity:post_office,brand:Correios,brand:wikidata:Q3375004,brand:wikipedia:en:Correios","lat":-29.3594992,"lng":-50.8113682},{"id":"3170959243","name":"Xizao Lanches","tags":"amenity:restaurant","lat":-29.3574815,"lng":-50.8092116},{"id":"3744930004","name":"Magnólia Cine Gastrô Bar","tags":"addr:city:Canela,addr:housenumber:255,addr:street:Rua Dona Carlinda,addr:suburb:Centro,amenity:restaurant,internet_access:yes,phone:+55 54 3278-0102,website:https://www.magnoliacanela.com.br/","lat":-29.3605934,"lng":-50.8110022},{"id":"5913704382","name":"Dia","tags":"brand:Dia,brand:wikidata:Q925132,brand:wikipedia:es:Supermercados DIA,shop:supermarket","lat":-29.3565543,"lng":-50.8052334},{"id":"9685710017","name":"Sabor de Casa","tags":"amenity:restaurant","lat":-29.3564175,"lng":-50.803977},{"id":"10676621213","name":"Dia","tags":"brand:Dia,brand:wikidata:Q925132,shop:supermarket","lat":-29.3564697,"lng":-50.8053596},{"id":"10687224491","name":"Panvel","tags":"amenity:pharmacy,brand:Panvel,brand:wikidata:Q10344254,healthcare:pharmacy","lat":-29.3582751,"lng":-50.8107699},{"id":"10687224492","name":"Farmácia São João","tags":"amenity:pharmacy,brand:Farmácia São João,brand:wikidata:Q65164556,healthcare:pharmacy","lat":-29.3574288,"lng":-50.8089111}]