[{"id":"2363203776","name":"Rótula das Bandeiras","tags":"tourism:attraction","lat":-29.3853619,"lng":-50.8733716},{"id":"5318476708","tags":"amenity:parking","lat":-29.3847793,"lng":-50.8710511},{"id":"6847337309","name":"Nonno Mio","tags":"amenity:restaurant","lat":-29.3839428,"lng":-50.8722325},{"id":"7091941885","name":"Per Voi Massas e Galeto","tags":"addr:street:Rua Darci Brock,amenity:restaurant","lat":-29.3848374,"lng":-50.8709155},{"id":"7549654775","name":"Restaurante Höppner","tags":"addr:city:Gramado,addr:housenumber:364,addr:postcode:95670-000,addr:street:Rua Pedro Candiago,addr:suburb:Planalto,amenity:restaurant,cuisine:german;regional;international,opening_hours:24/7,phone:+55 54 3286-7707,website:www.rittahoppner.com/restaurante","lat":-29.3844919,"lng":-50.8766361},{"id":"8898634017","name":"Hector Pizzaria","tags":"addr:housenumber:1791 - Centro,addr:postcode:95670-000,addr:street:Avenida Borges de Medeiros,amenity:restaurant","lat":-29.3858921,"lng":-50.873784}]