[{"id":"5888608403","name":"Apolo","tags":"brand:wikidata:Q925132,brand:wikipedia:es:Supermercados DIA,shop:supermarket","lat":-29.1689333,"lng":-51.1720543},{"id":"6002777840","name":"SENAI NILO PEÇANHA","tags":"addr:street:Rua Vereador Mário Pezzi,amenity:school","lat":-29.1713307,"lng":-51.1707301},{"id":"7217313533","name":"Six Gym","tags":"leisure:fitness_centre","lat":-29.1687844,"lng":-51.1649601},{"id":"7573401874","name":"Casa Di Paolo","tags":"amenity:restaurant,cuisine:italian,website:https://dipaolo.com.br/","lat":-29.1699187,"lng":-51.1657064},{"id":"7738418289","name":"Mercado Preço Bom","tags":"shop:convenience","lat":-29.1737302,"lng":-51.1672622},{"id":"9323521128","name":"Panvel","tags":"amenity:pharmacy,brand:Panvel,brand:wikidata:Q10344254,brand:wikipedia:pt:Panvel,dispensing:yes,healthcare:pharmacy","lat":-29.1698833,"lng":-51.1672967},{"id":"9443293998","name":"Cresol","tags":"amenity:bank,website:https://cresol.com.br/","lat":-29.1688443,"lng":-51.1716442}]