[{"id":"5714368038","name":"Supermercado Comarim","tags":"shop:supermarket","lat":-29.1717378,"lng":-51.1598778},{"id":"5720593792","name":"Fabbrica - Espaço Gastronômico","tags":"amenity:restaurant,website:http://fabbricacaxias.com.br/","lat":-29.1691129,"lng":-51.161246},{"id":"5761094081","name":"Supermercado Andreazza","tags":"shop:supermarket","lat":-29.173684,"lng":-51.1537568},{"id":"5763792165","name":"Restaurante Famiglia Gelain","tags":"amenity:restaurant","lat":-29.1713133,"lng":-51.1608993},{"id":"5904891856","name":"Sicredi","tags":"amenity:bank,brand:Sicredi,brand:wikidata:Q3483060,brand:wikipedia:pt:Sistema de Crédito Cooperativo","lat":-29.1699354,"lng":-51.1535567},{"id":"8864483160","name":"Churrascaria Laço de Ouro","tags":"amenity:restaurant,cuisine:steak_house","lat":-29.1692949,"lng":-51.1630757}]