[{"id":"5734043048","name":"Cresol","tags":"amenity:bank,website:https://cresolsicoper.com.br/","lat":-29.059122,"lng":-51.2609802},{"id":"5734059917","name":"Grêmio Esportivo Otávio Rocha - Sede Social","tags":"leisure:sports_centre","lat":-29.0618722,"lng":-51.2620207},{"id":"5734059918","name":"Museu Padre Alberto Lamonato","tags":"tourism:museum","lat":-29.0600352,"lng":-51.2619646},{"id":"8099194959","tags":"amenity:post_office","lat":-29.0600646,"lng":-51.2619547},{"id":"8107700139","name":"Túnel da Uva","tags":"tourism:attraction","lat":-29.0601508,"lng":-51.261326}]