[{"id":"2705214012","name":"Pizzaria O Fornão","tags":"amenity:restaurant","lat":-29.1619588,"lng":-51.1831753},{"id":"5741837477","name":"Colégio e Faculdade Murialdo","tags":"amenity:school,website:http://www.colegiomurialdo.com.br/","lat":-29.1629595,"lng":-51.1790732},{"id":"6319254296","name":"Restaurante Padova (FECHADO)","tags":"amenity:restaurant,website:https://pt-br.facebook.com/RestaurantePadova/","lat":-29.1619279,"lng":-51.1790755},{"id":"6319900485","name":"Personal Bistrô","tags":"amenity:restaurant","lat":-29.1625647,"lng":-51.1834355},{"id":"7137805660","name":"Umai-Yoo","tags":"amenity:restaurant,cuisine:sushi","lat":-29.1592019,"lng":-51.1790838},{"id":"8540449045","name":"Empório Camatti","tags":"shop:supermarket","lat":-29.1616881,"lng":-51.1817216}]