[{"id":"4501170786","name":"Estação Rooviária de Flores da Cunha","tags":"amenity:bus_station","lat":-29.0289788,"lng":-51.1817301},{"id":"4501170787","name":"Escola São José","tags":"amenity:school","lat":-29.026208,"lng":-51.1807314},{"id":"4501170889","name":"Escola Professor Targa","tags":"amenity:school","lat":-29.0259664,"lng":-51.1841234},{"id":"5340633521","name":"Insieme","tags":"addr:city:Flores da Cunha,addr:housenumber:1503,addr:postcode:95270-000,addr:street:Avenida 25 de Julho,addr:suburb:Centro,amenity:cafe,cuisine:coffee_shop,internet_access:wlan,opening_hours:Mo-Sa 11:00-22:00,phone:+55 54 3292-5039","lat":-29.0294847,"lng":-51.1812598},{"id":"7486788020","name":"Museu e Arquivo Histórico Pedro Rossi","tags":"tourism:museum","lat":-29.0303757,"lng":-51.1815635},{"id":"8691953755","name":"Santander","tags":"amenity:bank,brand:Santander,brand:wikidata:Q5835668,brand:wikipedia:en:Santander Bank","lat":-29.028301,"lng":-51.1828077},{"id":"9632298154","name":"Vermelhão Supermercado","tags":"shop:supermarket","lat":-29.0278847,"lng":-51.1814433},{"id":"9632308577","name":"Farmácia Cardoso","tags":"amenity:pharmacy,dispensing:yes,healthcare:pharmacy","lat":-29.0280611,"lng":-51.1817618}]