[{"id":"2707750903","name":"Farmácia do Hospital São João bosco","tags":"amenity:pharmacy,healthcare:pharmacy","lat":-28.9715325,"lng":-51.0684222},{"id":"2707761882","name":"Medicafarma","tags":"amenity:pharmacy,healthcare:pharmacy","lat":-28.9714715,"lng":-51.069951},{"id":"2707812217","name":"Restaurante Ala Cantina","tags":"amenity:restaurant","lat":-28.9751554,"lng":-51.0683376},{"id":"4776862900","tags":"amenity:police","lat":-28.9746525,"lng":-51.0721513},{"id":"4823651279","name":"Colégio Estadual São Marcos","tags":"amenity:school","lat":-28.9725321,"lng":-51.0668454},{"id":"8085854401","name":"Mercado Vanin","tags":"shop:supermarket","lat":-28.9741972,"lng":-51.0676009},{"id":"9574150236","name":"Faculdade de São Marcos (FACSM)","tags":"amenity:university","lat":-28.9732049,"lng":-51.0677267}]