[{"id":"5859911470","name":"Castelinho de Imbé","tags":"description:Um dos mais antigos prédios da cidade, construído em meados de 1950. Em 2019, a Prefeitura adquire o imóvel, a ideia é realizar o tombamento do Castelinho como patrimônio histórico do município e transformá-lo em centro cultural.\n,tourism:museum","lat":-29.965223,"lng":-50.1207137},{"id":"7112947367","name":"Cantina da Figueira","tags":"amenity:restaurant,website:https://www.facebook.com/cantinadafigueira/","lat":-29.9669967,"lng":-50.1212603},{"id":"7112947368","name":"Restaurante Eloá","tags":"amenity:restaurant","lat":-29.9690184,"lng":-50.1258773},{"id":"7113366390","name":"Sacolão Maquiné","tags":"shop:supermarket","lat":-29.969424,"lng":-50.1216518},{"id":"9412721979","tags":"amenity:library","lat":-29.9652278,"lng":-50.1207811}]