[{"id":"3328707742","name":"Polícia Civíl","tags":"amenity:police","lat":-29.984657,"lng":-50.131471},{"id":"3835795941","name":"Sorveteria Kiko","tags":"amenity:cafe","lat":-29.984609,"lng":-50.1347254},{"id":"6214875364","name":"Santander","tags":"amenity:bank,brand:Santander,brand:wikidata:Q5835668,brand:wikipedia:en:Santander Bank","lat":-29.9845069,"lng":-50.1347603},{"id":"6214896369","name":"Panvel","tags":"amenity:pharmacy,brand:Panvel,brand:wikidata:Q10344254,brand:wikipedia:pt:Panvel,dispensing:yes,healthcare:pharmacy","lat":-29.9841055,"lng":-50.1338069},{"id":"7114271442","name":"Estação Rodobar","tags":"amenity:restaurant","lat":-29.9847537,"lng":-50.1354319},{"id":"7200199273","name":"Restaurante Triângulo","tags":"amenity:restaurant,website:https://pt-br.facebook.com/restaurantetriangulo.frutosdomar/","lat":-29.983969,"lng":-50.1364643},{"id":"7200201267","name":"Museu Histórico Abrilina Hoffmeister","tags":"tourism:museum,website:https://pt-br.facebook.com/pages/category/History-Museum/Museu-Hist%C3%B3rico-Municipal-Professora-Abrilina-Hoffmeister-1679622225678170/","lat":-29.9831545,"lng":-50.1337322},{"id":"7495058368","name":"Caixa Econômica Federal","tags":"amenity:bank,brand:Caixa Econômica Federal,brand:wikidata:Q835283,brand:wikipedia:pt:Caixa Econômica Federal","lat":-29.9863331,"lng":-50.1378137},{"id":"9412749875","name":"Quiero Café","tags":"amenity:cafe,website:https://quierocafe.com.br/","lat":-29.9869941,"lng":-50.1379714},{"id":"9412749876","name":"Mercadão Winter","tags":"shop:supermarket","lat":-29.9863459,"lng":-50.1371345},{"id":"9412749877","name":"Farmácia São João","tags":"amenity:pharmacy,brand:Farmácia São João,brand:wikidata:Q65164556,brand:wikipedia:pt:Farmácias São João,dispensing:yes,healthcare:pharmacy","lat":-29.9867478,"lng":-50.1382986},{"id":"9412788727","name":"Restaurante Eloá","tags":"amenity:restaurant","lat":-29.9831587,"lng":-50.1352773},{"id":"9421606374","name":"Popular Supermercados","tags":"shop:supermarket","lat":-29.9854344,"lng":-50.1372978}]