[{"id":"8636270514","name":"Biblioteca Pública Municipal Alexandrina Pagani Dal Bó","tags":"amenity:library","lat":-28.5141597,"lng":-49.4548037},{"id":"9949680477","name":"Farmácia Treviso","tags":"addr:city:Treviso,addr:postcode:88862-000,addr:street:Avenida Professor José Forest Abatti,addr:suburb:Centro,amenity:pharmacy,dispensing:yes,drive_through:no,healthcare:pharmacy","lat":-28.5140515,"lng":-49.4571815},{"id":"9949680478","name":"Drogaria Santo Alexandre","tags":"addr:city:Treviso,addr:postcode:88862-000,addr:street:Avenida Professor José Forest Abatti,addr:suburb:Centro,amenity:pharmacy,dispensing:yes,drive_through:no,healthcare:pharmacy,opening_hours:Mo-Fr 08:00-20:00; Sa 08:00-12:00,14:00-19:00; Su 16:30-19:00","lat":-28.5144427,"lng":-49.4571789},{"id":"9949723576","name":"Cooperca Supermercados","tags":"addr:city:Treviso,addr:postcode:88862-000,addr:street:Rua Paulo de Lorenzi,addr:suburb:Centro,shop:supermarket","lat":-28.5149025,"lng":-49.458323},{"id":"9949723577","name":"Mercado Masieiro","tags":"addr:city:Treviso,addr:postcode:88862-000,addr:street:Rua Luiz Gregório Spricigo,addr:suburb:Centro,shop:supermarket","lat":-28.5138385,"lng":-49.4557803},{"id":"9968744063","name":"Restaurante Nosso Tempero","tags":"addr:city:Treviso,addr:postcode:88862-000,addr:street:Avenida Professor José Forest Abatti,addr:suburb:Centro,amenity:restaurant","lat":-28.5129524,"lng":-49.4571277}]