[{"id":"2076515212","name":"Hospital de Caridade Senhor Bom Jesus dos Passos","tags":"addr:city:Laguna,addr:housenumber:280,addr:postcode:88790-000,addr:street:Rua Osvaldo Aranha,addr:suburb:Centro,amenity:hospital,emergency:yes,healthcare:hospital","lat":-28.4856776,"lng":-48.7798716},{"id":"6241232962","name":"Banco do Brasil","tags":"amenity:bank,atm:yes,brand:Banco do Brasil,brand:wikidata:Q610817,brand:wikipedia:en:Banco do Brasil","lat":-28.4841177,"lng":-48.7810215},{"id":"7156483997","name":"Bradesco","tags":"amenity:bank,brand:Bradesco,brand:wikidata:Q806181,brand:wikipedia:en:Banco Bradesco","lat":-28.4843658,"lng":-48.7821595},{"id":"7156483998","name":"Caixa Econômica Federal","tags":"amenity:bank,brand:Caixa Econômica Federal,brand:wikidata:Q835283,brand:wikipedia:pt:Caixa Econômica Federal","lat":-28.4849351,"lng":-48.782156},{"id":"9244614885","name":"Residência de Anita Garibaldi","tags":"tourism:attraction","lat":-28.4847147,"lng":-48.7822359},{"id":"9244628041","name":"Farmácia União","tags":"amenity:pharmacy,dispensing:yes,healthcare:pharmacy","lat":-28.4846634,"lng":-48.7822757},{"id":"9259917226","name":"Restaurante Pardhal's","tags":"amenity:restaurant","lat":-28.4833086,"lng":-48.7817633},{"id":"9259917227","name":"Restaurante e Pizzaria Chedão","tags":"amenity:restaurant","lat":-28.4832101,"lng":-48.7815652}]