[{"id":"5873872242","name":"Rodoviária de Tenente Portela","tags":"DER:RS:categoria_rodoviaria:terceira,DER:RS:zona_de_fiscalizacao:14,addr:housenumber:74,addr:postcode:98500-000,addr:street:Rua Tupis,addr:suburb:Centro,amenity:bus_station,bus:yes,contact:email:tportela@gmail.com,contact:phone:+55 55 3551-1590;+55 55 3551-1590,network:BR:RS,official_name:Tenente Portela,operator:Alcides Juraci Parzianello,public_transport:station,ref:vatin:BR97883151000339","lat":-27.3716619,"lng":-53.755107},{"id":"6287524940","name":"Agafarma","tags":"amenity:pharmacy,dispensing:yes,healthcare:pharmacy","lat":-27.3722355,"lng":-53.7560249},{"id":"6287524942","name":"Associadas","tags":"amenity:pharmacy,dispensing:yes,healthcare:pharmacy","lat":-27.3719549,"lng":-53.7558483},{"id":"6287524945","name":"Vida","tags":"amenity:pharmacy,dispensing:yes,healthcare:pharmacy","lat":-27.3711306,"lng":-53.7560735},{"id":"7818262219","name":"Escola de Educação Especial Recanto da Alegria APAE","tags":"addr:housenumber:536,amenity:school,email:apaetp@redemeganet.com.br,phone:+55 55 3551-2010","lat":-27.3722312,"lng":-53.7497496}]