[{"id":"6634511409","name":"Museu Municipal","tags":"operator:Prefeitura,operator:type:public,tourism:museum","lat":-27.0995428,"lng":-53.5931449},{"id":"10570681763","name":"Hospital Santa Casa Rural","tags":"addr:housenumber:88,addr:street:Rua Encantado,amenity:hospital,healthcare:hospital,phone:+55-49-3636-1133","lat":-27.0990061,"lng":-53.59431},{"id":"10697282156","name":"Mercado Simorique","tags":"addr:housenumber:45,addr:street:Rua Santa Cruz,phone:+55-49-3636-1203,shop:supermarket","lat":-27.0988365,"lng":-53.5925692},{"id":"10697654810","name":"Pompei Supermercados","tags":"addr:housenumber:131,addr:street:Rua Rio Pardo,phone:+55-49-3636-1536,shop:supermarket","lat":-27.1004315,"lng":-53.5931298},{"id":"10697877365","name":"Farmácia São Joanense","tags":"addr:housenumber:128,addr:street:Rua Santa Cruz,amenity:pharmacy,opening_hours:Mo-Fr 07:30-11:45,13:00-19:00; Sa 07:30-11:45,13:00-17:00; Su 09:00-11:00,phone:+55-49-99935-2463","lat":-27.0982145,"lng":-53.5932854},{"id":"10697877366","name":"Farmácia Simeão","tags":"addr:housenumber:51,addr:street:Rua Arroio do Meio,amenity:pharmacy,name:de:Apotheke Simeao,opening_hours:Mo-Fr 07:30-12:00,13:00-19:00; Sa 07:30-12:00,13:30-16:00; Su 09:00-11:00,phone:+55-49-3636-1211","lat":-27.0984187,"lng":-53.5937548},{"id":"10723644730","name":"Farmácia Hospital Santa Casa Rural","tags":"addr:housenumber:88,addr:street:Rua Encantado,amenity:pharmacy,operator:Instituto de Assistência e Educação São João,phone:+55-49-3636-1133","lat":-27.0990287,"lng":-53.5942067},{"id":"10724293742","name":"Mercado São Joanense","tags":"addr:housenumber:130,addr:street:Rua Santa Cruz,phone:+55-49-3636-1206,shop:supermarket","lat":-27.0981632,"lng":-53.5933498}]