[{"id":"4541213414","name":"Centro Internacional de Educación Santa Teresa","tags":"amenity:school","lat":-25.530655,"lng":-54.6090564},{"id":"4565534358","name":"Farmacia Orquideas","tags":"addr:city:Ciudad del Este,addr:street:Avenida General Bernardino Caballero,amenity:pharmacy,healthcare:pharmacy","lat":-25.5309549,"lng":-54.6102979},{"id":"4565927545","name":"Susy","tags":"addr:city:Ciudad del Este,addr:street:Avenida General Bernardino Caballero,shop:beauty","lat":-25.5311099,"lng":-54.6106282},{"id":"4565945350","name":"Farmacia Don Pedro","tags":"addr:city:Ciudad del Este,addr:street:Avenida General Bernardino Caballero,amenity:pharmacy,healthcare:pharmacy","lat":-25.5320564,"lng":-54.6105274},{"id":"4750172506","name":"Farmaoliva","tags":"addr:street:Avenida General Bernardino Caballero,amenity:pharmacy,healthcare:pharmacy,opening_hours:Mo-Sa 06:00-22:00, Su,PH 08:00-20:00,wheelchair:no","lat":-25.5278421,"lng":-54.6100126},{"id":"5663134575","name":"Farmacia MasSalud","tags":"amenity:pharmacy,dispensing:yes,healthcare:pharmacy","lat":-25.5302142,"lng":-54.610355},{"id":"6045227087","name":"Banco familiar","tags":"amenity:bank,opening_hours:Mo-Fr 08:00-17:00; Sa 08:00-12:00","lat":-25.5302212,"lng":-54.6106721},{"id":"6045242285","name":"Porqui's Shop","tags":"shop:convenience","lat":-25.5295167,"lng":-54.6108003},{"id":"6045242585","tags":"amenity:atm,check_date:2021-03-03,operator:Banco familiar","lat":-25.5302609,"lng":-54.6106721},{"id":"7312865985","name":"Comedor Tía Eva","tags":"amenity:restaurant","lat":-25.5316094,"lng":-54.6100279},{"id":"7315998485","name":"Comedor Perse","tags":"amenity:restaurant","lat":-25.5306129,"lng":-54.6095821},{"id":"7315998685","name":"Chipería Tatakua","tags":"amenity:restaurant","lat":-25.5280066,"lng":-54.6093359},{"id":"8721961117","name":"Radio Center / Radiología y Tomografía Odontología","tags":"amenity:pharmacy,healthcare:pharmacy,opening_hours:Mo-Fr 08:00-12:00, 14:00-18:00; Sa 08:00-12:00,phone:061-501687","lat":-25.529392,"lng":-54.6108093}]