[{"id":"4552264335","name":"15136 Privada San Jorge","tags":"amenity:school","lat":-25.5496936,"lng":-54.6437992},{"id":"4602497642","name":"Belén","tags":"addr:street:Avenida Monday,amenity:pharmacy,healthcare:pharmacy","lat":-25.5536466,"lng":-54.6423079},{"id":"6462950832","name":"Sub Comisaría N° 12 Km 5 Monday Presidente Franco","tags":"addr:district:Alto Paraná,addr:province:Presidente Franco,amenity:police,official_name:Sub Comisaría N° 12 Km 5 Monday Pte Franco,operator:Ministerio del Interior","lat":-25.5528561,"lng":-54.6406934},{"id":"6462950848","name":"Policía Nacional Agrupación Montada","tags":"addr:district:Alto Paraná,addr:province:Presidente Franco,amenity:police,official_name:Policía Nacional Agrupacion Montada,operator:Ministerio del Interior","lat":-25.5528928,"lng":-54.6407981},{"id":"7264186787","name":"Buen Gusto","tags":"amenity:restaurant","lat":-25.5530066,"lng":-54.6356546}]