[{"id":"1471276262","tags":"amenity:restaurant","lat":-25.520016,"lng":-54.5626871},{"id":"4702457660","name":"Banco24Horas","tags":"amenity:atm","lat":-25.5209128,"lng":-54.5638338},{"id":"5105346425","name":"Ubud Cafe","tags":"amenity:restaurant","lat":-25.5208886,"lng":-54.5636278},{"id":"5105388324","name":"Subway","tags":"amenity:restaurant","lat":-25.5207402,"lng":-54.5634687},{"id":"5105388325","name":"Doce Delicia","tags":"amenity:restaurant","lat":-25.5208093,"lng":-54.5635486},{"id":"5105390521","name":"Santa Maria","tags":"amenity:pharmacy","lat":-25.5209721,"lng":-54.5637024},{"id":"9675148087","name":"Escola Municipal Papa João Paulo I","tags":"addr:city:Foz do Iguaçu,addr:housenumber:16,addr:postcode:85.863-040,addr:street:Alameda Humaitá,addr:suburb:Jardim Itamaraty,amenity:school","lat":-25.516572,"lng":-54.5639367},{"id":"10555480009","name":"Restaurante e Lanchonete do Amarildo","tags":"amenity:restaurant","lat":-25.5197298,"lng":-54.563082}]