[{"id":"5862229285","name":"Coringão Supermercado","tags":"shop:supermarket","lat":-25.5246772,"lng":-54.5356604},{"id":"5863892085","name":"Super Oliveira","tags":"shop:supermarket","lat":-25.5213324,"lng":-54.534151},{"id":"7859799885","tags":"amenity:pharmacy","lat":-25.5221629,"lng":-54.5352111},{"id":"9675194252","name":"Escola Municipal Emílio de Menezes","tags":"addr:city:Foz do Iguaçu,addr:housenumber:1252,addr:postcode:85.859-000,addr:street:Avenida Mário Filho,addr:suburb:Parque Residencial Morumbi II,amenity:school","lat":-25.5250221,"lng":-54.5337028},{"id":"9680636041","name":"Centro Municipal de Educação Infantil Guilherme Augusto Terres dos Santos","tags":"addr:city:Foz do Iguaçu,addr:housenumber:1060,addr:postcode:85.858-700,addr:street:Rua Tenente Eduardo Olmedo,addr:suburb:Parque Residencial Morumbi II,amenity:school","lat":-25.524462,"lng":-54.5330532}]