[{"id":"3011976854","name":"Bachillerato Orientado 23","tags":"addr:city:Puerto Iguazú,addr:full:Chacho Peñaloza Nº 150 (Entre Cristo Redentor y Félix Bogado),addr:housenumber:150,addr:postcode:N3370,addr:street:Chacho Peñaloza,amenity:school,description:CUISE: 1801 ,isced:level:2,official_name:Bachillerato Orientado Provincial Nº 23,operator:type:public,ref:cue:540065400,short_name:BOP 23","lat":-25.6130576,"lng":-54.5733749},{"id":"3011979286","name":"Escuela de Comercio 16","tags":"addr:city:Puerto Iguazú,addr:full:Chacho Peñaloza Nº 150 (Entre Cristo Redentor y Félix Bogado),addr:housenumber:150,addr:postcode:N3370,addr:street:Chacho Peñaloza,amenity:school,description:CUISE: 1761,isced:level:2,official_name:Escuela de Comercio Nº 16,operator:type:public,ref:cue:540065600","lat":-25.6129804,"lng":-54.5728829},{"id":"4421217967","name":"Comisaría Seccional Segunda de Puerto Iguazú - UR V","tags":"addr:city:Puerto Iguazú,addr:postcode:3370,addr:street:Avenida República Argentina,amenity:police,contact:centrex:6013,operator:Policía de la Provincia de Misiones,phone:+54 3757 528755; +54 3757 421213; +54 3757 462360","lat":-25.6116641,"lng":-54.5774753},{"id":"5076271189","tags":"addr:city:Puerto Iguazú,addr:postcode:3370,addr:street:Avenida República Argentina,amenity:atm,network:Banelco,operator:Banco Macro","lat":-25.6113535,"lng":-54.5774882},{"id":"6237230186","name":"Supermercado Pacífico","tags":"shop:supermarket","lat":-25.6098225,"lng":-54.5765333},{"id":"7346748222","name":"Giofarma","tags":"addr:city:Puerto Iguazú,addr:housenumber:757,addr:postcode:3370,addr:street:Avenida República Argentina,amenity:pharmacy,dispensing:yes,healthcare:pharmacy,phone:+54 3757 424627","lat":-25.6122672,"lng":-54.577193}]