[{"id":"1474185889","name":"Muffato - Republica Argentina","tags":"addr:street:Avenida Republica Argentina,internet_access:wlan,opening_hours:Mo-Su 08:00-21:00,shop:supermarket","lat":-25.5369775,"lng":-54.5431045},{"id":"8016890989","name":"Baratao","tags":"addr:street:Avenida Republica Argentina,shop:pet","lat":-25.5362008,"lng":-54.5379213},{"id":"9680595109","name":"Centro Municipal de Educação Infantil Inácia Menezes dos Santos","tags":"addr:city:Foz do Iguaçu,addr:housenumber:773,addr:postcode:85.858-490,addr:street:Rua Pompeu de Toledo,addr:suburb:Parque Residencial Morumbi I,amenity:school","lat":-25.5332012,"lng":-54.5410078},{"id":"9695747726","name":"Centro Municipal de Educação Infantil Osvaldo Goch","tags":"addr:city:Foz do Iguaçu,addr:housenumber:120,addr:postcode:85.858-270,addr:street:Rua Ronie Peterson,addr:suburb:Vila Borges,amenity:school","lat":-25.5353015,"lng":-54.5440613},{"id":"9698556330","name":"Escola Municipal Írio Manganelli","tags":"addr:city:Foz do Iguaçu,addr:housenumber:773,addr:postcode:85.858-490,addr:street:Rua Pompeu de Toledo,addr:suburb:Parque Residencial Morumbi I,amenity:school","lat":-25.5339582,"lng":-54.54114}]