[{"id":"4557897716","name":"Banco Atlas","tags":"addr:city:ciudad del Este,addr:street:Monseñor Rodríguez,amenity:bank","lat":-25.5092201,"lng":-54.634005},{"id":"4562369501","name":"Sanatorio Central","tags":"addr:city:Ciudad del Este,addr:street:Avenida San Blás,amenity:pharmacy,healthcare:pharmacy","lat":-25.5088861,"lng":-54.6309996},{"id":"4564236020","name":"Farmacia Acaray","tags":"addr:street:Avenida San Blás,amenity:pharmacy,healthcare:pharmacy","lat":-25.5090487,"lng":-54.6305917},{"id":"4567153081","name":"Banco Continental","tags":"amenity:bank","lat":-25.5089802,"lng":-54.6347619},{"id":"4567153082","name":"Banco de Brasil","tags":"amenity:bank,atm:yes,drive_through:no","lat":-25.5090473,"lng":-54.6345531},{"id":"4567507437","tags":"leisure:fitness_centre,sport:yoga","lat":-25.507833,"lng":-54.6300329},{"id":"5304705178","name":"Restaurante Paraná","tags":"amenity:restaurant","lat":-25.5069526,"lng":-54.6339089},{"id":"5304708480","name":"Universidad Tres Fronteras - UNINTER","tags":"amenity:university","lat":-25.5051288,"lng":-54.633592},{"id":"5304717435","name":"ISPA","tags":"amenity:school","lat":-25.5062178,"lng":-54.6319446},{"id":"5304720742","name":"IMAP S.A.","tags":"amenity:hospital,healthcare:hospital","lat":-25.5076017,"lng":-54.6304307}]