[{"id":"1702024651","name":"Banco do Brasil","tags":"addr:city:Santa Terezinha de Itaipu,addr:housenumber:393,addr:postcode:85875000,addr:street:Avenida Primeiro de Maio,addr:suburb:Centro,amenity:bank,atm:yes,brand:Banco do Brasil,brand:wikidata:Q610817,brand:wikipedia:en:Banco do Brasil,drive_through:no,opening_hours:Mo-Fr 010:00-14:00","lat":-25.441713,"lng":-54.402456},{"id":"1702024656","name":"Bando Itaú","tags":"addr:city:Santa Terezinha de Itaipu,addr:housenumber:161,addr:postcode:85875000,addr:street:Avenida Primeiro de Maio,addr:suburb:Centro,amenity:bank,atm:yes,drive_through:no,opening_hours:Mo-Fr 10:00-14:00","lat":-25.4434142,"lng":-54.4015896},{"id":"6532524663","name":"Restaurante Panela Preta","tags":"addr:city:Santa Terezinha de Itaipu,addr:housenumber:16,addr:postcode:85875000,addr:street:Rua João XXIII,addr:suburb:Centro,amenity:restaurant,opening_hours:Mo-Sa 10:00-16:00,phone:+55 45 3541 3734","lat":-25.4441762,"lng":-54.3995723},{"id":"6532524664","name":"Banco Sicredi","tags":"addr:city:Santa Terezinha de Itaipu,addr:housenumber:79,addr:postcode:85875000,addr:street:Rua João XXIII,addr:suburb:Centro,amenity:bank,atm:yes,opening_hours:Mo-Fr 09:00-15:00","lat":-25.4436724,"lng":-54.4001411},{"id":"6532524667","name":"Supermercado Nandi","tags":"addr:city:Santa Terezinha de Itaipu,addr:housenumber:45,addr:postcode:85875000,addr:street:Avenida das Nações,addr:suburb:Centro,opening_hours:Mo-Sa 08:00-19:00; Su 08:00-12:00,payment:cash:yes,payment:credit_cards:yes,payment:debit_cards:yes,phone:+55 45 3541 1112,shop:supermarket","lat":-25.4430822,"lng":-54.3978057},{"id":"6532524668","name":"Polícia Civil","tags":"amenity:police","lat":-25.441628,"lng":-54.3958788},{"id":"6532524669","name":"Farmácia Farmabelle","tags":"addr:city:Santa Terezinha de Itaipu,addr:housenumber:88,addr:postcode:85875000,addr:street:Avenida das Nações,addr:suburb:Centro,amenity:pharmacy,dispensing:yes,drive_through:no,healthcare:pharmacy","lat":-25.4426409,"lng":-54.3976595},{"id":"6532524670","name":"Farmácia Biofarma","tags":"amenity:pharmacy,dispensing:yes,healthcare:pharmacy","lat":-25.444285,"lng":-54.3998147},{"id":"6532524671","name":"Cooperfarma","tags":"addr:city:Santa Terezinha de Itaipu,addr:housenumber:76,addr:postcode:85875000,addr:street:Avenida Primeiro de Maio,addr:suburb:Centro,amenity:pharmacy,dispensing:yes,drive_through:no,healthcare:pharmacy,opening_hours:Mo-Fr 07:30-19:00; Sa 07:30-12:00,phone:+55 45 3541 0501","lat":-25.4440514,"lng":-54.4009544},{"id":"6532524672","tags":"addr:city:Santa Terezinha de Itaipu,addr:housenumber:200,addr:postcode:85875000,addr:street:Rua João XXIII,addr:suburb:Centro,amenity:post_office,opening_hours:Mo-Sa 09:00-16:30,phone:+55 45 3541 0588","lat":-25.4425598,"lng":-54.4003535},{"id":"6532524673","name":"Supermercado Naper","tags":"addr:city:Santa Terezinha de Itaipu,addr:housenumber:403,addr:postcode:85875000,addr:street:Rua João XXIII,addr:suburb:Centro,opening_hours:Mo-Sa 08:00-19:00,phone:+55 45 3541 1347,shop:supermarket","lat":-25.4412316,"lng":-54.401397},{"id":"6532524674","name":"Colégio Cesti","tags":"addr:city:Santa Terezinha de Itaipu,addr:housenumber:303,addr:postcode:85875000,addr:street:Rua João XXIII,addr:suburb:Centro,amenity:school,operator:type:private","lat":-25.4418803,"lng":-54.4007436},{"id":"6677766602","name":"Colégio Estadual Carlos Zewe Coimbra","tags":"addr:city:Santa Terezinha de Itaipu,addr:housenumber:1800,addr:postcode:85.875-000,addr:street:Rua dos Estudantes,addr:suburb:Centro,amenity:school,website:http://www.shwcarloscoimbra.seed.pr.gov.br/modules/liaise/#","lat":-25.4410724,"lng":-54.4006487},{"id":"7572628494","name":"Rodoviária Municipal","tags":"amenity:bus_station,bus:yes,phone:+55 45 3541 1496,public_transport:station","lat":-25.4395277,"lng":-54.3961122},{"id":"7572628501","name":"Restaurante KiFruta","tags":"addr:city:Santa Terezinha de Itaipu,addr:housenumber:135,addr:postcode:85875000,addr:street:Rua João XXIII,addr:suburb:Centro,amenity:restaurant,phone:+55 45 3541 2668","lat":-25.4434735,"lng":-54.4002205},{"id":"8680163488","name":"Agropet Animal Center","tags":"addr:city:Santa Terezinha de Itaipu,addr:housenumber:201,addr:postcode:85875000,addr:street:Avenida das Nações,addr:suburb:Centro,opening_hours:Mo-Sa 09:00-18:00,opening_hours:covid19:same,payment:cash:yes,payment:contactless:yes,payment:credit_cards:yes,payment:debit_cards:yes,phone:+55 45  3541-0866,shop:pet","lat":-25.4418117,"lng":-54.3984136}]