[{"id":"3014193141","name":"Caitá Supermercados","tags":"shop:supermarket","lat":-27.6316265,"lng":-52.2714306},{"id":"4696330023","name":"Tylapias petiscos","tags":"addr:housenumber:466,addr:street:Avenida Amintas Maciel,amenity:restaurant,cuisine:regional,outdoor_seating:yes","lat":-27.6325195,"lng":-52.2691253},{"id":"4696340351","name":"Moving Academia","tags":"addr:city:Erechim,addr:street:Avenida Amintas Maciel,addr:suburb:Centro,leisure:fitness_centre","lat":-27.6330322,"lng":-52.269365},{"id":"5300199024","name":"Presídio","tags":"amenity:police","lat":-27.6314756,"lng":-52.2635891},{"id":"5300199025","name":"Brigada Militar","tags":"amenity:police","lat":-27.6313558,"lng":-52.2651899},{"id":"5300200525","name":"Batalhão ambiental","tags":"amenity:police","lat":-27.6320549,"lng":-52.2650175},{"id":"7067301880","name":"Caitá Supermercado","tags":"addr:street:Rua Emílio Grando,shop:supermarket","lat":-27.63177,"lng":-52.2714189},{"id":"8260717454","tags":"leisure:sports_centre,sport:multi","lat":-27.6324971,"lng":-52.2650941},{"id":"8260717455","tags":"leisure:sports_centre,sport:multi","lat":-27.6328711,"lng":-52.2661442}]