[{"id":"2130103582","name":"Correios","tags":"amenity:post_office,brand:Correios,brand:wikidata:Q3375004,brand:wikipedia:en:Correios","lat":-27.0056323,"lng":-51.1521414},{"id":"2595967893","name":"Itaú","tags":"amenity:bank,brand:Itaú Unibanco,brand:wikidata:Q1424293,brand:wikipedia:pt:Itaú Unibanco","lat":-27.0059261,"lng":-51.1515061},{"id":"4879044580","name":"Delegacia de Polícia Civil","tags":"addr:city:Videira,addr:postcode:89560-000,addr:street:Rua Alberto Zoller,addr:suburb:Alvorada,amenity:police","lat":-27.0095273,"lng":-51.1467777},{"id":"4904122640","name":"Delegacia Regional de Polícia Civil","tags":"amenity:police","lat":-27.0066493,"lng":-51.1520385},{"id":"5379486812","name":"Sicoob","tags":"addr:city:Videira,addr:postcode:89560-000,addr:street:Rua Saul Brandalise,addr:suburb:Centro,amenity:bank,atm:yes,brand:Sicoob,brand:wikidata:Q28679754,brand:wikipedia:pt:Sistema de Cooperativas de Crédito do Brasil","lat":-27.0061455,"lng":-51.151304},{"id":"6574895785","name":"Banrisul","tags":"amenity:bank,brand:Banrisul,brand:wikidata:Q4857098,brand:wikipedia:en:Banrisul","lat":-27.0061755,"lng":-51.1494105},{"id":"6574898845","name":"Cresol","tags":"amenity:bank","lat":-27.0092197,"lng":-51.1466904}]