[{"id":"3704984345","tags":"description:Ginasio de Esportes da Escola De Educação Básica Santa Terezinha,leisure:sports_centre","lat":-26.6185955,"lng":-53.1962453},{"id":"3705169109","name":"Sicoob Credial","tags":"amenity:bank","lat":-26.6195003,"lng":-53.1972878},{"id":"3705192658","name":"Escola de Educação Básica Santa Terezinha","tags":"amenity:school","lat":-26.6189792,"lng":-53.1962506},{"id":"3705192659","name":"Peti","tags":"amenity:school","lat":-26.6183605,"lng":-53.1989168},{"id":"3705212593","name":"Mercado Deola","tags":"shop:supermarket","lat":-26.6191119,"lng":-53.1958716},{"id":"3705275657","name":"Ginásio Municipal de Esportes","tags":"leisure:sports_centre","lat":-26.6188683,"lng":-53.2000006},{"id":"3705277218","name":"Rodoviaria","tags":"amenity:bus_station,public_transport:station","lat":-26.6193719,"lng":-53.1992389},{"id":"3705283795","name":"Farmácia Santa Luzia","tags":"amenity:pharmacy","lat":-26.619439,"lng":-53.196267},{"id":"3708707349","name":"Pizzaria Generali","tags":"amenity:restaurant,cuisine:pizza","lat":-26.617857,"lng":-53.1981228},{"id":"3708709162","name":"Banco Cresol","tags":"amenity:bank","lat":-26.619665,"lng":-53.1996088},{"id":"3708709255","name":"Biblioteca Pública Municipal de Santa Terezinha do Progresso","tags":"amenity:library","lat":-26.6193773,"lng":-53.1995712},{"id":"3708710357","name":"Supermercado Santa Terezinha","tags":"shop:supermarket","lat":-26.6192765,"lng":-53.1979673},{"id":"3708736027","name":"CTG","tags":"leisure:sports_centre","lat":-26.616563,"lng":-53.1987044}]