[{"id":"1699986965","tags":"addr:city:Pato Branco,amenity:police","lat":-26.2330298,"lng":-52.6730343},{"id":"3681583101","name":"Center Supermercado","tags":"addr:city:Pato Branco,operator:Center,shop:supermarket","lat":-26.2349008,"lng":-52.6728576},{"id":"3681596496","name":"Faculdade Mater Dei","tags":"addr:city:Pato Branco,addr:housenumber:200,addr:street:Rua Mato Grosso,amenity:university,phone:+55 46 2101 8200","lat":-26.2336564,"lng":-52.671758},{"id":"3686027915","name":"Engenho do Sabor","tags":"addr:city:Pato Branco,addr:housenumber:7,addr:postcode:85501-080,addr:street:Avenida Brasil,addr:suburb:Centro,amenity:restaurant,cuisine:regional,opening_hours:Mo-Su 11:30-14:00, We 20:00-22:00,phone:+55 46 3025 1333,takeaway:yes,website:https://engenhodosabor.com/","lat":-26.2342473,"lng":-52.6722611},{"id":"3686027916","tags":"addr:city:Pato Branco,amenity:restaurant,cuisine:italian","lat":-26.2344247,"lng":-52.6718103},{"id":"3686027917","name":"Armazém 77","tags":"addr:city:Pato Branco,amenity:restaurant,cuisine:pizza","lat":-26.2337791,"lng":-52.6726012},{"id":"3686027918","tags":"addr:city:Pato Branco,amenity:restaurant,cuisine:churrasco","lat":-26.2327127,"lng":-52.6745677},{"id":"3686027919","tags":"addr:city:Pato Branco,amenity:restaurant,cuisine:churrasco","lat":-26.2328924,"lng":-52.674088},{"id":"3725659449","name":"Correios","tags":"addr:city:Pato Branco,addr:street:Avenida Tupy,amenity:post_office,brand:Correios,brand:wikidata:Q3375004,brand:wikipedia:en:Correios","lat":-26.2332067,"lng":-52.6716925},{"id":"3786444296","tags":"addr:housenumber:Farmácia,amenity:pharmacy,healthcare:pharmacy","lat":-26.2337054,"lng":-52.673926},{"id":"3803746193","name":"Lavacar Sto Antonio","tags":"addr:city:Pato Branco,addr:housenumber:315,addr:street:Avenida Brasil,amenity:car_wash","lat":-26.2315502,"lng":-52.6740231},{"id":"3803746194","name":"Irmãos Menonitas","tags":"addr:housenumber:375,building:church","lat":-26.2309989,"lng":-52.6742824},{"id":"3803748054","name":"Thereza Mussi Hospital","tags":"addr:city:Pato Branco,addr:housenumber:438,addr:street:Avenida Brasil,amenity:hospital,healthcare:hospital","lat":-26.2300428,"lng":-52.6742728}]