[{"id":"4396470292","name":"Agencia de Correios","tags":"amenity:post_office,name:pt:Agencia de Correios","lat":-24.9535677,"lng":-53.4803221},{"id":"4396522590","name":"Farmácia Estrela","tags":"amenity:pharmacy,healthcare:pharmacy","lat":-24.9540664,"lng":-53.4803393},{"id":"4739161168","name":"Associação Atlética Comercial","tags":"leisure:sports_centre,sport:soccer","lat":-24.9510527,"lng":-53.480546},{"id":"5229173249","name":"Caixa Econômica Federal","tags":"amenity:bank","lat":-24.9548405,"lng":-53.4750156},{"id":"5229173250","name":"Banco do Brasil","tags":"amenity:bank,brand:Banco do Brasil,brand:wikidata:Q610817,brand:wikipedia:en:Banco do Brasil","lat":-24.954837,"lng":-53.4745975},{"id":"5229173633","name":"Droga Raia","tags":"amenity:pharmacy,brand:Droga Raia,brand:wikidata:Q10357101,brand:wikipedia:pt:RaiaDrogasil,healthcare:pharmacy","lat":-24.953842,"lng":-53.4771858},{"id":"5279953142","name":"Colégio Cristo Rei","tags":"amenity:school","lat":-24.9534111,"lng":-53.4724328},{"id":"6796205685","name":"O Forno","tags":"amenity:restaurant,cuisine:pizza","lat":-24.9524171,"lng":-53.4766944}]