[{"id":"3358460196","name":"Villa Zanella","tags":"addr:city:Cascavel,addr:housenumber:2778,addr:street:Rua Minas Gerais,addr:suburb:Centro,amenity:restaurant,cuisine:Churrascaria","lat":-24.9523652,"lng":-53.4566535},{"id":"6557987686","name":"Hospital Dr Lima","tags":"addr:housenumber:2311,addr:street:Rua Paraná,amenity:hospital,healthcare:hospital,name:pt:Hospital e Maternidade Dr Lima,opening_hours:24/7","lat":-24.9530754,"lng":-53.4527364},{"id":"6557990189","name":"Restaurante Central","tags":"addr:housenumber:1577,addr:street:Avenida Brasil,amenity:restaurant","lat":-24.953136,"lng":-53.4510806},{"id":"6557990190","name":"Aquamovel","tags":"addr:housenumber:1505,addr:street:Rua Afonso Pena,amenity:car_wash","lat":-24.9542453,"lng":-53.4511726},{"id":"6557990191","name":"Instituto de Identificação","tags":"addr:street:Rua Erechim,amenity:police","lat":-24.9545247,"lng":-53.4506417},{"id":"6558027385","name":"Brasa Burguer","tags":"addr:street:Rua Paraná,amenity:restaurant","lat":-24.9525065,"lng":-53.4522002},{"id":"6818332195","name":"Chef's Pizza House","tags":"addr:city:Cascavel,addr:housenumber:2197,addr:postcode:85812-011,addr:street:Rua Paraná,addr:suburb:Centro,air_conditioning:yes,amenity:restaurant,bar:yes,brewery:yes,cuisine:pizza,opening_hours:Tu-Su 18:00-23:00,phone:+554533068229,reservation:yes,website:http://house.chefspizza.com.br,wheelchair:yes","lat":-24.9525821,"lng":-53.4517801},{"id":"7253202485","name":"La Máfia Trattoria","tags":"addr:housenumber:2778,addr:street:Rua Recife,amenity:restaurant,cuisine:fine_dining;italian,opening_hours:Mo-Sa 19:00-00:00,phone:+55 45 3306 3512","lat":-24.9523341,"lng":-53.456781},{"id":"7758651885","name":"Barão Cafeeiro","tags":"addr:street:Avenida Brasil,amenity:cafe,cuisine:cake;coffee_shop;friture;pasta;sandwich;tea","lat":-24.951832,"lng":-53.448787}]