[{"id":"1143261534","name":"Super Muffato Supermercados","tags":"shop:supermarket","lat":-24.7195214,"lng":-53.7269544},{"id":"3086135131","tags":"shop:pet","lat":-24.7231074,"lng":-53.727719},{"id":"3092334247","tags":"amenity:restaurant","lat":-24.7213412,"lng":-53.7272366},{"id":"3169044675","name":"Banco 24 Horas","tags":"amenity:atm","lat":-24.7197718,"lng":-53.7271809},{"id":"3250746873","name":"Farmácia Confiança","tags":"amenity:pharmacy,healthcare:pharmacy","lat":-24.7203274,"lng":-53.7266345}]