[{"id":"5642915232","name":"Delícia Caseira","tags":"amenity:restaurant","lat":-24.5598794,"lng":-54.0611874},{"id":"5642915238","name":"Happy Day","tags":"amenity:restaurant","lat":-24.5581612,"lng":-54.0547753},{"id":"5642915263","name":"Leader School","tags":"amenity:school","lat":-24.5585094,"lng":-54.0596714},{"id":"5643025939","name":"Sicredi","tags":"amenity:bank,brand:Sicredi,brand:wikidata:Q3483060,brand:wikipedia:pt:Sistema de Crédito Cooperativo","lat":-24.5587923,"lng":-54.0570615},{"id":"5644573281","name":"Káta","tags":"amenity:restaurant","lat":-24.5584241,"lng":-54.0536993},{"id":"5646069457","tags":"amenity:car_wash,automated:no,self_service:no","lat":-24.5596475,"lng":-54.0581201},{"id":"6186314847","name":"Fanfulla Eventos","tags":"amenity:bar","lat":-24.5565232,"lng":-54.0594012},{"id":"6407666707","name":"Biblioteca Municipal","tags":"addr:city:Marechal Cândido Rondon,addr:postcode:85960000,addr:street:Rua Sergipe,addr:suburb:Centro,amenity:library,internet_access:no,level:0","lat":-24.55585,"lng":-54.0597098},{"id":"7200352699","name":"UNIP (Universidade Paulista) - Polo Marechal Cândido Rondon","tags":"amenity:university","lat":-24.5583333,"lng":-54.0603781}]