[{"id":"5642915234","name":"Nega Maluca","tags":"amenity:cafe","lat":-24.5605026,"lng":-54.0603519},{"id":"5642915237","name":"Cravo e Canela","tags":"amenity:cafe","lat":-24.5605277,"lng":-54.0565321},{"id":"5642915245","name":"Churrascaria Três Passos","tags":"amenity:restaurant","lat":-24.562719,"lng":-54.0566061},{"id":"5642915246","name":"Zafira","tags":"amenity:restaurant","lat":-24.5645611,"lng":-54.0570234},{"id":"5642915247","name":"Pitaco","tags":"amenity:restaurant","lat":-24.5644324,"lng":-54.0573754},{"id":"5642915258","name":"Pão de Ló","tags":"amenity:cafe","lat":-24.5634509,"lng":-54.0623878},{"id":"5642915259","name":"Sicoob","tags":"amenity:bank,brand:Sicoob,brand:wikidata:Q28679754,brand:wikipedia:pt:Sistema de Cooperativas de Crédito do Brasil","lat":-24.5618746,"lng":-54.0623908},{"id":"5642915260","name":"Bradesco","tags":"amenity:bank,brand:Bradesco,brand:wikidata:Q806181,brand:wikipedia:en:Banco Bradesco","lat":-24.5621738,"lng":-54.0624773},{"id":"5642915261","name":"Sicredi Aliança PR/SP - Dom João VI","tags":"addr:city:Marechal Cândido Rondon,addr:housenumber:565,addr:postcode:85960000,addr:street:Rua Dom João VI,addr:suburb:Centro,amenity:bank,atm:yes,drive_through:no,internet_access:wlan,phone:+55 45 3284-7700,wheelchair:yes","lat":-24.5623476,"lng":-54.0625334},{"id":"5642915269","name":"Ponto Centrão","tags":"shop:convenience","lat":-24.5638683,"lng":-54.0593227},{"id":"5642915270","name":"Fornaça","tags":"amenity:restaurant","lat":-24.5642937,"lng":-54.061615},{"id":"5642915271","name":"Ponto Certo","tags":"shop:convenience","lat":-24.5647012,"lng":-54.0617827},{"id":"5642915273","name":"Farmaútil","tags":"amenity:pharmacy,dispensing:yes,healthcare:pharmacy","lat":-24.5639203,"lng":-54.0606253},{"id":"5644573279","name":"Farmácia Rondon","tags":"amenity:pharmacy,dispensing:yes,healthcare:pharmacy","lat":-24.5601827,"lng":-54.0605156},{"id":"5921745358","name":"Restaurante da Tia","tags":"amenity:restaurant","lat":-24.560269,"lng":-54.0532701},{"id":"6175261416","name":"Caixa Econômica Federal","tags":"amenity:bank,brand:Caixa Econômica Federal,brand:wikidata:Q835283,brand:wikipedia:pt:Caixa Econômica Federal","lat":-24.5629967,"lng":-54.0596605},{"id":"6179157915","name":"Farmácia Brasil Popular","tags":"amenity:pharmacy,dispensing:yes,healthcare:pharmacy","lat":-24.5636879,"lng":-54.0602067},{"id":"6317232246","name":"Fármacias Nissei","tags":"amenity:pharmacy,dispensing:yes,healthcare:pharmacy","lat":-24.5646561,"lng":-54.0583179},{"id":"6321290178","name":"Itaú","tags":"amenity:bank,brand:Itaú,brand:wikidata:Q2423252,brand:wikipedia:en:Itaú Corpbanca","lat":-24.5619934,"lng":-54.0618455},{"id":"7781737168","name":"Supera","tags":"addr:city:Marechal Cândido Rondon,addr:housenumber:655,addr:postcode:85960-000,addr:street:Rua Paraná,addr:suburb:Centro,amenity:school,building:yes,height:3,phone:+55 45 2031-4264,website:https://metodosupera.com.br/,wheelchair:yes","lat":-24.5611111,"lng":-54.0612773},{"id":"8288273756","name":"Farmácia São João","tags":"amenity:pharmacy,brand:São João,brand:wikidata:Q62663306,dispensing:yes,healthcare:pharmacy","lat":-24.5640165,"lng":-54.0589754}]