[{"id":"5921613603","name":"Delegacia de Policia","tags":"amenity:police","lat":-24.4026842,"lng":-53.5062163},{"id":"5921665537","tags":"amenity:restaurant","lat":-24.4058487,"lng":-53.5061061},{"id":"10695979205","name":"Guimarães Rosa","tags":"addr:postcode:85934000,addr:street:Avenida Cívica,amenity:school,opening_hours:Mo-Fr 09:00-18:00","lat":-24.4036643,"lng":-53.510458},{"id":"10695982705","name":"Escola Estadual Guimarães Rosa (Quadra.)","tags":"addr:postcode:85935000,addr:street:Avenida Cívica,amenity:school,opening_hours:Mo-Fr 00:00-24:00","lat":-24.4039788,"lng":-53.5108939},{"id":"10695982805","name":"Escola Estadual Guimarães Rosa","tags":"addr:postcode:85935000,addr:street:Avenida Cívica,amenity:school,opening_hours:Mo-Fr 00:00-24:00","lat":-24.403672,"lng":-53.5104675},{"id":"10695982806","name":"Escola Municipal Professora Odila Souza Teixeira","tags":"addr:postcode:85935000,addr:street:Rua Brasília,amenity:school,opening_hours:Mo-Fr 00:00-24:00","lat":-24.4041237,"lng":-53.5117819},{"id":"10695994105","name":"Paróquia Nossa Senhora Do Carmo","tags":"addr:postcode:85935000,addr:street:Rua João Pessoa,opening_hours:24/7,tourism:museum","lat":-24.4051802,"lng":-53.5115856},{"id":"10743083708","name":"Estacionamento Do Mercado","tags":"amenity:parking","lat":-24.4048341,"lng":-53.5051846},{"id":"10743083805","name":"Quadra","tags":"addr:street:Avenida Cívica,amenity:school","lat":-24.4037702,"lng":-53.5112594},{"id":"10743083806","name":"Farmácia","tags":"addr:postcode:85935000,addr:street:Rua Marechal Castelo Branco,amenity:pharmacy","lat":-24.4057804,"lng":-53.5143843},{"id":"10743083905","name":"Quadra","tags":"amenity:school","lat":-24.4030942,"lng":-53.511209},{"id":"10743084005","name":"Correios","tags":"addr:postcode:85935000,addr:street:Avenida Cívica,amenity:post_office,opening_hours:Mo-Fr 08:00-17:00","lat":-24.404599,"lng":-53.5094913},{"id":"10743084107","name":"Café","tags":"addr:street:Avenida Princesa Isabel,amenity:cafe","lat":-24.4052705,"lng":-53.5041838}]