[{"id":"5921613603","name":"Delegacia de Policia","tags":"amenity:police","lat":-24.4026842,"lng":-53.5062163},{"id":"5921665537","tags":"amenity:restaurant","lat":-24.4058487,"lng":-53.5061061},{"id":"10695979205","name":"Guimarães Rosa","tags":"addr:postcode:85934000,addr:street:Avenida Cívica,amenity:school,opening_hours:Mo-Fr 09:00-18:00","lat":-24.4036643,"lng":-53.510458},{"id":"10695982705","name":"Escola Estadual Guimarães Rosa (Quadra.)","tags":"addr:postcode:85935000,addr:street:Avenida Cívica,amenity:school,opening_hours:Mo-Fr 00:00-24:00","lat":-24.4039788,"lng":-53.5108939},{"id":"10695982805","name":"Escola Estadual Guimarães Rosa","tags":"addr:postcode:85935000,addr:street:Avenida Cívica,amenity:school,opening_hours:Mo-Fr 00:00-24:00","lat":-24.403672,"lng":-53.5104675},{"id":"10695982806","name":"Escola Municipal Professora Odila Souza Teixeira","tags":"addr:postcode:85935000,addr:street:Rua Brasília,amenity:school,opening_hours:Mo-Fr 00:00-24:00","lat":-24.4041237,"lng":-53.5117819},{"id":"10695994105","name":"Paróquia Nossa Senhora Do Carmo","tags":"addr:postcode:85935000,addr:street:Rua João Pessoa,opening_hours:24/7,tourism:museum","lat":-24.4051802,"lng":-53.5115856}]