[{"id":"1837822581","name":"Banco Continental","tags":"amenity:bank","lat":-22.5377234,"lng":-55.7328075},{"id":"1837829980","name":"VITAL Farmacia","tags":"amenity:pharmacy,healthcare:pharmacy","lat":-22.5378148,"lng":-55.7329844},{"id":"1840341845","name":"Farmacia San Lucas","tags":"amenity:pharmacy,healthcare:pharmacy","lat":-22.5379577,"lng":-55.7336331},{"id":"1840372346","name":"Restaurante Coma Bien","tags":"amenity:restaurant","lat":-22.5380494,"lng":-55.7326326},{"id":"1840398648","name":"Lo de Pepe","tags":"amenity:restaurant","lat":-22.5375241,"lng":-55.7331146},{"id":"1846852343","name":"Farmacia Santa Teresa","tags":"amenity:pharmacy,healthcare:pharmacy","lat":-22.5379066,"lng":-55.7335199},{"id":"2995811146","name":"Vision Banco","tags":"amenity:bank,atm:yes,opening_hours:08:30-17:00,wikidata:Q5907404,wikipedia:es:I Copa Visión Banco","lat":-22.5371242,"lng":-55.7333645},{"id":"3654760808","name":"AGF Marechal Floriano","tags":"addr:city:Ponta Porã,addr:housenumber:2342,addr:postcode:79904-973,addr:street:Rua Marechal Floriano Peixoto,addr:suburb:Centro,amenity:post_office,email:agfmalfloriano@hotmail.com,opening_hours:Mo-Fr 08:00-17:00; Sa 08:00-12:00; Su off; PH off,operator:Correios,phone:+55 (67) 3431-6720,wheelchair:yes","lat":-22.535876,"lng":-55.7316955},{"id":"6249505176","name":"Obuti","tags":"amenity:restaurant,cuisine:japanese","lat":-22.5366959,"lng":-55.7276397},{"id":"6332187495","name":"Bem Estar","tags":"amenity:restaurant,cuisine:steak_house;barbecue;chicken,delivery:no,internet_access:wlan,internet_access:fee:no,microbrewery:no,old_name:Atacado Boka Kente,outdoor_seating:no,reservation:no,smoking:no,stars:3,takeaway:no,wheelchair:limited","lat":-22.535329,"lng":-55.7321169},{"id":"6809914985","name":"Farmácia Morifarma","tags":"amenity:pharmacy,dispensing:yes,fax:+55 67 3431 6384,healthcare:pharmacy,phone:+55 67 3431 5001","lat":-22.5363806,"lng":-55.7313791},{"id":"6809914988","tags":"amenity:atm,brand:Banco24Horas,opening_hours:Mo-Su 07:00-22:00,operator:Requinte,wheelchair:limited","lat":-22.5362752,"lng":-55.7314165},{"id":"6809914991","name":"Drogaria Globo","tags":"addr:housenumber:2394,addr:street:Rua Marechal Floriano,amenity:pharmacy,healthcare:pharmacy,wheelchair:limited","lat":-22.5354878,"lng":-55.7320027},{"id":"6813273542","name":"EmagreSee","tags":"building:commercial,leisure:fitness_centre","lat":-22.5378457,"lng":-55.7293205},{"id":"7270953130","name":"Ultra Popular","tags":"amenity:pharmacy,dispensing:yes,drive_through:yes,healthcare:pharmacy","lat":-22.5374229,"lng":-55.7279536},{"id":"7270953143","name":"中国屋","tags":"addr:housenumber:2883,amenity:restaurant,cuisine:chinese","lat":-22.5380933,"lng":-55.7274452},{"id":"7270953145","name":"Farmácia Popular","tags":"amenity:pharmacy,dispensing:yes,drive_through:yes,healthcare:pharmacy","lat":-22.5381707,"lng":-55.7273886},{"id":"7270953148","name":"Profética","tags":"shop:books","lat":-22.5382873,"lng":-55.7273028}]