[{"id":"5283982729","name":"Praça Brasil","tags":"leisure:park","lat":-23.4700798,"lng":-52.5549029},{"id":"5283982791","name":"Colégio Estadual Emílio de Menezes","tags":"amenity:school","lat":-23.466845,"lng":-52.5530551},{"id":"5283982792","name":"Colégio Estadual Rui Barbosa","tags":"amenity:school","lat":-23.4700345,"lng":-52.5526769},{"id":"5283982793","name":"Estádio Municipal Athanasio Mingo","tags":"leisure:stadium","lat":-23.46786,"lng":-52.5537745},{"id":"5283982800","name":"ATI - Academia da Terceira Idade","tags":"leisure:fitness_centre","lat":-23.4669619,"lng":-52.5548429},{"id":"5283982831","name":"Banco do Brasil","tags":"amenity:bank,brand:Banco do Brasil,brand:wikidata:Q610817,brand:wikipedia:en:Banco do Brasil","lat":-23.4696252,"lng":-52.555162},{"id":"5283982832","name":"Sicredi","tags":"amenity:bank,brand:Sicredi,brand:wikidata:Q3483060,brand:wikipedia:pt:Sistema de Crédito Cooperativo","lat":-23.470031,"lng":-52.5555336},{"id":"5284005388","name":"Hospital Público Municipal","tags":"amenity:hospital,healthcare:hospital","lat":-23.4722379,"lng":-52.5563247}]