[{"id":"7868870285","name":"Raia","tags":"amenity:pharmacy,healthcare:pharmacy","lat":-23.0802977,"lng":-52.4618476},{"id":"9949636369","name":"Sicredi","tags":"addr:street:Avenida Paraná,amenity:bank,atm:yes,brand:Sicredi,brand:wikidata:Q3483060,brand:wikipedia:pt:Sistema de Crédito Cooperativo","lat":-23.0795738,"lng":-52.4609841},{"id":"9957723964","name":"Posto Moringão","tags":"amenity:fuel,fuel:diesel:yes,fuel:ethanol:yes,fuel:octane_87:yes,shop:convenience","lat":-23.0772469,"lng":-52.4635624},{"id":"10029936342","name":"São João","tags":"amenity:pharmacy,brand:São João,brand:wikidata:Q62663306,dispensing:yes,healthcare:pharmacy","lat":-23.0817926,"lng":-52.4653515},{"id":"10029936344","name":"Preço Popular","tags":"amenity:pharmacy,dispensing:yes,healthcare:pharmacy","lat":-23.0805708,"lng":-52.4618937},{"id":"10029936345","name":"Nissei","tags":"amenity:pharmacy,dispensing:yes,healthcare:pharmacy","lat":-23.0797061,"lng":-52.4602613},{"id":"10029936348","name":"Preço Baixo","tags":"amenity:pharmacy,dispensing:yes,healthcare:pharmacy","lat":-23.0810505,"lng":-52.4628092}]