[{"id":"1600761521","name":"Museu Histórico Cesumar","tags":"tourism:museum","lat":-23.440458,"lng":-51.9186235},{"id":"1600761564","tags":"amenity:library","lat":-23.4426199,"lng":-51.9171664},{"id":"1600761566","name":"Farmácia-Escola Cesumar","tags":"amenity:pharmacy,dispensing:yes,healthcare:pharmacy","lat":-23.4425287,"lng":-51.9169849},{"id":"1600761568","name":"Lev Grill","tags":"amenity:restaurant","lat":-23.4426621,"lng":-51.9172386},{"id":"2407532879","name":"Colégio Objetivo","tags":"amenity:school","lat":-23.4442366,"lng":-51.9161993},{"id":"5643034526","name":"UniCesumar - Campus Maringá","tags":"addr:housenumber:1610,addr:postcode:87050-900,addr:street:Avenida Guedner,amenity:school,email:maringa@unicesumar.edu.br,opening_hours:Mo-Fr 08:00-22:00; Sa 09:00-17:00,phone:+55 44 3027 6360,website:https://www.unicesumar.edu.br/","lat":-23.4434362,"lng":-51.915483}]