[{"id":"3793649500","name":"BIC Banco","tags":"addr:city:Londrina,addr:housenumber:488,addr:postcode:86020-080,addr:street:Avenida Higienópolis,addr:suburb:Centro,amenity:bank,email:ag.londrina@bicbanco.com.br,phone:+55 43 2101 7800,website:www.bicbanco.com.br","lat":-23.314285,"lng":-51.1656497},{"id":"4492209189","name":"Ponto do Sabor","tags":"addr:housenumber:1819,addr:street:Rua Goiás,amenity:restaurant","lat":-23.3156427,"lng":-51.169119},{"id":"4500158790","name":"Niwa Sushi","tags":"addr:housenumber:1825,addr:street:Rua Pará,amenity:restaurant,cuisine:japanese,website:http://www.sushiniwa.com.br","lat":-23.3145006,"lng":-51.1690817},{"id":"4500170992","name":"Churrascaria Galpão Nelore","tags":"addr:housenumber:891,addr:postcode:86020-080,addr:street:Avenida Higienópolis,amenity:restaurant,cuisine:steak_house,internet_access:wlan,name:en:Galpão Nelore Steakhouse,website:http://galpaonelore.com.br","lat":-23.317736,"lng":-51.1653407},{"id":"4546127789","name":"Dacho Restaurante Japonês","tags":"addr:housenumber:1731,addr:street:Rua Goiás,amenity:restaurant,cuisine:japanese,name:en:Dacho Japanese Restaurant,website:http://www.dacho.com.br","lat":-23.315631,"lng":-51.1682579},{"id":"4696575447","name":"Tomattus Ristorante","tags":"addr:city:Londrina,addr:housenumber:1321,addr:postcode:86020-061,addr:street:Rua Belo Horizonte,addr:suburb:Centro,amenity:restaurant,cuisine:regional,_pizza,_cozinha_italiana,opening_hours:Todos os dias para almoço e jantar","lat":-23.3160052,"lng":-51.1664821},{"id":"4696578185","name":"Barolo Trattoria","tags":"addr:city:Londrina,addr:housenumber:1335,addr:postcode:86020-061,addr:street:Rua Belo Horizonte,addr:suburb:Centro,amenity:restaurant,cuisine:italian","lat":-23.3164258,"lng":-51.1664794},{"id":"4696580501","name":"Droga Raia","tags":"addr:city:Londrina,addr:housenumber:460,addr:postcode:86015-010,addr:street:Avenida Higienópolis,addr:suburb:Centro,amenity:pharmacy","lat":-23.3139817,"lng":-51.1657579},{"id":"5582883626","tags":"amenity:cafe,name:en:Bar","lat":-23.3133778,"lng":-51.1638703},{"id":"6342046883","name":"Noriko","tags":"shop:beauty","lat":-23.3166885,"lng":-51.1636484},{"id":"6621471585","name":"Pastel Mel","tags":"addr:housenumber:437,addr:street:Avenida Higienópolis,amenity:restaurant,internet_access:wlan","lat":-23.3138119,"lng":-51.1653779},{"id":"7090724546","name":"Empório Brest","tags":"addr:city:Londrina,addr:housenumber:465,addr:postcode:86020-080,addr:street:Avenida Higienópolis,addr:suburb:Centro,air_conditioning:yes,amenity:cafe,contact:facebook:https://www.facebook.com/EmporioBrest/,contact:instagram:https://www.instagram.com/emporiobrest/,cuisine:cafe;french;pizza;ice_cream,delivery:yes,internet_access:wlan,internet_access:fee:no,opening_hours:Tu-Su 10:00-22:00,phone:+55 43 3324 1681","lat":-23.3140916,"lng":-51.1653258},{"id":"9809975198","name":"Sips Café","tags":"amenity:cafe","lat":-23.3131936,"lng":-51.1703525},{"id":"9809975210","tags":"shop:pet","lat":-23.3151277,"lng":-51.1707819},{"id":"9809975211","tags":"shop:pet","lat":-23.3135804,"lng":-51.1690978}]