[{"id":"4356775476","name":"Colégio Estadual Eng. José Faria Saldanha","tags":"amenity:school","lat":-23.1464633,"lng":-51.7719335},{"id":"4356780704","name":"Ginásio de Esportes","tags":"leisure:sports_centre","lat":-23.1471147,"lng":-51.7716732},{"id":"4356781633","name":"Centro Cultural Monteiro Lobato","tags":"tourism:museum","lat":-23.1468003,"lng":-51.7709651},{"id":"4356781814","name":"Super Creche","tags":"amenity:childcare","lat":-23.146925,"lng":-51.7698189},{"id":"4356782538","name":"Biblioteca Municipal","tags":"amenity:library","lat":-23.1476955,"lng":-51.771304}]