[{"id":"2608871723","name":"Bonafarma","tags":"addr:housenumber:28,addr:postcode:89172-000,addr:street:BR-470,amenity:pharmacy,contact:facebook:https://www.facebook.com/JamesStringari?ref=hl,healthcare:pharmacy,operator:Bonafarma - Stringari Farmácia,phone:+55 47 3545-1335,wheelchair:yes","lat":-27.2567271,"lng":-49.9345421},{"id":"4826062338","name":"Supermercado Avenida","tags":"shop:supermarket","lat":-27.256039,"lng":-49.9337614},{"id":"4850731657","name":"Auto Lavação Jonas","tags":"amenity:car_wash","lat":-27.2547483,"lng":-49.9334322},{"id":"5064583585","name":"Restaurante Scoz","tags":"amenity:restaurant,phone:+55 47 3545-1235,survey_date:2017-07-23,website:http://www.gruposcoz.com.br/","lat":-27.2564691,"lng":-49.9356931},{"id":"5064583591","name":"Kaza Restaurante","tags":"amenity:restaurant,phone:+55 47 3545-1344,survey_date:2017-07-23","lat":-27.2564453,"lng":-49.9355114},{"id":"9675963770","name":"Dona Nita","tags":"amenity:cafe","lat":-27.2565323,"lng":-49.9383196}]