[{"id":"1794873817","tags":"amenity:post_office","lat":-27.6454804,"lng":-48.6676368},{"id":"3713444158","tags":"amenity:pharmacy","lat":-27.645013,"lng":-48.6658983},{"id":"3713444242","name":"Farmácia Preço Popular","tags":"amenity:pharmacy,dispensing:yes,healthcare:pharmacy","lat":-27.6437723,"lng":-48.6673135},{"id":"3713444243","name":"Santander","tags":"amenity:bank","lat":-27.6463633,"lng":-48.6667497},{"id":"8636277335","name":"Biblioteca Pública Municipal de Palhoça","tags":"amenity:library","lat":-27.6461579,"lng":-48.6669608},{"id":"9005343585","name":"Lion Personal Studio","tags":"addr:housenumber:283,addr:postcode:88130-180,addr:street:Rua Prefeito Ari Wagner,contact:facebook:https://www.facebook.com/lionpersonalestudio,contact:phone:+55 48 98853-0271,leisure:fitness_centre,opening_hours:Mo-Fr 07:00-11:30,17:00-21:30; Sa,Su,PH off,sport:musculação;personal_trainer","lat":-27.6438751,"lng":-48.6681909}]