[{"id":"759907641","name":"Drogaria Catarinense","tags":"amenity:pharmacy,dispensing:yes,healthcare:pharmacy","lat":-27.6080083,"lng":-48.5787846},{"id":"1738262279","name":"Faculdade de Tecnologia em Saúde CIEPH","tags":"addr:city:Florianópolis,addr:housenumber:115,addr:postcode:88080-250,addr:street:Rua Doutor Abel Capela,addr:suburb:Coqueiros,amenity:university,contact:instagram:https://www.instagram.com/cieph_faculdade/,contact:phone:+55 48 3206-2851;+55 48 3206-2891,contact:website:https://cieph.edu.br/,contact:whatsapp:+55 48 99192-6872,description:Centro Integrado de Estudos e Pesquisas do Homem,short_name:Faculdade CIEPH","lat":-27.6075206,"lng":-48.5795283},{"id":"5049834941","name":"Panvel","tags":"amenity:pharmacy,branch:Farmácias,brand:Panvel,brand:wikidata:Q10344254,brand:wikipedia:pt:Panvel,healthcare:pharmacy","lat":-27.60671,"lng":-48.5782634},{"id":"5049834942","name":"Farma Sesi","tags":"amenity:pharmacy,healthcare:pharmacy,old_name:Sesi Farmácias","lat":-27.6046971,"lng":-48.5770035},{"id":"5053442523","name":"Agência Coqueiros","tags":"amenity:bank,atm:yes,brand:Banco do Brasil,brand:wikidata:Q610817,brand:wikipedia:en:Banco do Brasil,operator:Banco do Brasil,operator:type:public,short_name:BB","lat":-27.6065695,"lng":-48.5786508},{"id":"5054180553","name":"Wamaki","tags":"amenity:restaurant,cuisine:sushi,takeaway:yes","lat":-27.6066091,"lng":-48.5780289},{"id":"5054180588","name":"Imigrantes","tags":"amenity:restaurant","lat":-27.6070075,"lng":-48.5788142},{"id":"5054196591","name":"Restaurante Avenida","tags":"amenity:restaurant","lat":-27.6047854,"lng":-48.5770422},{"id":"5054283511","name":"Anjinho da Guarda","tags":"shop:pet","lat":-27.6056876,"lng":-48.5774702},{"id":"5054591180","name":"Danjouya","tags":"addr:street:Rua Capitão Euclides de Castro,amenity:restaurant,cuisine:japanese;ramen","lat":-27.6044271,"lng":-48.5767698},{"id":"5059240032","tags":"amenity:car_wash","lat":-27.6059607,"lng":-48.5755095},{"id":"5064057072","name":"Saúde Vital","tags":"amenity:pharmacy,healthcare:pharmacy,opening_hours:24/7","lat":-27.6080141,"lng":-48.5783097},{"id":"5071909729","name":"Smart Fit","tags":"brand:Smart Fit,brand:wikidata:Q30930959,brand:wikipedia:pt:Smart Fit,leisure:fitness_centre","lat":-27.6051964,"lng":-48.5768988}]