[{"id":"872980972","name":"AGF Correios Trindade","tags":"addr:housenumber:438,addr:postcode:88036-972,addr:street:Rua Lauro Linhares,amenity:post_office,brand:Correios,contact:phone:+55 48 3233-4440,opening_hours:Mo-Fr 09:00-17:00; Sa,Su,PH off,operator:type:private","lat":-27.5835463,"lng":-48.5257963},{"id":"1749056025","name":"Farmácia Normal","tags":"addr:street:Rua Lauro Linhares,amenity:pharmacy,healthcare:pharmacy","lat":-27.5862541,"lng":-48.5247826},{"id":"4204833489","name":"Agropecuária Gente da Terra","tags":"shop:pet","lat":-27.5824162,"lng":-48.5261104},{"id":"4204833490","name":"Armazém Zinder","tags":"shop:convenience","lat":-27.5824982,"lng":-48.526087},{"id":"5512648999","name":"Pet Affetto","tags":"shop:pet","lat":-27.5850954,"lng":-48.5247908}]