[{"id":"1437608780","name":"Panvel","tags":"amenity:pharmacy,brand:Panvel,brand:wikidata:Q10344254,brand:wikipedia:pt:Panvel,healthcare:pharmacy","lat":-27.5968451,"lng":-48.5528792},{"id":"1468492286","name":"Tropical","tags":"amenity:restaurant","lat":-27.5955528,"lng":-48.5553714},{"id":"1468492356","name":"Estilo","tags":"amenity:restaurant","lat":-27.5954959,"lng":-48.5557048},{"id":"1468492426","name":"Dona Cota","tags":"addr:housenumber:594,addr:street:Rua Conselheiro Mafra,amenity:restaurant","lat":-27.5953406,"lng":-48.5558147},{"id":"1468492446","name":"Conselheiro do Paladar","tags":"amenity:restaurant","lat":-27.595369,"lng":-48.5557414},{"id":"1678703298","name":"Itaú","tags":"amenity:bank,brand:Itaú Unibanco,brand:wikidata:Q1424293,brand:wikipedia:pt:Itaú Unibanco,operator:Itaú,operator:type:private","lat":-27.597323,"lng":-48.5502543},{"id":"1678703319","name":"Panvel","tags":"amenity:pharmacy,brand:Panvel,brand:wikidata:Q10344254,brand:wikipedia:pt:Panvel,healthcare:pharmacy,source:name:survey","lat":-27.5975987,"lng":-48.5504803},{"id":"1678713226","name":"Livros & Livros","tags":"shop:books,source:name:survey","lat":-27.5957581,"lng":-48.5522346},{"id":"1678713229","name":"Itaú","tags":"amenity:bank,brand:Itaú Unibanco,brand:wikidata:Q1424293,brand:wikipedia:pt:Itaú Unibanco,operator:Itaú,operator:type:private","lat":-27.5958492,"lng":-48.5523068},{"id":"1840421554","name":"Itaú","tags":"amenity:bank,atm:yes,brand:Itaú Unibanco,brand:wikidata:Q1424293,brand:wikipedia:pt:Itaú Unibanco,operator:Itaú,operator:type:private","lat":-27.5950013,"lng":-48.5525937},{"id":"1860516207","name":"Prime Café","tags":"addr:housename:Prime Tower,addr:housenumber:170,addr:street:Rua Dom Jaime Câmara,amenity:cafe,cuisine:coffee_shop","lat":-27.5924642,"lng":-48.551293},{"id":"2425395665","name":"Banrisul","tags":"addr:housenumber:69,addr:street:Rua Presidente Nereu Ramos,amenity:bank,brand:Banrisul,brand:wikidata:Q4857098,brand:wikipedia:en:Banrisul,operator:Banco do Estado do Rio Grande do Sul,operator:type:public","lat":-27.5944423,"lng":-48.5503839},{"id":"2571370969","name":"1007 Boite Chik","tags":"amenity:nightclub","lat":-27.593603,"lng":-48.5594066},{"id":"2632307338","name":"Dib Mussi","tags":"addr:postcode:88015-080,addr:street:Rua Antônio Dib Mussi,amenity:restaurant,cuisine:pizza","lat":-27.5928804,"lng":-48.5504065},{"id":"2632314767","name":"Farmácia Angeloni","tags":"addr:street:Rua Esteves Júnior,amenity:pharmacy,dispensing:yes,healthcare:pharmacy","lat":-27.592205,"lng":-48.5529479},{"id":"2670144008","name":"Caffe Cult","tags":"addr:housenumber:200,addr:street:Rua Dom Jaime Câmara,amenity:cafe,payment:bitcoin:yes,website:https://www.facebook.com/caffecult","lat":-27.5924906,"lng":-48.5506993},{"id":"4483160778","name":"Garagem Pio XII","tags":"addr:housenumber:470,addr:street:Rua Felipe Schmidt,amenity:parking,fee:yes,layer:-1,lit:yes,opening_hours:Mo-Fr 07:00-21:00; Sa 07:00-18:00; Su,PH off,parking:underground,supervised:yes","lat":-27.5949506,"lng":-48.5539434},{"id":"4483161895","tags":"amenity:restaurant","lat":-27.5948912,"lng":-48.553541},{"id":"4862263621","name":"Arbor Café","tags":"addr:housenumber:251,addr:street:Avenida Prefeito Osmar Cunha,amenity:cafe,name:pt:Arbor Café","lat":-27.5933211,"lng":-48.551328},{"id":"4862426804","name":"Bio Idêntica","tags":"amenity:pharmacy,healthcare:pharmacy","lat":-27.5933564,"lng":-48.5513207},{"id":"4862435827","name":"Panvel","tags":"amenity:pharmacy,brand:Panvel,brand:wikidata:Q10344254,brand:wikipedia:pt:Panvel,healthcare:pharmacy,name:pt:Panvel","lat":-27.5928392,"lng":-48.5515115},{"id":"4862435828","name":"Banco PAN","tags":"amenity:bank,old_name:Banco PanAmericano,operator:Banco PAN,operator:type:private","lat":-27.5924416,"lng":-48.5513342},{"id":"4870231922","name":"Giardini","tags":"amenity:restaurant","lat":-27.5934805,"lng":-48.5512977},{"id":"5008422809","name":"Delegacia de Combate às Drogas","tags":"amenity:police,opening_hours:24/7,operator:Polícia Civil,operator:type:public,short_name:DECOD","lat":-27.5931668,"lng":-48.5513816},{"id":"5105388522","tags":"amenity:atm,level:0","lat":-27.5972656,"lng":-48.5574522},{"id":"5398634777","name":"AGF Correios","tags":"amenity:post_office,brand:Correios,contact:phone:+55 48 3025-4318,opening_hours:Mo-Fr 09:00-17:30; Sa,Su,PH off,operator:type:private","lat":-27.5922968,"lng":-48.5545424},{"id":"5409890698","name":"Caixa Econômica Federal","tags":"addr:housenumber:249,addr:postcode:88010-902,addr:street:Rua Felipe Schmidt,amenity:bank,brand:Caixa,brand:wikidata:Q835283,brand:wikipedia:pt:Caixa Econômica Federal,contact:phone:+55 48 2108-0400,operator:Caixa Econômica Federal,operator:type:public,short_name:CEF","lat":-27.5965271,"lng":-48.5525282},{"id":"5410022673","name":"Caixa Econômica Federal","tags":"amenity:bank,brand:Caixa,brand:wikidata:Q835283,brand:wikipedia:pt:Caixa Econômica Federal,contact:phone:+55 48 3211-4600,drive_through:no,operator:Caixa Econômica Federal,operator:type:public,short_name:CEF","lat":-27.5940306,"lng":-48.5515188},{"id":"5452007376","name":"Delegacia de Repressão a Roubos","tags":"amenity:police,opening_hours:24/7,operator:Polícia Civil,operator:type:public,short_name:DRR","lat":-27.5932304,"lng":-48.5513603},{"id":"5452007377","name":"Delegacia de Homicídios da Capital","tags":"amenity:police,opening_hours:24/7,operator:Polícia Civil,operator:type:public","lat":-27.5931986,"lng":-48.5513709},{"id":"6192488585","name":"Tsan The Restaurante Vegetariano","tags":"amenity:restaurant,diet:vegetarian:only,name:en:Tsan The Vegetarian Restaurant,name:zh:成德素食餐馆","lat":-27.5962957,"lng":-48.5507985},{"id":"6310773823","name":"Ilhéu","tags":"amenity:restaurant","lat":-27.5923869,"lng":-48.5516444},{"id":"6352644417","name":"Phytomaster","tags":"amenity:pharmacy,contact:phone:+55 48 3222-2888,dispensing:yes,healthcare:pharmacy","lat":-27.5950719,"lng":-48.5503951},{"id":"6462747998","name":"Loja do Guia Vegano","tags":"addr:housenumber:280,addr:postcode:88015-120,addr:street:Rua Dom Jaime Câmara,contact:website:https://www.guiavegano.com.br/vegan/,contact:whatsapp:+55 48 99600-6711,delivery:yes,opening_hours:Mo-Fr 09:00-19:00; Sa,Su,PH off,payment:cash:yes,payment:credit_cards:yes,payment:visa_debit:yes,shop:supermarket","lat":-27.5924877,"lng":-48.5501199},{"id":"6501954585","name":"Bradesco","tags":"amenity:bank,brand:Bradesco,brand:wikidata:Q806181,brand:wikipedia:en:Banco Bradesco,operator:Bradesco,operator:type:private","lat":-27.5976137,"lng":-48.5491616},{"id":"6512302933","name":"Padaria Buenos","tags":"shop:convenience","lat":-27.5937621,"lng":-48.5562833},{"id":"6512302937","name":"Banco do Brasil","tags":"amenity:bank,atm:yes,brand:Banco do Brasil,brand:wikidata:Q610817,brand:wikipedia:en:Banco do Brasil,operator:Banco do Brasil,operator:type:public,short_name:BB","lat":-27.5946963,"lng":-48.5551956},{"id":"6624567237","name":"Unisul - Núclo de Prática Jurídica","tags":"addr:housenumber:219,addr:street:Rua Trajano,amenity:university,contact:phone:+55 48 3279-1920,contact:website:https://www.unisul.br/nucleo-de-pratica-juridica/grande-florianopolis/,contact:whatsapp:+55 48 3279-1356,level:1,short_name:Unisul NPJ","lat":-27.5965265,"lng":-48.5505043},{"id":"6624567251","name":"Preço Popular","tags":"amenity:pharmacy,dispensing:yes,healthcare:pharmacy","lat":-27.5970547,"lng":-48.5508964},{"id":"8636287622","name":"Casa da Memória Annita Hoepcke da Silva","tags":"access:yes,alt_name:Biblioteca Pública Municipal Casa da Memória,contact:phone:+55 48 3333-1322,opening_hours:Mo-Fr 13:00-19:00; Sa,Su,PH off,operator:Fundação Cultural de Florianópolis Franklin Cascaes,operator:type:public,source:name:Lei 10.804/2021,start_date:2004-03-30,tourism:museum","lat":-27.5963824,"lng":-48.5488338},{"id":"9026889818","name":"Empório Mania da Ilha","tags":"addr:door:03 S,opening_hours:Mo-Fr 08:00-19:00; Sa 08:00-14:00; Su,PH off,shop:convenience","lat":-27.5973826,"lng":-48.5531204},{"id":"9026889819","name":"Stazione Café","tags":"addr:door:02 S,amenity:cafe,opening_hours:Mo-Fr 10:00-22:00; Sa 10:00-17:00; Su,PH 11:00-17:00","lat":-27.5973545,"lng":-48.553172},{"id":"9026889825","name":"Quitanda do Paladar","tags":"addr:door:15 S,opening_hours:Mo-Fr 08:00-19:00; Sa 08:00-14:00; Su,PH off,shop:convenience","lat":-27.5973033,"lng":-48.5530823},{"id":"9026889837","name":"Rancho da Ilha","tags":"addr:door:37 S,amenity:restaurant,cuisine:seafood,opening_hours:Mo-Fr 10:00-22:00; Sa 10:00-17:00; Su,PH 11:00-17:00","lat":-27.5974655,"lng":-48.5526865},{"id":"9026889871","name":"Colher de Pau","tags":"addr:door:06 N,amenity:restaurant,cuisine:seafood,opening_hours:Mo-Fr 10:00-22:00; Sa 10:00-17:00; Su,PH 11:00-17:00","lat":-27.5971953,"lng":-48.5527639},{"id":"9026889874","name":"De Grão em Grão","tags":"addr:door:03 N,opening_hours:Mo-Fr 08:00-19:00; Sa 08:00-14:00; Su,PH off,shop:convenience","lat":-27.5971225,"lng":-48.5528981},{"id":"9026889885","name":"Grãos da Ilha","tags":"addr:door:20 N,opening_hours:Mo-Fr 08:00-19:00; Sa 08:00-14:00; Su,PH off,shop:convenience","lat":-27.5970861,"lng":-48.5528919},{"id":"9026889888","name":"Aroma Café","tags":"addr:door:17 N,amenity:cafe,opening_hours:Mo-Fr 10:00-22:00; Sa 10:00-17:00; Su,PH 11:00-17:00","lat":-27.5970469,"lng":-48.5529642},{"id":"9026889889","name":"Tampa’s Cafeteria","tags":"addr:door:16 N,amenity:cafe,opening_hours:Mo-Fr 10:00-22:00; Sa 10:00-17:00; Su,PH 11:00-17:00","lat":-27.5970338,"lng":-48.5529883},{"id":"9026889894","name":"Ichiro","tags":"addr:door:11 N,amenity:restaurant,cuisine:japanese;regional,opening_hours:Mo-Fr 10:00-22:00; Sa 10:00-17:00; Su,PH 11:00-17:00","lat":-27.5973118,"lng":-48.5525482},{"id":"9026889923","name":"Cafeteria 53","tags":"addr:door:53 N,amenity:cafe,opening_hours:Mo-Fr 10:00-22:00; Sa 10:00-17:00; Su,PH 11:00-17:00","lat":-27.5971686,"lng":-48.5526434},{"id":"9026889937","name":"Agrocopecuária do Mercado","tags":"addr:door:67 N,opening_hours:Mo-Fr 08:00-19:00; Sa 08:00-14:00; Su,PH off,shop:pet","lat":-27.5970113,"lng":-48.5528818},{"id":"9026889953","name":"Preço Bom","tags":"addr:door:39 N,opening_hours:Mo-Fr 08:00-19:00; Sa 08:00-14:00; Su,PH off,shop:convenience","lat":-27.596973,"lng":-48.5529794},{"id":"9444532920","name":"Restaurante Silvestre","tags":"amenity:restaurant","lat":-27.5965831,"lng":-48.5538605},{"id":"9471042947","name":"Unicred","tags":"amenity:bank,atm:yes","lat":-27.5941199,"lng":-48.558818},{"id":"9553138317","tags":"amenity:atm,brand:Banco24Horas","lat":-27.5952569,"lng":-48.5548014},{"id":"9553138326","name":"Faunasul Pet","tags":"addr:housenumber:149,addr:street:Rua Pedro Ivo,shop:pet","lat":-27.5953325,"lng":-48.5550435},{"id":"9553138328","name":"Blues Velvet","tags":"addr:housenumber:147,addr:street:Rua Pedro Ivo,amenity:bar,contact:instagram:bluesvelvetbar,opening_hours:Tu 21:00-24:00; Fr 00:00-03:00,22:00-24:00; Sa 00:00-04:00,22:00-24:00; Su 00:00-04:00","lat":-27.5953681,"lng":-48.5550686},{"id":"9553138414","tags":"amenity:parking,parking:surface","lat":-27.5957957,"lng":-48.5560593},{"id":"9553138703","name":"Casa na Brasa","tags":"addr:housenumber:495,addr:street:Rua Conselheiro Mafra,amenity:restaurant","lat":-27.5958586,"lng":-48.5550045},{"id":"9553138719","name":"Nutriflor","tags":"shop:pet","lat":-27.5955464,"lng":-48.5562524},{"id":"9553138804","name":"Alemão Café e Pães","tags":"amenity:cafe","lat":-27.5949132,"lng":-48.5568834},{"id":"9553138812","name":"Vitória","tags":"amenity:restaurant","lat":-27.5948187,"lng":-48.5568157},{"id":"9616147540","name":"Wado Kan Fitness","tags":"contact:instagram:wadokanfitnessoficial,contact:phone:+55 48 3223-1014,contact:website:http://academiawadokan.com.br/,contact:whatsapp:+55 48 99802-0309,leisure:fitness_centre,level:0,opening_hours:Mo-Fr 06:30-22:00; Sa 10:00-13:00,sport:fitness","lat":-27.5954481,"lng":-48.5528065},{"id":"9616147569","name":"Galeria Comasa","tags":"shop:mall","lat":-27.5954831,"lng":-48.5534602},{"id":"9616148631","name":"Beirut","tags":"amenity:restaurant,level:1","lat":-27.5960804,"lng":-48.5534234},{"id":"9616148632","name":"Preço Popular","tags":"amenity:pharmacy,dispensing:yes,healthcare:pharmacy","lat":-27.5960513,"lng":-48.5534696},{"id":"9616148656","name":"Farmácia do Trabalhador","tags":"amenity:pharmacy,dispensing:yes,healthcare:pharmacy","lat":-27.5964084,"lng":-48.5537285},{"id":"9616148707","tags":"addr:housenumber:536,addr:street:Rua Francisco Tolentino,amenity:parking,fee:yes,parking:Capital Park Estacionamento","lat":-27.5957743,"lng":-48.5555899},{"id":"9616148714","name":"Machado Agropet","tags":"addr:housenumber:568,addr:street:Rua Francisco Tolentino,shop:pet","lat":-27.5956466,"lng":-48.5559259},{"id":"9616148730","name":"Carne na Brasa","tags":"amenity:restaurant","lat":-27.5964701,"lng":-48.5540882},{"id":"9616148734","name":"Santo André Restaurante e Lanchonete","tags":"amenity:restaurant","lat":-27.5964063,"lng":-48.5542189},{"id":"9627836716","name":"Mirantes Grill","tags":"amenity:restaurant","lat":-27.5951171,"lng":-48.5507365},{"id":"9627836746","name":"Coffe To Go","tags":"amenity:cafe","lat":-27.5947266,"lng":-48.5514808},{"id":"9627836774","name":"Bendito Fruto","tags":"amenity:cafe","lat":-27.5944319,"lng":-48.5512736},{"id":"9627836838","name":"Galeria Central","tags":"shop:mall","lat":-27.5956103,"lng":-48.5515961},{"id":"9627836848","name":"Banco do Brasil","tags":"amenity:bank,atm:yes,brand:Banco do Brasil,brand:wikidata:Q610817,brand:wikipedia:en:Banco do Brasil,currency:BRL:yes,drive_through:no,operator:Banco do Brasil,operator:type:public,short_name:BB","lat":-27.595602,"lng":-48.5519314},{"id":"9627836854","name":"Paladar","tags":"addr:housenumber:191,addr:street:Rua Deodoro,amenity:restaurant","lat":-27.5962882,"lng":-48.5515648},{"id":"9627836926","name":"Preço Popular","tags":"amenity:pharmacy,dispensing:yes,healthcare:pharmacy","lat":-27.5961333,"lng":-48.5512689},{"id":"9627836927","name":"Farmácias São João","tags":"amenity:pharmacy,dispensing:yes,healthcare:pharmacy","lat":-27.5959425,"lng":-48.5513098},{"id":"9627836968","name":"Cliff Café","tags":"amenity:cafe","lat":-27.5961261,"lng":-48.550768},{"id":"9627836971","name":"Gabby Beauty","tags":"shop:beauty","lat":-27.5961853,"lng":-48.5506573},{"id":"9627837004","name":"Sicoob","tags":"amenity:bank,atm:yes","lat":-27.5961618,"lng":-48.5502604},{"id":"9627837068","name":"Kibe & Kebab","tags":"alt_name:Kibe e Kebab,amenity:restaurant,cuisine:arab","lat":-27.5954644,"lng":-48.5544732}]