[{"id":"2448348622","name":"Mai Mai Lanches Prensados","tags":"amenity:restaurant","lat":-27.6659542,"lng":-48.4812826},{"id":"2632598164","name":"Neide in Brazil","tags":"amenity:bar","lat":-27.6649636,"lng":-48.4786581},{"id":"7820447866","name":"Talita Morelli","tags":"addr:street:Avenida Campeche,leisure:fitness_centre,phone:+55 48 9 9972 9226,sport:pilates","lat":-27.6637509,"lng":-48.4805315},{"id":"3472296527","name":"Paradiso Mercato e Caffe","tags":"addr:city:Florianópolis,addr:housenumber:2817,addr:postcode:88063-301,addr:street:Servidão Hipólito Bernardino das Chagas,addr:suburb:Campeche,amenity:cafe,opening_hours:Mo-Fr 09:00-18:00,outdoor_seating:yes,payment:all:yes,toilets:wheelchair:yes,wheelchair:yes","lat":-27.6636526,"lng":-48.4804794},{"id":"10597015932","name":"La Brasaria","tags":"amenity:restaurant,contact:phone:+55 48 3207-3964,cuisine:barbeque,strapline:Boutique de Carnes y Parrella,website:menu:https://www.labrasaria.com.br/menu","lat":-27.6665195,"lng":-48.4814985},{"id":"10597088452","name":"Zahara","tags":"amenity:restaurant","lat":-27.6670174,"lng":-48.4814538},{"id":"10597089331","name":"Vibe Poke","tags":"amenity:restaurant,contact:instagram:vibepoke,contact:phone:+55 48 99174-3368,cuisine:hawaiian","lat":-27.6666768,"lng":-48.4816077},{"id":"10597098094","name":"RedMob","tags":"leisure:fitness_centre,sport:crossfit","lat":-27.6651304,"lng":-48.4806797},{"id":"10597330274","name":"Dri & Dani","tags":"amenity:cafe,outdoor_seating:yes,strapline:Café Delícias","lat":-27.6665749,"lng":-48.4815391}]