[{"id":"2352520833","name":"Mini Mercado Villa Mariana","tags":"shop:convenience","lat":-27.575195,"lng":-48.5098692},{"id":"2607929227","name":"Lavacar Leandro","tags":"amenity:car_wash","lat":-27.573538,"lng":-48.5089063},{"id":"2658304020","name":"Restaurante Biezza","tags":"amenity:restaurant","lat":-27.571219,"lng":-48.5089413},{"id":"2658304021","name":"Restaurante Estrela Guria","tags":"amenity:restaurant","lat":-27.570537,"lng":-48.5083397},{"id":"8742405791","name":"IN JOY Floripa","tags":"addr:housenumber:27,addr:postcode:88030-300,addr:street:Rodovia João Paulo,amenity:bar","lat":-27.5719653,"lng":-48.5132418},{"id":"9039058450","tags":"amenity:parking,capacity:9","lat":-27.5720723,"lng":-48.5122146},{"id":"9039058463","tags":"amenity:parking,capacity:4","lat":-27.5722934,"lng":-48.5119182},{"id":"10200129212","name":"Kond Smoke Lounge","tags":"addr:city:Florianópolis,addr:housenumber:53,addr:postcode:88030-000,addr:street:Rodovia João Paulo,addr:suburb:João Paulo,amenity:bar,min_age:16,opening_hours:sunset-sunrise,wheelchair:yes","lat":-27.5717657,"lng":-48.5132374},{"id":"10703189339","name":"Kond Drinks","tags":"addr:city:Florianópolis,addr:housenumber:53,addr:postcode:88030-000,addr:street:Rodovia João Paulo,addr:suburb:João Paulo,amenity:bar,opening_hours:24/7","lat":-27.5717897,"lng":-48.5133121}]