[{"id":"869823172","name":"Panvel","tags":"amenity:pharmacy,brand:Panvel,brand:wikidata:Q10344254,brand:wikipedia:pt:Panvel,dispensing:yes,healthcare:pharmacy","lat":-27.5783684,"lng":-48.5102654},{"id":"2112726282","tags":"amenity:car_wash","lat":-27.5782928,"lng":-48.5106354},{"id":"3838763791","name":"Five 440","tags":"amenity:restaurant","lat":-27.5780055,"lng":-48.5111191},{"id":"3846448519","name":"Tratto","tags":"amenity:restaurant,cuisine:italian,opening_hours:Tu-Fr 11:30-15:30; Sa 11:30-16:00","lat":-27.5788778,"lng":-48.5102526},{"id":"5555398149","name":"Veneg","tags":"shop:pet","lat":-27.5789124,"lng":-48.5058618},{"id":"7914955936","name":"Armazém 3","tags":"addr:city:Florianópolis,addr:street:Rua Acelon Pacheco da Costa,addr:suburb:Itacorubi,shop:supermarket","lat":-27.5792836,"lng":-48.5100793},{"id":"7914955939","name":"Deli Itacorubi","tags":"amenity:restaurant,shop:health_food","lat":-27.578753,"lng":-48.5102333},{"id":"7914955941","name":"Sushic Express","tags":"amenity:restaurant,cuisine:japanese","lat":-27.5787048,"lng":-48.5104207},{"id":"9102478700","name":"Hospital Vilson Pedro Kleinubing","tags":"amenity:hospital,healthcare:hospital","lat":-27.5773742,"lng":-48.5093071}]