[{"id":"4610652972","name":"Beleza e Cia","tags":"contact:phone:+55 47 3328-6376,contact:whatsapp:+55 47 98852-0101,level:1,shop:beauty","lat":-26.9129768,"lng":-49.1124669},{"id":"4610653030","name":"Academia Iron Man","tags":"leisure:fitness_centre,sport:fitness","lat":-26.9125839,"lng":-49.1122876},{"id":"5394658231","name":"Mercado Alles Blau","tags":"level:0,shop:convenience","lat":-26.9116688,"lng":-49.1102976},{"id":"6221596308","name":"Marileuza Centro de Beleza","tags":"contact:phone:+55 47 3328-0899,level:0,shop:beauty,wheelchair:no","lat":-26.9111288,"lng":-49.1148821},{"id":"6221596325","name":"Restaurante Sabor D'Casa","tags":"amenity:restaurant,contact:phone:+55 47 3234-5809,contact:whatsapp:+55 47 99624-7727","lat":-26.9112729,"lng":-49.1135068},{"id":"6221596381","name":"Farmácia Super Popular","tags":"amenity:pharmacy,contact:phone:+55 47 3035-3832,contact:whatsapp:+55 47 99193-3160,dispensing:yes,healthcare:pharmacy","lat":-26.9139373,"lng":-49.1107106},{"id":"6221596382","name":"Sicoob MaxiCrédito","tags":"amenity:bank,atm:yes,contact:email:velha@maxicredito.coop.br,contact:phone:+55 47 3322-7184;+55 47 3326-2245,contact:website:https://www.maxicredito.coop.br,opening_hours:Mo-Fr 09:00-16:00","lat":-26.9140353,"lng":-49.1105819},{"id":"7185712285","name":"Blu Agro","tags":"shop:pet","lat":-26.9111509,"lng":-49.1146079}]