[{"id":"3656966866","name":"Bradesco","tags":"alt_name:Bradesco Velha,amenity:bank,atm:yes,brand:Bradesco,brand:wikidata:Q806181,brand:wikipedia:en:Banco Bradesco,contact:phone:+55 47 3232-3250,description:Agência 2246,opening_hours:Mo-Fr 11:00-16:00,wheelchair:yes","lat":-26.9185348,"lng":-49.0921863},{"id":"4142881246","name":"Restaurante do Sítio","tags":"addr:street:Rua João Pessoa,amenity:restaurant,opening_hours:Mo-Su 11:00-14:00","lat":-26.9189489,"lng":-49.08976},{"id":"4142881251","name":"Studio L","tags":"addr:door:7,description:Estética corporal e facial | Massoterapia,shop:beauty","lat":-26.9183402,"lng":-49.0887943},{"id":"4712634689","name":"Marcia Amaro Stethic Hair","tags":"contact:email:mp.amaro@hotmail.com,contact:phone:+55 47 3330-1879,internet_access:wlan,opening_hours:Tu-Sa 09:00-19:00; Su,Mo,PH off,shop:beauty,wifi:yes","lat":-26.9197606,"lng":-49.094989},{"id":"4882099475","name":"Stylo Farma","tags":"addr:housenumber:2145,addr:street:Rua João Pessoa,amenity:pharmacy,dispensing:yes,healthcare:pharmacy","lat":-26.9188933,"lng":-49.0932119},{"id":"5745409354","tags":"addr:door:3,shop:beauty","lat":-26.9183909,"lng":-49.0889096},{"id":"6154290853","name":"Viacredi","tags":"amenity:bank","lat":-26.9193531,"lng":-49.0969321}]