[{"id":"5757473281","name":"Feel Fitness","tags":"contact:phone:+55 47 3334-0401,leisure:fitness_centre","lat":-26.875117,"lng":-49.1035974},{"id":"6026258665","name":"DJ Lavação","tags":"amenity:car_wash,contact:phone:+55 47 99913-1175","lat":-26.8762822,"lng":-49.103014},{"id":"6304843247","name":"INPG Business School","tags":"amenity:university,contact:email:blumenau@inpg.edu.br,contact:phone:+55 47 99278-0682,contact:website:https://www.inpg.edu.br/unidade-inpg-blumenau/,opening_hours:Mo-Fr 09:00-19:00","lat":-26.8753491,"lng":-49.1030771},{"id":"6907469028","name":"Papicori","tags":"amenity:restaurant,contact:phone:+55 47 3334-3339","lat":-26.8770848,"lng":-49.1011257},{"id":"7007221437","name":"Academia Status","tags":"contact:phone:+55 47 3288-2300,leisure:fitness_centre,level:1","lat":-26.8767762,"lng":-49.1019237},{"id":"9318711665","name":"Verdant Music Bar","tags":"amenity:bar","lat":-26.8732724,"lng":-49.1023797}]