[{"id":"4630861750","name":"Espaçolaser Depilação","tags":"beauty:laser_hair_removal,contact:phone:+55 47 3237-1500;+55 47 3237-2700,contact:website:https://www.espacolaser.com.br,contact:whatsapp:+55 47 98400-1500,indoor:room,level:0,room:shop,shop:beauty","lat":-26.8873221,"lng":-49.0687925},{"id":"4630861751","name":"Smart Fit","tags":"brand:Smart Fit,brand:wikidata:Q30930959,brand:wikipedia:pt:Smart Fit,contact:website:https://www.smartfit.com.br,indoor:room,leisure:fitness_centre,level:0,opening_hours:Mo-Fr 06:00-23:00; Sa 09:00-18:00; Su 09:00-15:00,room:shop,sport:fitness","lat":-26.8875111,"lng":-49.0688113},{"id":"4771167353","name":"Bistek Supermercados","tags":"contact:website:https://loja17.bistek.com.br/,indoor:room,level:0,opening_hours:Mo-Fr 08:00-22:30; Su 08:30-21:30,room:shop,shop:supermarket","lat":-26.8869048,"lng":-49.068107},{"id":"4922650046","name":"Val Nunes Alameda Beauty","tags":"contact:phone:+55 47 3222-1435,indoor:room,level:1,opening_hours:Mo-Sa 10:00-22:00; Su,PH 14:00-20:00,room:shop,shop:beauty","lat":-26.8860981,"lng":-49.0690412},{"id":"4922650048","name":"eat café","tags":"amenity:cafe,contact:phone:+55 47 3209-1705,indoor:room,level:0,room:restaurant","lat":-26.8865598,"lng":-49.0685745},{"id":"8688294160","name":"Last Fit Personal Center","tags":"contact:phone:+55 47 99942-1325,description:Aberto ao publico, atendimento individualizado. Exercícios físicos, saúde e bem estar.,leisure:fitness_centre,opening_hours:Mo-Fr 06:00-22:00; Sa,Su off,opening_hours:covid19:open,sport:fitness;exercise;multi,start_date:2019-10-30","lat":-26.8888314,"lng":-49.067881}]