[{"id":"3451388783","name":"Delegacia de Polícia Federal Itajaí","tags":"addr:housenumber:348,addr:street:Rua Quinze de Novembro,amenity:police,contact:phone:+55 47 3249-6700,contact:website:http://www.dpf.gov.br/","lat":-26.9083575,"lng":-48.6561284},{"id":"6699396159","name":"Democrático Bar e Café","tags":"amenity:cafe","lat":-26.9062699,"lng":-48.6543629},{"id":"6699475854","name":"Café Bonjour","tags":"amenity:cafe","lat":-26.9102222,"lng":-48.6540309},{"id":"9579617220","name":"Polícia Federal do Brasil","tags":"addr:city:Itajaí,addr:housenumber:73,addr:postcode:88301-400,addr:street:Rua Lauro Müller,addr:suburb:Centro,amenity:police,email:gab.iji.sc@pf.gov.br,operator:Polícia Federal do Brasil,operator:en:Federal Police of Brazil,operator:wikidata:Q2289697,operator:wikipedia:pt:Polícia Federal do Brasil,phone:+55 47 3249 6700","lat":-26.9058034,"lng":-48.6553881},{"id":"9711348369","name":"Zephyr","tags":"amenity:restaurant,cuisine:sushi;seafood","lat":-26.910895,"lng":-48.6514775},{"id":"10197788513","name":"Buraco Quente","tags":"addr:city:Itajaí,addr:housenumber:40,addr:postcode:88301-090,addr:street:Rua Félix Busso Asseburg,addr:suburb:Centro,amenity:bar,brewery:yes,min_age:16,website:https://www.instagram.com/lanchonete_buraco_quente/","lat":-26.9065702,"lng":-48.6546555},{"id":"10197808264","name":"Senses Bar","tags":"addr:city:Itajaí,addr:housenumber:40,addr:postcode:88301-090,addr:street:Rua Félix Busso Asseburg,addr:suburb:Centro,amenity:bar,brewery:yes,min_age:16,website:https://www.instagram.com/sensesitajai/","lat":-26.9066196,"lng":-48.6546472}]