[{"id":"5921511483","name":"Banco Itaú","tags":"addr:street:Avenida Leopoldo Zarling,alt_name:Banco Itau,amenity:bank","lat":-27.1427678,"lng":-48.5062115},{"id":"10307731686","name":"La Grispela","tags":"amenity:restaurant,check_date:2023-01-04,cuisine:pizza,internet_access:wlan,internet_access:fee:customers,level:0,name:pt:La Grispela Pizzaria,payment:mastercard:yes,payment:visa:yes","lat":-27.1436375,"lng":-48.5052823},{"id":"10307785071","name":"FarMagnus","tags":"amenity:pharmacy,check_date:2023-01-04,healthcare:pharmacy,level:0,name:pt:Farmácia FarMagnus","lat":-27.1444386,"lng":-48.5047251},{"id":"10307805624","name":"Mama Mia","tags":"amenity:restaurant,check_date:2023-01-05,cuisine:pizza;empanadas,internet_access:wlan,internet_access:fee:customers,level:0,payment:mastercard:yes,payment:visa:yes,strapline:Pizzaria e empanadas argentinas,wheelchair:yes","lat":-27.1424771,"lng":-48.5071952},{"id":"10307838716","name":"O Barão","tags":"amenity:restaurant,check_date:2023-01-05,cuisine:steak_house;burger,internet_access:wlan,internet_access:fee:customers,level:0,payment:mastercard:yes,payment:visa:yes,strapline:Bar e Restaurante,wheelchair:limited","lat":-27.1443823,"lng":-48.5048249},{"id":"10307897960","name":"Koncha Marinha Petiscaria","tags":"amenity:restaurant,check_date:2023-01-05,internet_access:wlan,internet_access:fee:customers,level:0,payment:mastercard:yes,payment:visa:yes","lat":-27.142434,"lng":-48.5060442}]