[{"id":"2128175039","name":"Pague Menos","tags":"shop:supermarket","lat":-25.8726648,"lng":-50.3833099},{"id":"2128175046","name":"Super 70","tags":"shop:supermarket","lat":-25.8704915,"lng":-50.385193},{"id":"2128175052","name":"Todo Dia","tags":"shop:supermarket","lat":-25.8677297,"lng":-50.3855711},{"id":"2128175065","name":"Baratão","tags":"shop:supermarket","lat":-25.8684974,"lng":-50.3855756},{"id":"2128188284","tags":"amenity:bank,operator:Itaú","lat":-25.8712104,"lng":-50.3843362},{"id":"2128188287","tags":"amenity:bank,operator:Caixa Econômica Federal","lat":-25.8723546,"lng":-50.3846751},{"id":"2128188290","tags":"amenity:bank,operator:Banco do Brasil","lat":-25.8727319,"lng":-50.3851749},{"id":"2144825926","name":"Polícia Militar","tags":"amenity:police","lat":-25.8696666,"lng":-50.3878624},{"id":"2670811537","name":"Rodocentro","tags":"addr:city:São Mateus do Sul,addr:country:BR,addr:state:PARANÁ,addr:street:Rua Ulisses Faria,amenity:pharmacy","lat":-25.86825,"lng":-50.389287},{"id":"2670819848","tags":"addr:city:São Mateus do Sul,addr:country:BR,addr:state:PARANÁ,amenity:school","lat":-25.870439,"lng":-50.388633},{"id":"5682186502","name":"Colegio Estadual Duque de Caxias","tags":"amenity:school","lat":-25.8708505,"lng":-50.3863637}]