[{"id":"613552551","name":"MercaBom","tags":"shop:supermarket","lat":-25.4937687,"lng":-49.3107274},{"id":"613552555","name":"Farma Total","tags":"amenity:pharmacy","lat":-25.4933813,"lng":-49.3109849},{"id":"4345719699","name":"Escola Municipal - CEI Profª Nair de Macedo","tags":"amenity:school,operator:Prefeitura de Curitiba - SME","lat":-25.4904554,"lng":-49.3100206},{"id":"4924413705","name":"Elite Rede de Ensino - Curitiba","tags":"addr:city:Curitiba,addr:housenumber:414,addr:street:Rua Professora Dona Lulú,addr:suburb:Novo Mundo,amenity:school,website:https://ensinoelite.com.br","lat":-25.4908027,"lng":-49.3113425},{"id":"4924420866","name":"Mundo Fitness","tags":"addr:city:Curitiba,addr:housenumber:750,addr:street:Rua Doutor Luiz Losso Filho,addr:suburb:Novo Mundo,leisure:fitness_centre,opening_hours:Mo-Fr 06:00-22:00, Fr 10:00-14:00, Su Closed","lat":-25.4902736,"lng":-49.3112711},{"id":"5693827133","name":"Farol do Saber Clarice Lispector","tags":"amenity:library,operator:PMC - SME","lat":-25.4901408,"lng":-49.3094562}]