[{"id":"1507707130","name":"Casa Andrade Muricy","tags":"historic:yes,tourism:museum","lat":-25.4296851,"lng":-49.2738763},{"id":"1748452836","name":"Spaghetto Ristorante","tags":"addr:housenumber:1302,addr:street:Rua Visconde do Rio Branco,amenity:restaurant,cuisine:italian","lat":-25.4331672,"lng":-49.279798},{"id":"1748452837","name":"Le Duc","tags":"addr:housenumber:608,addr:street:Alameda Doutor Carlos de Carvalho,amenity:cafe,website:http://www.kauf.com.br/","lat":-25.4333063,"lng":-49.2808506},{"id":"1748452838","name":"Hacienda Café","tags":"addr:housenumber:1283,addr:street:Alameda Prudente de Moraes,amenity:cafe,website:http://hacienda-cafe.blogspot.com.br/","lat":-25.4330937,"lng":-49.2809596},{"id":"1751772577","name":"The Kettle","tags":"addr:housenumber:836,addr:street:Rua Prudente de Moraes,amenity:cafe,internet_access:wlan,website:http://www.thekettle.com.br/","lat":-25.4290183,"lng":-49.2832119},{"id":"2470550595","name":"Bouquet Garni","tags":"addr:housenumber:271,addr:street:Alameda Doutor Carlos de Carvalho,amenity:restaurant,diet:vegan:yes,diet:vegetarian:only,phone:+55 41 32238490,website:http://www.restaurantebouquetgarni.com/","lat":-25.432343,"lng":-49.2778219},{"id":"2587421134","name":"Gold Skull Bar","tags":"addr:city:Curitiba,addr:country:BR,addr:housenumber:392,addr:postcode:80410-140,addr:street:Alameda Augusto Stellfeld,amenity:bar,cuisine:burger;sandwich,phone:+55 41 9 9615 9029,smoking:no,website:https://www.facebook.com/BarGoldieSkull/info","lat":-25.4295272,"lng":-49.2779712},{"id":"2952416213","name":"Bio Life","tags":"amenity:pharmacy,dispensing:no,healthcare:pharmacy","lat":-25.4321489,"lng":-49.2774154},{"id":"3598373740","name":"Itaú","tags":"amenity:bank,brand:Itaú Unibanco,brand:wikidata:Q1424293,brand:wikipedia:pt:Itaú Unibanco","lat":-25.4321638,"lng":-49.2743219},{"id":"3598373741","name":"Qualitá XV","tags":"amenity:restaurant,cuisine:regional","lat":-25.4325138,"lng":-49.2743914},{"id":"3598390541","name":"Livrarias Curitiba","tags":"shop:books","lat":-25.4321388,"lng":-49.27442},{"id":"3598419735","name":"Yü","tags":"amenity:restaurant,cuisine:japanese","lat":-25.4323299,"lng":-49.2759132},{"id":"3598419738","name":"Alameda Grill","tags":"addr:city:Curitiba,addr:housenumber:437,addr:street:Praça Osório,addr:suburb:Centro,alt_name:Restaurante Alameda Osório,amenity:restaurant,capacity:150,cuisine:regional,email:alamedaosorio@hotmail.com,opening_hours:11:30-14:30,phone:+55 41 3023-1851,website:https://curitibaaldente.com.br/restaurantes/alameda-osorio/","lat":-25.4325398,"lng":-49.2761973},{"id":"3598576924","name":"Confeitaria Swisse","tags":"addr:city:Curitiba,addr:housenumber:471,addr:street:Rua Voluntários da Pátria,addr:suburb:Centro,amenity:cafe,opening_hours:Mo-Fr 8:00-19:30","lat":-25.4318934,"lng":-49.275939},{"id":"3598597329","name":"Gato Preto","tags":"amenity:nightclub","lat":-25.4302485,"lng":-49.2756608},{"id":"3603219787","tags":"amenity:parking,capacity:10","lat":-25.4332231,"lng":-49.2771386},{"id":"3603255216","name":"Minipreço","tags":"amenity:pharmacy","lat":-25.4333098,"lng":-49.2773679},{"id":"3615314135","name":"Escola Madre Anatólia","tags":"addr:housenumber:575,addr:street:Rua Martim Afonso,amenity:school","lat":-25.4278663,"lng":-49.2828721},{"id":"3623964245","name":"El Mago Bar","tags":"amenity:nightclub","lat":-25.428318,"lng":-49.2744988},{"id":"3623964246","name":"Baviera","tags":"addr:city:Curitiba,addr:housenumber:18,addr:street:Alameda Augusto Stellfeld,amenity:restaurant,cuisine:pizza;pasta,delivery:yes,takeaway:yes,website:https://www.cantinabaviera.com.br/","lat":-25.4284175,"lng":-49.2745114},{"id":"3631918453","name":"Az-zait Gastronomia","tags":"addr:city:Curitiba,addr:housenumber:1168,addr:street:Rua Prudente de Moraes,amenity:restaurant","lat":-25.4320679,"lng":-49.2817785},{"id":"3639115208","name":"Maru","tags":"addr:city:Curitiba,addr:housenumber:74,addr:street:Alameda Doutor Carlos de Carvalho,addr:suburb:Centro,amenity:restaurant,cuisine:japanese,phone:+55 41 3082 9966,website:https://restaurantemaru.com.br/","lat":-25.4313967,"lng":-49.2760794},{"id":"3846603041","name":"Igreja Adventista de Sétimo Dia Central","tags":"addr:city:Curitiba,addr:housenumber:400,addr:postcode:80410-180,addr:street:Alameda Doutor Carlos de Carvalho,addr:suburb:Centro,building:church,denomination:seventh_day_adventist,phone:+5541 3085-7737","lat":-25.4323446,"lng":-49.2786949},{"id":"4339905838","name":"Uninter","tags":"amenity:university","lat":-25.4327787,"lng":-49.2746898},{"id":"4591364795","name":"Pastelaria Bom Dia","tags":"amenity:restaurant,name:pt:Pastelaria Bom Dia","lat":-25.4308929,"lng":-49.2740954},{"id":"5063141306","name":"Restaurante Acrótona","tags":"addr:city:Curitiba,addr:housenumber:408,addr:street:Rua Cruz Machado,addr:suburb:Centro,alt_name:Acrótona Sopas & Pizzas,amenity:restaurant,opening_hours:Mo-Sa 18:00-24:00,phone:+55 41 3233-4690,website:http://www.acrotona.com.br/","lat":-25.4308079,"lng":-49.2766797},{"id":"5071229235","name":"Bradesco - Palácio Avenida","tags":"amenity:bank,atm:yes,brand:Bradesco,brand:wikidata:Q806181,brand:wikipedia:en:Banco Bradesco,drive_through:no,operator:Bradesco","lat":-25.4322356,"lng":-49.273772},{"id":"5771998929","name":"Veg Veg","tags":"addr:city:Curitiba,addr:housenumber:655,addr:street:Rua Visconde de Nacar,addr:suburb:Mercês,amenity:restaurant,contact:facebook:https://www.facebook.com/vegvegemporiovegetariano,contact:instagram:vegvegacasa,contact:twitter:vegveg_curitiba,cuisine:burger;sandwich;regional,diet:vegan:only,outdoor_seating:yes,phone:+55 41 3085 5405,website:http://www.vegveg.com.br/","lat":-25.4284588,"lng":-49.2797412},{"id":"5896110064","name":"Restaurante Clorofila","tags":"addr:city:Curitiba,addr:housenumber:1110,addr:postcode:80430-160,addr:street:Rua Saldanha Marinho,addr:suburb:Centro,amenity:restaurant,contact:facebook:https://www.facebook.com/clorofila.cwb/,contact:instagram:https://www.instagram.com/clorofilacuritiba/,cuisine:regional,diet:vegan:only,opening_hours:Mo-Sa 11:30-14:30,organic:only,outdoor_seating:yes,shop:bakery,takeaway:yes","lat":-25.4324605,"lng":-49.2822919},{"id":"5896110066","name":"Arroz Integral - Loja de Produtos Naturais","tags":"addr:city:Curitiba,addr:housenumber:1110,addr:postcode:80430-160,addr:street:Rua Saldanha Marinho,addr:suburb:Centro,opening_hours:Mo-Fr 09:00-18:30; Sa 09:00-14:30,payment:cash:yes,payment:credit_cards:yes,payment:debit_cards:yes,shop:convenience","lat":-25.4324715,"lng":-49.2823549},{"id":"6181967187","name":"Lola Li Café e Doceria","tags":"addr:housenumber:1225,addr:street:Alameda Prudente de Moraes,amenity:cafe,diet:gluten_free:only,diet:lactose_free:only,gluten_free:only","lat":-25.4325637,"lng":-49.2812181},{"id":"6181968623","name":"Colégio Rui Barbosa","tags":"addr:housenumber:79,addr:street:Avenida Luiz Xavier,amenity:school,contact:phone:+55 41 3222-8573","lat":-25.4324813,"lng":-49.2744252},{"id":"6181968625","tags":"addr:housenumber:46,addr:street:Rua Desembargador Ermelino de Leão,amenity:restaurant","lat":-25.4319147,"lng":-49.2748086},{"id":"6927887816","name":"Estação-tubo Brigadeiro Franco","tags":"public_transport:station","lat":-25.4294635,"lng":-49.2845373},{"id":"8435709914","name":"Rota 78 Refeições","tags":"addr:city:Curitiba,addr:housenumber:353,addr:postcode:80410-210,addr:street:Alameda Cabral,addr:suburb:Centro,amenity:restaurant,cuisine:brazilian,diet:gluten_free:yes,diet:lactose_free:yes,diet:vegan:yes,diet:vegetarian:yes,opening_hours:Mo-Fr 10:30-14:30,opening_hours:covid19:same,phone:+55 41 99580-8199,takeaway:only,website:https://www.rota78refeicoes.com.br/","lat":-25.4299044,"lng":-49.2780216},{"id":"9269924802","name":"Floravet","tags":"addr:city:Curitiba,addr:housenumber:45,addr:street:Alameda Cabral,addr:suburb:Centro,amenity:pharmacy,dispensing:yes,healthcare:pharmacy","lat":-25.432418,"lng":-49.276765},{"id":"9316525617","name":"Spich","tags":"addr:street:Avenida Vicente Machado,amenity:restaurant,cuisine:brazilian","lat":-25.4332993,"lng":-49.2771945}]