[{"id":"3651039854","name":"Academia ATP Energy","tags":"leisure:sports_centre","lat":-25.4236459,"lng":-49.2582055},{"id":"3846576852","name":"Nishifarma","tags":"addr:city:Curitiba,addr:housenumber:267,addr:postcode:80060-230,addr:street:Rua Conselheiro Araújo,addr:suburb:Alto da Glória,amenity:pharmacy,healthcare:pharmacy,opening_hours:Mo-Sa 08:00-18:00,operator:Nishifarma","lat":-25.4254747,"lng":-49.2619438},{"id":"4781513657","name":"Biblioteca Central - UFPR","tags":"addr:city:Curitiba,addr:housenumber:370,addr:street:Rua General Carneiro,addr:suburb:Centro,amenity:library,internet_access:wlan,operator:UFPR","lat":-25.4259861,"lng":-49.2619736},{"id":"4781513675","tags":"amenity:cafe","lat":-25.4265836,"lng":-49.2616732},{"id":"4781513696","name":"Siciliana","tags":"amenity:cafe,cuisine:regional","lat":-25.4273976,"lng":-49.2623339},{"id":"4781516124","name":"Bistrô Passeio","tags":"amenity:restaurant,cuisine:regional","lat":-25.4275478,"lng":-49.2619667},{"id":"4781516125","name":"Du Chef","tags":"amenity:restaurant,cuisine:regional","lat":-25.4275208,"lng":-49.2618963},{"id":"4781516140","tags":"amenity:cafe","lat":-25.4273317,"lng":-49.260975},{"id":"4783768085","name":"Caixa Econômica Federal","tags":"amenity:bank,atm:yes,brand:Caixa Econômica Federal,brand:wikidata:Q835283,brand:wikipedia:pt:Caixa Econômica Federal","lat":-25.4272752,"lng":-49.2610027},{"id":"4931567751","name":"Restaurante Universitário Central - UFPR","tags":"amenity:restaurant,cuisine:regional,name:de:Mensa UFPR,name:pt:RU Central - UFPR","lat":-25.4262136,"lng":-49.2619248},{"id":"6175225856","name":"Masc Beer","tags":"addr:housenumber:835, loja 3,addr:street:Rua 7 de Abril,amenity:bar,brewery:yes","lat":-25.424162,"lng":-49.2559535},{"id":"6175226151","name":"Filé de Igreja","tags":"addr:housenumber:396,addr:street:Rua Professor Brandão,amenity:restaurant,cuisine:steak_house","lat":-25.4242239,"lng":-49.2518022},{"id":"6175226265","name":"Nissei","tags":"addr:housenumber:2182,addr:street:Rua XV de Novembro,amenity:pharmacy,dispensing:yes,healthcare:pharmacy","lat":-25.4269036,"lng":-49.2532573},{"id":"6175229017","name":"Dona Helena","tags":"addr:housenumber:1951,addr:street:Rua XV de Novembro,amenity:restaurant","lat":-25.4264946,"lng":-49.2554969},{"id":"9254681283","name":"Solsken","tags":"addr:housenumber:29,addr:street:Rua Mauá,amenity:restaurant,cuisine:sandwich;italian;,diet:gluten_free:only,gluten_free:only","lat":-25.4226205,"lng":-49.2564637}]