[{"id":"985694305","name":"Colégio Padre João Bagozzi","tags":"amenity:school","lat":-25.4754412,"lng":-49.294704},{"id":"3276809521","name":"Itaú","tags":"amenity:bank,atm:yes","lat":-25.4718967,"lng":-49.294206},{"id":"3276809522","name":"Farmácia Popular dos Genéricos","tags":"amenity:pharmacy","lat":-25.4720636,"lng":-49.2942141},{"id":"3625198849","name":"Museu Metropolitano de Arte","tags":"short_name:MuMA,tourism:museum,wikidata:Q10333542,wikipedia:pt:Museu Metropolitano de Arte de Curitiba","lat":-25.4763233,"lng":-49.2931739},{"id":"6359196582","name":"Morifarma","tags":"addr:housenumber:307,addr:street:Rua Caetano Marchesini,amenity:pharmacy,dispensing:yes,healthcare:pharmacy","lat":-25.4769739,"lng":-49.2955094},{"id":"3276809520","name":"Nissei","tags":"amenity:pharmacy,dispensing:yes,healthcare:pharmacy","lat":-25.4719629,"lng":-49.2946182}]