[{"id":"1984225902","name":"Banco do Brasil","tags":"amenity:bank,brand:Banco do Brasil,brand:wikidata:Q610817,brand:wikipedia:en:Banco do Brasil","lat":-25.453379,"lng":-49.2801645},{"id":"3612700758","name":"Itaú","tags":"addr:housenumber:714,addr:street:Avenida Água Verde,amenity:bank,brand:Itaú Unibanco,brand:wikidata:Q1424293,brand:wikipedia:pt:Itaú Unibanco","lat":-25.452783,"lng":-49.2782169},{"id":"3639125930","name":"Am Pm","tags":"shop:convenience","lat":-25.4532032,"lng":-49.2782869},{"id":"3940793117","name":"Costelão Água Verde","tags":"amenity:restaurant,opening_hours:24/7,takeaway:yes","lat":-25.4537263,"lng":-49.2780173},{"id":"3940795016","tags":"amenity:parking","lat":-25.4539515,"lng":-49.2779373}]