[{"id":"3644411679","name":"Caixa Econômica Federal - Ag Capão da Imbuia","tags":"addr:city:Curitiba,addr:housenumber:1588,addr:street:Rua Delegado Leopoldo Belczak,amenity:bank","lat":-25.4378407,"lng":-49.2212041},{"id":"5694075909","name":"Escola Municipal Eneas Marques dos Santos - EF","tags":"amenity:school,operator:PMC - SME","lat":-25.4342006,"lng":-49.2190152},{"id":"6182970164","name":"Armazém São Gonçalo","tags":"addr:housenumber:296,addr:street:Rua Nicolau Gulbino,amenity:restaurant,cuisine:pizza","lat":-25.4351742,"lng":-49.2243061},{"id":"6182970167","name":"Armazém São Gonçalo","tags":"addr:housenumber:53,addr:street:Rua Professor Benedito Conceição,amenity:restaurant","lat":-25.4355683,"lng":-49.2239184},{"id":"6514069360","name":"Espetinho Júnior","tags":"amenity:restaurant,cuisine:steak_house","lat":-25.4384077,"lng":-49.2198722}]