[{"id":"1148140497","name":"Nissei","tags":"amenity:pharmacy,healthcare:pharmacy","lat":-25.4428687,"lng":-49.2718816},{"id":"1148140502","name":"Bortolletto Ltda","tags":"amenity:pharmacy","lat":-25.4437115,"lng":-49.2710019},{"id":"3471669060","name":"Restaurante Fonk","tags":"addr:city:Curitiba,addr:housename:Restaurante Fonk,addr:housenumber:665,addr:postcode:80230-100,addr:street:Avenida Iguaçu,addr:suburb:Rebouças,amenity:restaurant,cuisine:japanese","lat":-25.4419784,"lng":-49.2681938},{"id":"3754901027","name":"Dermo Ervas","tags":"amenity:pharmacy","lat":-25.4402424,"lng":-49.2728715},{"id":"6013117792","tags":"amenity:parking","lat":-25.4394267,"lng":-49.2646311},{"id":"6518230378","name":"Brasileirinho","tags":"amenity:restaurant,cuisine:regional","lat":-25.4442342,"lng":-49.2673884},{"id":"6642054085","name":"Bradesco","tags":"amenity:bank,brand:Bradesco,brand:wikidata:Q806181,brand:wikipedia:en:Banco Bradesco","lat":-25.4403712,"lng":-49.2698911},{"id":"6644432395","name":"Manifesto","tags":"amenity:cafe,opening_hours:Mo-Fr 10:00-18:00","lat":-25.4404066,"lng":-49.2688923},{"id":"6698434985","name":"Down Town Pub &Garden","tags":"amenity:bar","lat":-25.4424806,"lng":-49.2704493},{"id":"6948504198","name":"Happiness Studio Fitness","tags":"addr:housenumber:979,addr:street:Avenida Silva Jardim,addr:suburb:centro,leisure:fitness_centre,sport:multi","lat":-25.4409736,"lng":-49.2702719},{"id":"7576562542","name":"Biblioteca Central de Curitiba UTFPR","tags":"amenity:library,level:2","lat":-25.4394798,"lng":-49.2691346},{"id":"9695840517","name":"Restaurante West","tags":"amenity:restaurant,cuisine:brazilian;chinese","lat":-25.4409993,"lng":-49.2724315}]