[{"id":"266901930","name":"Terminal Campo Comprido","tags":"amenity:bus_station,wheelchair:limited","lat":-25.4415818,"lng":-49.3466482},{"id":"3615442809","name":"Caixa Econômica Federal - Ag Ecoville","tags":"addr:city:Curitiba,addr:housenumber:1292,addr:street:Rua Professor João Falarz,amenity:bank,atm:yes","lat":-25.4401527,"lng":-49.3462383},{"id":"4051775247","name":"Farmácia Pague Menos","tags":"amenity:pharmacy","lat":-25.4428365,"lng":-49.3439763},{"id":"4065015511","name":"CEEBJA Campo Comprido","tags":"amenity:school","lat":-25.4438926,"lng":-49.3434393},{"id":"6358127350","name":"Nissei","tags":"addr:housenumber:1160,addr:street:Rua Professor João Falarz,amenity:pharmacy,dispensing:yes,drive_through:no,healthcare:pharmacy","lat":-25.4390763,"lng":-49.3470027},{"id":"6359336310","name":"Kostelão Ecoville","tags":"addr:housenumber:3876,addr:street:Rua Eduardo Sprada,amenity:restaurant,cuisine:steak_house","lat":-25.4439383,"lng":-49.3431538},{"id":"6837697994","name":"Porão Curitiba","tags":"addr:housenumber:3876,addr:street:Rua Eduardo Sprada,amenity:restaurant","lat":-25.4438581,"lng":-49.3431565},{"id":"6927887812","name":"Estação-tubo Unidade de Saúde Campo Comprido (Templo de Curitiba)","tags":"public_transport:station","lat":-25.44097,"lng":-49.3425261},{"id":"6927887813","name":"Estação-tubo Unidade de Saúde Campo Comprido (Templo de Curitiba)","tags":"public_transport:station","lat":-25.4410515,"lng":-49.3424995}]