[{"id":"1737826315","name":"Pasta Pizza","tags":"addr:city:Curitiba,addr:housenumber:339,addr:street:Avenida Três Marias,amenity:restaurant,cuisine:pizza,website:https://pastapizza.com.br/","lat":-25.42344,"lng":-49.3546792},{"id":"3605761656","name":"Farmácia Nissei","tags":"addr:city:Curitiba,addr:street:Avenida Vereador Toaldo Túlio,amenity:pharmacy","lat":-25.4237841,"lng":-49.3510617},{"id":"3605761657","name":"Farmácia Morifarma","tags":"addr:city:Curitiba,addr:housenumber:3910,addr:street:Avenida Vereador Toaldo Túlio,amenity:pharmacy","lat":-25.4233909,"lng":-49.3510182},{"id":"3639728286","name":"Casa do Jão","tags":"addr:city:Curitiba,addr:housenumber:287,addr:street:Avenida Três Marias,amenity:restaurant,cuisine:regional","lat":-25.4233955,"lng":-49.3541601},{"id":"3792105127","name":"Mapp Pizza","tags":"addr:city:Curitiba,addr:street:Avenida Vereador Toaldo Túlio,amenity:restaurant,cuisine:pizza","lat":-25.4262106,"lng":-49.3528682},{"id":"4053759546","name":"Bradesco","tags":"amenity:bank","lat":-25.4273375,"lng":-49.3536448},{"id":"4053771592","name":"Itaú","tags":"amenity:bank","lat":-25.4244704,"lng":-49.3527341},{"id":"4065015510","name":"Mercearia MW","tags":"shop:convenience","lat":-25.4233959,"lng":-49.3582577},{"id":"4071454424","name":"Escola Fazendo Arte","tags":"addr:street:Avenida 3 Marias,amenity:school","lat":-25.4231757,"lng":-49.3546714},{"id":"4116334080","name":"Escola Municipal CMEI Vila Real","tags":"amenity:school","lat":-25.4257616,"lng":-49.3569826},{"id":"6530442162","name":"Casa Do Produtor","tags":"addr:city:Curitiba,addr:housenumber:4110,addr:postcode:82310-385,addr:street:Avenida Vereador Toaldo Túlio,addr:suburb:São Braz,opening_hours:Mo-Sa 08:00-20:00; Su 08:00-18:00; PH 08:00-18:00,payment:cash:yes,payment:credit_cards:yes,shop:pet","lat":-25.4242976,"lng":-49.352389}]