[{"id":"3346492809","name":"Escola Marieta Satler Rubini","tags":"addr:city:Jaraguá do Sul,addr:street:Rua Pastor Albert Schneider,amenity:school,operator:municipal","lat":-26.5150868,"lng":-49.1282906},{"id":"4701417991","name":"Masterfarma","tags":"amenity:pharmacy,healthcare:pharmacy,name:pt:Masterfarma","lat":-26.5112201,"lng":-49.1305889},{"id":"4701419796","name":"Farmagnus","tags":"amenity:pharmacy,healthcare:pharmacy,name:pt:Farmagnus","lat":-26.5143836,"lng":-49.1279247},{"id":"4701446293","name":"Drogaria da Barra","tags":"amenity:pharmacy,healthcare:pharmacy,name:pt:Drogaria da Barra","lat":-26.5130827,"lng":-49.1213803},{"id":"4974282321","name":"Infoway Escola de Informática","tags":"addr:housenumber:1213,addr:postcode:89260-000,addr:street:Rua Angelo Rubini,amenity:school,name:en:Infoway Computer Training,phone:+55 47 3054-1011","lat":-26.5130992,"lng":-49.1214138},{"id":"6586788830","name":"Academia Fitway - Unidade Barra","tags":"addr:city:Jaraguá do Sul,addr:floor:3,addr:housenumber:1400,addr:street:Rua Feliciano Bortolini,addr:suburb:Barra do Rio Cerro,leisure:fitness_centre","lat":-26.5143623,"lng":-49.1215621},{"id":"6631599139","name":"Preço Popular","tags":"addr:city:Jaraguá do Sul,addr:housenumber:1110,addr:street:Rua Angelo Rubini,addr:suburb:Barra do Rio Cerro,amenity:pharmacy,dispensing:yes,healthcare:pharmacy","lat":-26.5125683,"lng":-49.1205893},{"id":"7159481968","name":"Restaurante Segredo Caseiro","tags":"amenity:restaurant","lat":-26.5149856,"lng":-49.1236107}]