[{"id":"4504070367","name":"Late e Mia Pet Shop","tags":"phone:+55 47 3273-7425,shop:pet","lat":-26.4781499,"lng":-49.1031705},{"id":"5574146495","tags":"shop:beauty","lat":-26.4815958,"lng":-49.1035447},{"id":"5622503587","name":"Restaurante Dolci Tempero","tags":"amenity:restaurant,phone:+55 47 98825-3786","lat":-26.4780346,"lng":-49.1033391},{"id":"6611247382","name":"Sicoob","tags":"addr:city:Jaraguá do Sul,addr:street:Rua Joaquim Francisco de Paula,addr:suburb:Chico de Paulo,amenity:bank,brand:Sicoob,brand:wikidata:Q28679754,brand:wikipedia:pt:Sistema de Cooperativas de Crédito do Brasil,operator:CejasCred","lat":-26.477813,"lng":-49.1020632},{"id":"9240769461","name":"Farmácia Magna","tags":"addr:housenumber:655,addr:street:Rua Presidente Epitácio Pessoa,amenity:pharmacy,healthcare:pharmacy","lat":-26.4779633,"lng":-49.1034681},{"id":"9240769511","name":"As Patroas Conveniência e Tabacaria","tags":"phone:+55 47 99271-9568,shop:convenience","lat":-26.4791536,"lng":-49.1047165},{"id":"9241025402","name":"Academia Fitway","tags":"addr:city:Jaraguá do Sul,addr:housenumber:547,addr:street:Rua Joaquim Francisco de Paula,addr:suburb:Chico de Paulo,leisure:fitness_centre,phone:+55 47 3058-3052","lat":-26.4787138,"lng":-49.1033657},{"id":"9353197494","name":"Farmalenzi","tags":"amenity:pharmacy,dispensing:yes,healthcare:pharmacy","lat":-26.4822845,"lng":-49.1016558},{"id":"9353197497","name":"Yaki Restaurante Oriental","tags":"amenity:restaurant,cuisine:japanese","lat":-26.4823212,"lng":-49.102065}]