[{"id":"2852136783","name":"AZ Café Bar","tags":"amenity:cafe","lat":-26.4893329,"lng":-49.0809738},{"id":"3453190219","name":"Farmácia Preço Popular","tags":"addr:city:Jaraguá do Sul,addr:housenumber:855,addr:street:Avenida Marechal Deodoro da Fonseca,addr:suburb:Centro,amenity:pharmacy,healthcare:pharmacy,phone:+55 47 3371 1602,website:https://www.precopopular.com.br/","lat":-26.489068,"lng":-49.0827505},{"id":"3453219016","name":"Ferrazza Café e Bar","tags":"addr:city:Jaraguá do Sul,addr:housenumber:860,addr:street:Avenida Marechal Deodoro da Fonseca,addr:suburb:Centro,amenity:bar,phone:+55 47 3371 6836,website:https://pt-br.facebook.com/pages/FERRAZZA-CAFE-E-BAR/207596802643967","lat":-26.4890784,"lng":-49.0830237},{"id":"3747684019","name":"Corpo e Mente","tags":"addr:city:Jaraguá do Sul,addr:housenumber:880,addr:street:Avenida Marechal Deodoro da Fonseca,addr:suburb:Centro,leisure:sports_centre","lat":-26.4892112,"lng":-49.0830291},{"id":"4239875340","name":"Extra G Pizzaria","tags":"addr:city:Jaraguá do Sul,addr:housenumber:260,addr:postcode:89251-400,addr:street:Rua Barão do Rio Branco,addr:suburb:Centro,amenity:restaurant,cuisine:pizza,delivery:yes,phone:+55 47 3275-2600","lat":-26.4934749,"lng":-49.079347},{"id":"5188771855","name":"Sandrananda Casa de Yoga","tags":"addr:city:Jaraguá do Sul,addr:housenumber:184,addr:street:Rua Prefeito Leopoldo Augusto Gerent,addr:suburb:Centro,email:sandrananda108@hotmail.com,leisure:fitness_centre,phone:+55 47 9153-0001,source:date:2017-10-24,sport:yoga","lat":-26.488923,"lng":-49.0771196},{"id":"6331522860","name":"Biodora","tags":"amenity:pharmacy,dispensing:yes,healthcare:pharmacy","lat":-26.4906715,"lng":-49.0830429},{"id":"6331636367","name":"Crossfit Granada","tags":"leisure:fitness_centre","lat":-26.4920564,"lng":-49.0798948},{"id":"6525451875","name":"Hiroshi Sushi","tags":"addr:city:Jaraguá do Sul,addr:housenumber:650,addr:street:Rua Marina Frutuoso,amenity:restaurant","lat":-26.4934712,"lng":-49.07762},{"id":"6538035724","name":"Banco24Horas","tags":"amenity:atm,brand:Banco24Horas,brand:wikidata:Q4854069","lat":-26.4924747,"lng":-49.0761543},{"id":"6538035727","name":"Farmácia Paraná","tags":"amenity:pharmacy,dispensing:yes,healthcare:pharmacy,phone:+55 47 3275-1689","lat":-26.4919267,"lng":-49.0834451},{"id":"6568447127","name":"Drogaria Catarinense","tags":"addr:city:Jaraguá do Sul,addr:housenumber:777,addr:street:Avenida Marechal Deodoro da Fonseca,amenity:pharmacy,dispensing:yes,healthcare:pharmacy,opening_hours:24/7,phone:+55 47 3084-5653","lat":-26.4882211,"lng":-49.0825555},{"id":"8416111199","name":"Restaurante e Confeitaria Rio Branco","tags":"addr:city:Jaraguá do Sul,addr:housenumber:1085,addr:street:Avenida Marechal Deodoro da Fonseca,addr:suburb:Centro,amenity:restaurant","lat":-26.4912066,"lng":-49.0827198},{"id":"8636288187","name":"Biblioteca Pública Municipal Rui Barbosa","tags":"amenity:library","lat":-26.492408,"lng":-49.080012},{"id":"9992967840","name":"Cazza Blu Cozinha","tags":"addr:city:Jaraguá do Sul,addr:housenumber:109,addr:street:Rua João Picolli,addr:suburb:Centro,amenity:restaurant,check_date:2022-09-01,contact:instagram:@cazzablucozinha,phone:+55 47 99207-2218","lat":-26.489081,"lng":-49.0817021}]