[{"id":"3647728767","name":"Curves","tags":"brand:Curves,brand:wikidata:Q5196080,brand:wikipedia:en:Curves International,leisure:fitness_centre","lat":-26.2837452,"lng":-48.8402652},{"id":"4560095760","name":"Farmácia Joinville","tags":"addr:city:Joinville,addr:housenumber:284,addr:street:Rua Iririú,addr:suburb:Saguaçu,amenity:pharmacy,drive_through:no,healthcare:pharmacy,operator:Masterfarma,phone:+55 47 3472 0343","lat":-26.2819386,"lng":-48.8386288},{"id":"4560097970","name":"Supermercado Promocional","tags":"addr:city:Joinville,addr:housenumber:352,addr:street:Rua Iririú,addr:suburb:Saguaçu,phone:+55 47 3472 1850,shop:supermarket","lat":-26.2814919,"lng":-48.838075},{"id":"4560098181","name":"Cercal Pet","tags":"addr:housenumber:591,addr:street:Rua Iririú,addr:suburb:Saguaçu,shop:pet","lat":-26.2795061,"lng":-48.8368959},{"id":"4560098378","name":"Sabor Pastel","tags":"addr:housenumber:2440,addr:street:Rua Dona Francisca,addr:suburb:Saguaçu,amenity:restaurant","lat":-26.2823948,"lng":-48.8418693},{"id":"7141305317","name":"Fernanda Krelling - Espaço da Beleza","tags":"addr:city:Joinville,addr:housenumber:48,addr:street:Rua Iririú,addr:suburb:Saguaçu,phone:+55 47 3207 2500,shop:beauty","lat":-26.2831717,"lng":-48.8404579},{"id":"7158935537","name":"Gisele Tomasi Studio de Alongamento de Cílios","tags":"addr:housenumber:613,addr:street:Rua Iririú,addr:suburb:Saguaçu,beauty:eyelash,shop:beauty","lat":-26.2793907,"lng":-48.836732},{"id":"7159714366","name":"Sushi'n'Roll","tags":"addr:city:Joinville,addr:housenumber:362,addr:postcode:89221-265,addr:street:Rua Professor Ricardo Buss,addr:suburb:Saguaçu,amenity:restaurant,cuisine:sushi,opening_hours:18:00-24:00,phone:+55 47 3472 2122,website:https://sushinroll.com.br/","lat":-26.2831103,"lng":-48.8432122},{"id":"7364590778","name":"Academia Bonja","tags":"addr:city:Joinville,addr:housenumber:168,addr:postcode:89221-665,addr:street:Rua Professora Ada Xavier da Silveira,addr:suburb:Saguaçu,leisure:fitness_centre,opening_hours:Mo-Fr 06:00-22:00,phone:+55 47 3032 8888","lat":-26.279452,"lng":-48.8429296}]