[{"id":"2327651450","name":"Pizzaria da Bisa","tags":"addr:housenumber:55,addr:street:Rua Bandeirantes,amenity:restaurant,cuisine:pizza","lat":-25.8189979,"lng":-48.5328039},{"id":"4379993140","name":"Banco do Brasil","tags":"amenity:bank","lat":-25.8186204,"lng":-48.5330968},{"id":"4379994840","name":"Itaú","tags":"amenity:bank","lat":-25.818198,"lng":-48.5343863},{"id":"4379995311","name":"Bradesco","tags":"amenity:bank","lat":-25.8183371,"lng":-48.5338334},{"id":"4380000989","name":"Supermercado da Praça","tags":"shop:supermarket","lat":-25.8191684,"lng":-48.5338679},{"id":"4551469190","name":"Igreja de São Pedro","tags":"addr:city:Matinhos,addr:street:Avenida Prefeito Roque Vernalha,amenity:place_of_worship,denomination:catholic,historic:building,religion:christian,tourism:attraction,website:http://culturadematinhos.blogspot.com.br/2014/06/antiga-igreja-de-sao-pedro.html","lat":-25.8183619,"lng":-48.532947},{"id":"4636405689","name":"Kremil","tags":"amenity:restaurant,name:pt:Kremil","lat":-25.8184958,"lng":-48.5313384}]