[{"id":"3070527290","name":"Caixa Econômica Federal - Ag Carambeí","tags":"addr:city:Carambeí,addr:housenumber:557,addr:street:Avenida do Ouro,amenity:bank,atm:yes","lat":-24.950086,"lng":-50.1161728},{"id":"3652610661","name":"Ágape Grill Restaurante","tags":"addr:city:Carambeí,addr:housenumber:277,addr:street:Rua Ouro Preto,amenity:restaurant","lat":-24.953578,"lng":-50.1138668},{"id":"3654042029","name":"Correios AC Carambeí","tags":"addr:city:Carambeí,addr:housenumber:199,addr:street:Avenida do Ouro,amenity:post_office","lat":-24.9511109,"lng":-50.1121123},{"id":"3663097425","name":"Farmácia Xavier","tags":"amenity:pharmacy","lat":-24.9510774,"lng":-50.1123159},{"id":"3663097426","name":"Delegacia Polícia Civil Carambeí","tags":"amenity:police","lat":-24.950579,"lng":-50.1140815},{"id":"3663097427","name":"Delegacia Polícia Militar Carambeí","tags":"amenity:police","lat":-24.9503819,"lng":-50.1153627},{"id":"4818252610","name":"Escola José Pedro Novaes Rosas","tags":"addr:street:Rua das Safiras,amenity:school","lat":-24.9526734,"lng":-50.1116384}]