[{"id":"5306604542","name":"Centro Comercial Tucumantel","tags":"addr:city:Itaperuçu,addr:housenumber:, 296-318,addr:postcode:83560-000,addr:street:Avenida São Pedro,addr:suburb:centro,opening_hours:Mo-Su 09:00-22:00,operator:Super mercado Mini Preço,payment:credit_cards:yes,payment:visa_debit:yes,shop:supermarket","lat":-25.2203581,"lng":-49.3466691},{"id":"5306620199","name":"Caixa Econômica Federal","tags":"addr:city:Itaperuçu,addr:housenumber:1126-1188,addr:postcode:83560-000,addr:street:Avenida Crispim furqquim siqueira,addr:suburb:centro,amenity:bank,atm:yes,operator:Caixa","lat":-25.2220498,"lng":-49.3455229},{"id":"5306624039","name":"Mercado Stresser","tags":"addr:city:Itaperuçu,addr:street:Avenida Crispin furquim siqueira,addr:suburb:centro,shop:supermarket","lat":-25.2217889,"lng":-49.3473136},{"id":"5306634960","name":"Modulo Policial","tags":"addr:city:Itaperuçu,addr:street:avenda são pedro,addr:suburb:centro,amenity:police","lat":-25.2209331,"lng":-49.3458692},{"id":"5306687315","name":"Pernambucanas","tags":"addr:city:Itaperuçu,addr:suburb:centro,shop:convenience","lat":-25.2204511,"lng":-49.3454964},{"id":"6068741847","name":"Galeria Tukumantel","tags":"addr:city:Itaperuçu,addr:housenumber:296-318,addr:postcode:83560-000,addr:street:Avenida São Pedro,addr:suburb:Centro,opening_hours:Mo-Su 10:00-22:00,shop:mall","lat":-25.2203163,"lng":-49.3457037}]