[{"id":"3499064176","name":"Polícia Ambiental","tags":"amenity:police","lat":-25.0180885,"lng":-47.9286239},{"id":"3499064199","name":"Santander","tags":"amenity:bank","lat":-25.0160152,"lng":-47.9277241},{"id":"3499068513","name":"Sup. Ilha","tags":"shop:supermarket","lat":-25.0170969,"lng":-47.9276368},{"id":"3503979856","name":"Yolanda","tags":"amenity:school","lat":-25.0160883,"lng":-47.929101},{"id":"5650769822","name":"Museu Municipal Histórico e Artístico de Cananéia Víctor Sadowski","tags":"addr:city:Cananéia,addr:housenumber:78,addr:postcode:11990-000,addr:street:Rua Tristão Lobo,addr:suburb:Centro,email:museumunicipal@cananeia.sp.gov.br,opening_hours:Tu-Su 09:00-18:00,operator:Departamento de Cultura da Prefeitura Municipal da Estância Turística de Cananéia,phone:(13) 3851-1930,tourism:museum","lat":-25.0169421,"lng":-47.9284367},{"id":"6767350600","name":"JaJu","tags":"amenity:restaurant,cuisine:pizza","lat":-25.015913,"lng":-47.9268155},{"id":"6767350601","name":"Miramar","tags":"amenity:restaurant,cuisine:seafood","lat":-25.016059,"lng":-47.9268366},{"id":"6767350602","name":"Caiçara","tags":"amenity:restaurant,cuisine:seafood","lat":-25.0161796,"lng":-47.9274553}]