[{"id":"3202397844","name":"Agropet Avenida","tags":"addr:city:Capão Bonito,shop:pet","lat":-24.0021704,"lng":-48.3469889},{"id":"3206152723","name":"Bar e Restaurante Casa da Mãe Joana","tags":"addr:city:Capão Bonito,addr:street:Rua Cerqueira César,amenity:restaurant,cuisine:regional","lat":-24.0050086,"lng":-48.3503974},{"id":"3210516346","tags":"addr:city:Capão Bonito,amenity:bar","lat":-24.0049797,"lng":-48.3458411},{"id":"3210544058","tags":"addr:city:Capão Bonito,amenity:post_office","lat":-24.003756,"lng":-48.3493485},{"id":"5790344437","name":"Pingo de Mel","tags":"addr:housenumber:816,addr:street:Rua Altino Arantes,description:Produtos Naturais,email:pingodemelcb@hotmail.com,organic:only,phone:+55 15 35421871,shop:supermarket","lat":-24.0038339,"lng":-48.3450999},{"id":"10157796415","name":"Casa do Pão de Queijo Mineirinho","tags":"amenity:cafe","lat":-24.0020977,"lng":-48.3457409}]