[{"id":"2577833883","name":"Colégio Estadual Rio Branco (CERB)","tags":"amenity:school","lat":-23.2914292,"lng":-50.0776027},{"id":"2577833886","name":"Supercenter Molini's","tags":"operator:Grupo Molinis,shop:supermarket","lat":-23.293173,"lng":-50.0766473},{"id":"2577833887","name":"Colégio Santa Terezinha / Sagrada Família","tags":"amenity:school","lat":-23.294536,"lng":-50.0777288},{"id":"2581307272","tags":"amenity:pharmacy,healthcare:pharmacy","lat":-23.2958166,"lng":-50.0769689},{"id":"2581307273","tags":"amenity:pharmacy,healthcare:pharmacy","lat":-23.2956541,"lng":-50.0767247},{"id":"2581307274","tags":"amenity:pharmacy,healthcare:pharmacy","lat":-23.2953875,"lng":-50.076346},{"id":"2581307276","tags":"amenity:pharmacy","lat":-23.2951827,"lng":-50.0773582},{"id":"2581307277","tags":"amenity:pharmacy,healthcare:pharmacy","lat":-23.2949519,"lng":-50.077022},{"id":"2581309181","tags":"amenity:school","lat":-23.2940769,"lng":-50.0766253},{"id":"8910197665","name":"Correios","tags":"amenity:post_office,brand:Correios,brand:wikidata:Q3375004,brand:wikipedia:en:Correios","lat":-23.2963663,"lng":-50.0793509}]