[{"id":"5276627145","name":"Arena Luvi Gourmet","tags":"addr:city:Laranjal Paulista,addr:housenumber:521,addr:postcode:18500-000,addr:street:Avenida Cesário Carlos de Almeida,addr:suburb:Bairro São Roque,amenity:restaurant,contact:facebook:http://www.facebook.com/pg/arenaluvigourmet,cuisine:regional,outdoor_seating:yes,phone:+55 15 99195-7887","lat":-23.0385105,"lng":-47.8364709},{"id":"5282977562","name":"Drogaria Santa Paula 2","tags":"addr:city:Laranjal Paulista,addr:housenumber:13,addr:postcode:18500-000,addr:street:Avenida Cesário Carlos de Almeida,addr:suburb:Bairro São Benedito,amenity:pharmacy,healthcare:pharmacy,phone:+51 15 3283 6680","lat":-23.0437155,"lng":-47.834806},{"id":"5698085897","name":"ampm","tags":"brand:ampm,brand:wikidata:Q306960,brand:wikipedia:en:Ampm,operator:Almeida & Bado,shop:convenience","lat":-23.0424815,"lng":-47.8394263},{"id":"6400466654","name":"Criaturas da Noite","tags":"addr:city:Laranjal Paulista,addr:housenumber:410,addr:postcode:18500-000,addr:street:Avenida Prefeito Hermelindo Pillon,addr:suburb:Jardim Elite II,amenity:bar,description:Bar 24 horas.,opening_hours:Mo-Sa 22:00-04:00","lat":-23.0427193,"lng":-47.8389527},{"id":"8639114539","tags":"access:private,amenity:parking,operator:Fórum da Comarca de Laranjal Paulista,parking:surface","lat":-23.0431482,"lng":-47.8370664},{"id":"9082824373","name":"Banco24Horas","tags":"amenity:atm,brand:Banco24Horas,brand:wikidata:Q4854069,brand:wikipedia:pt:Banco24Horas,indoor:room,level:1","lat":-23.0436209,"lng":-47.8378742}]