[{"id":"2595752505","name":"Caixa Econômica Federal","tags":"amenity:bank,atm:yes,brand:Caixa Econômica Federal,brand:wikidata:Q835283,brand:wikipedia:pt:Caixa Econômica Federal","lat":-23.9961334,"lng":-46.2590496},{"id":"2595752510","name":"Joia","tags":"shop:supermarket","lat":-23.9958493,"lng":-46.2603791},{"id":"4103693089","name":"Boca e Sabor","tags":"addr:street:Rua Rio de Janeiro,amenity:restaurant,cuisine:brazilian;burger;fish","lat":-23.9967728,"lng":-46.2608796},{"id":"4595525944","name":"Paulaner","tags":"amenity:bar","lat":-23.9963816,"lng":-46.2610806},{"id":"4692800401","name":"Pavilhão da Maria Fumaça","tags":"building:yes,historic:locomotive,locomotive:type:steam,tourism:attraction,wikidata:Q97009680","lat":-23.9949506,"lng":-46.2573064}]