[{"id":"2813379304","name":"Hospital Santo Amaro","tags":"addr:city:Guarujá,addr:housenumber:40,addr:postcode:11410-140,addr:street:Rua Quinto Bertoldi,addr:suburb:Vila Maia,amenity:hospital,emergency:yes,healthcare:hospital,operator:type:public","lat":-23.9904062,"lng":-46.253518},{"id":"2813489409","tags":"amenity:restaurant","lat":-23.9897832,"lng":-46.2530366},{"id":"2813489410","name":"Poupa Farma","tags":"amenity:pharmacy,healthcare:pharmacy","lat":-23.9898812,"lng":-46.2532888},{"id":"2817015285","name":"UNIDON","tags":"amenity:university,internet_access:wlan,operator:type:private,website:https://unidon.edu.br/","lat":-23.9928525,"lng":-46.2537873},{"id":"2817015286","name":"Associação Desportiva - Vila Souza","tags":"leisure:sports_centre","lat":-23.9922864,"lng":-46.2541051},{"id":"2817016922","tags":"amenity:restaurant","lat":-23.9918477,"lng":-46.2590267},{"id":"2817016923","tags":"amenity:police","lat":-23.9912818,"lng":-46.258849},{"id":"2817016924","tags":"amenity:post_office","lat":-23.9910537,"lng":-46.2590459},{"id":"2817034178","tags":"amenity:restaurant","lat":-23.9908729,"lng":-46.2546465},{"id":"8660717946","name":"Colégio Don Domênico","tags":"amenity:school,grades:Ensino Fundamental I, Fundamental II e Ensino Médio,operator:type:private,website:http://www.colegiodondomenico.com.br/","lat":-23.9927717,"lng":-46.2538503},{"id":"8660717956","name":"Hospital Casa de Saúde - Guarujá","tags":"addr:city:Guarujá,addr:housenumber:109,addr:postcode:11410-140,addr:street:Av. Emílio Carlos,addr:suburb:Vila Maia,amenity:hospital,emergency:yes,healthcare:hospital,operator:Casa de Saúde,operator:type:private","lat":-23.9899562,"lng":-46.2528559},{"id":"8714150977","name":"Santander","tags":"addr:city:Guarujá,addr:housenumber:633,addr:postcode:11410-150,addr:street:Rua Washington,addr:suburb:Vila Maia (Centro),air_conditioning:yes,amenity:bank,atm:yes,brand:Santander,brand:wikidata:Q5835668,brand:wikipedia:en:Santander Bank,opening_hours:covid19:open,operator:Santander,parking:yes,wheelchair:yes","lat":-23.9935783,"lng":-46.2568306}]