[{"id":"3225054152","name":"Velho do Guarujá","tags":"amenity:ferry_terminal,ferry:yes,old_operator:Dersa,operator:Departamento Hidroviário,public_transport:station","lat":-23.9891406,"lng":-46.290896},{"id":"3227340960","name":"Barca Ferryboat - (Guarujá/ Santos)","tags":"amenity:ferry_terminal,ferry:yes,operator:BSG - Barcas,public_transport:station","lat":-23.9897404,"lng":-46.2909528},{"id":"4546533291","name":"Supermercado Joia","tags":"addr:housenumber:3255,addr:postcode:11430-005,addr:street:Avenida Ademar de Barros,opening_hours:Mo-Su 08:00-21:00,phone:551333582813,shop:supermarket","lat":-23.9897205,"lng":-46.2890687},{"id":"6069591903","name":"Terminal FerryBoat Guarujá","tags":"amenity:bus_station,building:public,bus:yes,operator:CITY Transporte Urbano,public_transport:station,wheelchair:yes","lat":-23.9898446,"lng":-46.2901225},{"id":"6069594655","name":"Estacionamento do Terminal","tags":"amenity:parking,operator:terminal do Guarujá","lat":-23.9900504,"lng":-46.2901493}]