[{"id":"2062425356","tags":"amenity:restaurant","lat":-23.9720492,"lng":-46.3239791},{"id":"2614129182","name":"Banco do Brasil","tags":"amenity:bank,brand:Banco do Brasil,brand:wikidata:Q610817,brand:wikipedia:en:Banco do Brasil,website:https://www.bb.com.br/","lat":-23.9706675,"lng":-46.3236613},{"id":"2817048217","name":"Empório Dom José","tags":"amenity:cafe","lat":-23.9711648,"lng":-46.3198283},{"id":"2817050267","name":"Restaurante Canal 4","tags":"amenity:restaurant","lat":-23.9707996,"lng":-46.320286},{"id":"2817050268","name":"Supermercado Bolshoi Gourmet","tags":"shop:supermarket","lat":-23.9693671,"lng":-46.3196447},{"id":"3024689776","name":"Picolla Forneria","tags":"amenity:restaurant,cuisine:pizza","lat":-23.9683006,"lng":-46.326265},{"id":"3024706289","name":"Okumura Temakeria","tags":"amenity:restaurant,cuisine:japanese","lat":-23.9702985,"lng":-46.3277997},{"id":"3024706403","name":"Kokimbos Pizzas & Picanha","tags":"amenity:restaurant,cuisine:pizza","lat":-23.968232,"lng":-46.3267163},{"id":"3101361229","name":"Restaurante Nagoya","tags":"amenity:restaurant,cuisine:japanese","lat":-23.9684699,"lng":-46.3200272},{"id":"3101361230","name":"Cheers Pub","tags":"amenity:bar","lat":-23.9715194,"lng":-46.3203238},{"id":"3101374880","name":"Moby Dick","tags":"amenity:nightclub","lat":-23.971379,"lng":-46.3268484},{"id":"3101375439","name":"Bar Heinz","tags":"amenity:bar","lat":-23.9697024,"lng":-46.3284274},{"id":"3101440149","name":"Paulistânia Café","tags":"amenity:bar","lat":-23.9704479,"lng":-46.3286827},{"id":"3101441989","name":"Bar Armazém 29","tags":"amenity:bar","lat":-23.9699896,"lng":-46.3284147},{"id":"4692742854","name":"Clube XV","tags":"addr:city:Santos,addr:housenumber:565,addr:street:Avenida Washington Luiz,addr:suburb:Boqueirão,leisure:sports_centre,phone:+55 13 3302-3004","lat":-23.970409,"lng":-46.3289504},{"id":"4758835393","name":"Drogasil","tags":"addr:city:Santos,addr:housenumber:1,addr:postcode:11045-301,addr:street:Avenida Doutor Epitácio Pessoa,addr:suburb:Boqueirão,amenity:pharmacy,brand:Drogasil,brand:wikidata:Q5308185,brand:wikipedia:pt:Drogasil,healthcare:pharmacy,wheelchair:yes","lat":-23.9705332,"lng":-46.3239082}]