[{"id":"7829860343","name":"Supermercado Extra Forte","tags":"addr:city:Santos,addr:housenumber:286,addr:postcode:11095-210,addr:street:R. Dr. Mario Gracho,addr:suburb:São Manoel,payment:cash:yes,payment:credit_cards:yes,payment:debit_cards:yes,payment:mastercard:yes,payment:visa:yes,payment:visa_debit:yes,shop:supermarket,stroller:yes,wheelchair:yes","lat":-23.9298078,"lng":-46.3826946},{"id":"7829860345","name":"Escola Municipal José Carlos Azevedo Junior Unidade Municipal de Educação","tags":"addr:city:Santos,addr:housenumber:21,addr:postcode:11095070,addr:street:Rua Nicolau Moran,addr:suburb:São Manoel,amenity:school","lat":-23.9304306,"lng":-46.3811282},{"id":"7829860348","name":"Rei da Pizza","tags":"amenity:restaurant,cuisine:pizza","lat":-23.9326787,"lng":-46.3826088},{"id":"7829860349","tags":"amenity:pharmacy,dispensing:yes,healthcare:pharmacy","lat":-23.9330646,"lng":-46.3827026},{"id":"7829860350","name":"Loja do Paraíba","tags":"shop:convenience","lat":-23.933295,"lng":-46.3827026},{"id":"7829860354","name":"Leide Esteticista","tags":"beauty:nails,shop:beauty","lat":-23.9316868,"lng":-46.3828636},{"id":"7829860368","tags":"shop:beauty","lat":-23.9312749,"lng":-46.381324}]