[{"id":"1416789376","name":"Carrefour","tags":"brand:Carrefour,brand:wikidata:Q217599,brand:wikipedia:fr:Carrefour (enseigne),shop:supermarket","lat":-23.9782159,"lng":-46.3082184},{"id":"2061335869","name":"Pão de Açúcar","tags":"brand:Pão de Açúcar,brand:wikidata:Q3411543,brand:wikipedia:pt:Pão de Açúcar (supermercado brasileiro),shop:supermarket","lat":-23.9812974,"lng":-46.3084676},{"id":"2061634141","name":"Rialfy","tags":"addr:city:Santos,addr:housenumber:197,addr:street:Rua Januário dos Santos,addr:suburb:Aparecida,phone:+55 13 3238-6247,shop:convenience","lat":-23.9820884,"lng":-46.3099917},{"id":"2062380072","name":"Poupafarma","tags":"addr:city:Santos,addr:housenumber:372,addr:postcode:11030-600,addr:street:Avenida Doutor Epitácio Pessoa,addr:suburb:Aparecida,amenity:pharmacy,healthcare:pharmacy,phone:+55 13 3227-3998","lat":-23.9779123,"lng":-46.311892},{"id":"2062424178","name":"Carrefour","tags":"amenity:parking,layer:-1,operator:Carrefour,parking:underground","lat":-23.9783813,"lng":-46.3080815},{"id":"2067255466","name":"Santa Felicidade Restaurante & Chopperia","tags":"amenity:restaurant,cuisine:regional","lat":-23.9824551,"lng":-46.3103815},{"id":"2067255499","tags":"amenity:bar","lat":-23.9804782,"lng":-46.3121919},{"id":"2067255513","tags":"amenity:bar","lat":-23.9788025,"lng":-46.3109883},{"id":"2067255521","tags":"amenity:bar","lat":-23.9789201,"lng":-46.3110688},{"id":"2067255536","name":"Baraçai - Sushi","tags":"amenity:restaurant,cuisine:japanese","lat":-23.9822241,"lng":-46.3101571},{"id":"4178835452","name":"Colégio Átrio - Tatibitati","tags":"addr:city:Santos,addr:housenumber:70,addr:street:Rua Januário dos Santos,addr:suburb:Aparecida,amenity:school,phone:+55 13 3271-8040","lat":-23.9811297,"lng":-46.3092366},{"id":"6192948164","name":"Outback Steakhouse","tags":"addr:street:Rua Guaiaó,amenity:restaurant,brand:Outback Steakhouse,brand:wikidata:Q1064893,brand:wikipedia:en:Outback Steakhouse,cuisine:american;steak,delivery:no,outdoor_seating:no","lat":-23.9785346,"lng":-46.3088147},{"id":"6848822924","name":"Alkimista","tags":"amenity:pharmacy,dispensing:yes,healthcare:pharmacy","lat":-23.9823421,"lng":-46.3075529}]