[{"id":"3299410272","tags":"amenity:restaurant,internet_access:no,smoking:no,wheelchair:no","lat":-23.5891892,"lng":-46.7719661},{"id":"8198818915","name":"Drogasil","tags":"amenity:pharmacy,brand:Drogasil,brand:wikidata:Q5308185,brand:wikipedia:pt:Drogasil,dispensing:yes,healthcare:pharmacy,wheelchair:yes","lat":-23.5895327,"lng":-46.7715827},{"id":"8873764994","name":"Farma Unidos Popular","tags":"amenity:pharmacy,dispensing:yes,drive_through:no,healthcare:pharmacy","lat":-23.5895684,"lng":-46.7699232},{"id":"8873764995","name":"Levy's Bar e Restaurante","tags":"amenity:restaurant","lat":-23.5895949,"lng":-46.7699887},{"id":"8873765013","name":"Pet do Thor","tags":"shop:pet","lat":-23.5894448,"lng":-46.7708906},{"id":"8873765014","name":"Pizzaria La Perugia","tags":"amenity:restaurant,cuisine:pizza","lat":-23.5907504,"lng":-46.7698733},{"id":"8875025164","name":"I'a Poke","tags":"amenity:restaurant,cuisine:hawaiian","lat":-23.5902148,"lng":-46.7698481},{"id":"8875025165","name":"Assados Bom Dia","tags":"amenity:restaurant,cuisine:meat;sushi","lat":-23.5902531,"lng":-46.7698471},{"id":"9737858977","tags":"amenity:restaurant,cuisine:japanese","lat":-23.5908452,"lng":-46.7699158}]