[{"id":"2995105411","name":"Banco do Brasil","tags":"addr:city:Embu das Artes,addr:country:BR,addr:housenumber:50,addr:street:Rua Domingos de Pascoal,amenity:bank,atm:yes,brand:Banco do Brasil,brand:wikidata:Q610817,brand:wikipedia:en:Banco do Brasil,opening_hours:24/7,operator:Banco do Brasil","lat":-23.6505981,"lng":-46.8528063},{"id":"3246183092","name":"Per Quilo","tags":"amenity:restaurant,cuisine:regional","lat":-23.6492341,"lng":-46.8517969},{"id":"3246238183","name":"Bradesco","tags":"addr:city:Embu das Artes,addr:country:BR,addr:housenumber:11,addr:state:São Paulo,addr:street:Rua Marechal Isidoro Lopes,amenity:bank,atm:yes,brand:Bradesco,brand:wikidata:Q806181,brand:wikipedia:en:Banco Bradesco","lat":-23.6494233,"lng":-46.8520388},{"id":"3246238184","name":"Itaú","tags":"addr:city:Embu das Artes,addr:country:BR,addr:housenumber:35/41,addr:state:São Paulo,addr:street:Rua Largo 21 de Abril,amenity:bank,atm:yes,brand:Itaú,operator:Itaú","lat":-23.6493214,"lng":-46.8521878},{"id":"10039621011","name":"Prazeres Drogaria","tags":"addr:housenumber:1871,addr:postcode:06803-000,addr:street:Avenida Elias Yazbek,addr:suburb:Cercado Grande,amenity:pharmacy,dispensing:yes,drive_through:no,healthcare:pharmacy,website:https://prazeresdrogaria.com.br/home","lat":-23.6483479,"lng":-46.8482196}]