[{"id":"5223765389","name":"Showa","tags":"addr:city:São Paulo,addr:country:BR,addr:street:Rua Inês Pereira,leisure:sports_centre,sport:swimming","lat":-23.6022563,"lng":-46.682429},{"id":"6482963551","name":"Estrela de Minas","tags":"amenity:restaurant","lat":-23.6032707,"lng":-46.6910757},{"id":"6482976380","name":"Mexicaníssimo","tags":"amenity:restaurant","lat":-23.6034844,"lng":-46.690903},{"id":"6482978182","name":"Garage 73","tags":"amenity:bar","lat":-23.6033205,"lng":-46.6908316},{"id":"6482978183","name":"Seringueira","tags":"amenity:restaurant","lat":-23.6036353,"lng":-46.6915167},{"id":"6482978685","name":"Itaú","tags":"amenity:bank","lat":-23.6035815,"lng":-46.6918393},{"id":"7002964860","name":"Correios","tags":"amenity:post_office,brand:Correios,brand:wikidata:Q3375004,brand:wikipedia:en:Correios,opening_hours:Mo-Fr 09:00-17:00","lat":-23.6024555,"lng":-46.6902236},{"id":"8832536070","name":"Avenida Nova Independência, 921","tags":"addr:city:São Paulo,addr:housenumber:921,addr:postcode:04570-001,addr:street:Avenida Nova Independência,addr:suburb:Brooklin Paulista,amenity:restaurant","lat":-23.600442,"lng":-46.6885746}]