[{"id":"2951839720","name":"Itaú","tags":"addr:city:São Bernardo do Campo,addr:country:BR,addr:housenumber:200,addr:street:Praça Samuel Sabatini,addr:suburb:Centro,amenity:bank,atm:yes,brand:Itaú Unibanco,brand:wikidata:Q1424293,brand:wikipedia:pt:Itaú Unibanco,drive_through:no,opening_hours:Mo -Fr 11:00-20:00; Sa-Su,PH off,operator:Itau Unibanco,toilets:wheelchair:yes,wheelchair:yes","lat":-23.6930209,"lng":-46.5512944},{"id":"2951839721","name":"Bradesco","tags":"addr:city:São Bernardo do Campo,addr:country:BR,addr:housenumber:200,addr:street:Praça Samuel Sabatini,addr:suburb:Centro,amenity:bank,atm:yes,brand:Bradesco,brand:wikidata:Q806181,brand:wikipedia:en:Banco Bradesco","lat":-23.6929988,"lng":-46.5508035},{"id":"3631931272","name":"Max Estacionamento","tags":"access:yes,addr:street:Avenida Índico,amenity:parking,fee:yes,layer:-1,parking:underground,payment:cash:yes,payment:coins:yes,payment:notes:yes","lat":-23.6947446,"lng":-46.5541772},{"id":"3843888171","name":"Drogaria São Paulo","tags":"addr:city:São Bernardo do Campo,addr:country:BR,addr:housenumber:200,addr:street:Praça Samuel Sabatini,addr:suburb:Centro,amenity:pharmacy,brand:Drogaria São Paulo,brand:wikidata:Q5308184,brand:wikipedia:en:Grupo DPSP,dispensing:yes,healthcare:pharmacy","lat":-23.6931037,"lng":-46.549408},{"id":"4301381634","tags":"amenity:parking,parking:surface","lat":-23.6937393,"lng":-46.5574033},{"id":"4301387948","name":"Rede de Drogarias Nova Scarpelli","tags":"addr:city:São Bernardo do Campo,addr:country:BR,addr:housenumber:62,addr:street:Avenida Índico,addr:suburb:Centro,amenity:pharmacy,dispensing:yes,drive_through:no,healthcare:pharmacy,payment:cash:yes,payment:coins:yes,payment:notes:yes,phone:+55 11 4126 2487","lat":-23.6962937,"lng":-46.5532486},{"id":"4452297404","name":"GDO Estacionamentos","tags":"addr:city:São Bernardo do Campo,addr:country:BR,addr:street:Rua Bering,addr:suburb:Centro,amenity:parking,fee:yes,operator:GDO,park_ride:no,parking:surface,supervised:yes","lat":-23.6930162,"lng":-46.5531809},{"id":"4452297432","tags":"addr:city:São Bernardo do Campo,addr:country:BR,addr:street:Avenida Índico,amenity:parking,fee:yes,park_ride:no,parking:surface,supervised:yes","lat":-23.6929253,"lng":-46.55637},{"id":"4478186273","name":"Smart Fit","tags":"addr:city:São Bernardo do Campo,addr:country:BR,addr:housenumber:200,addr:street:Praça Samuel Sabatini,addr:suburb:Centro,brand:Smart Fit,brand:wikidata:Q30930959,brand:wikipedia:pt:Smart Fit,leisure:fitness_centre,opening_hours:covid19:off","lat":-23.6922618,"lng":-46.5502188},{"id":"4478186274","name":"Saraiva","tags":"addr:city:São Bernardo do Campo,addr:country:BR,addr:housenumber:200,addr:street:Praça Samuel Sabatini,addr:suburb:Centro,alt_name:Livraria Saraiva,brand:Saraiva,brand:wikidata:Q10319337,brand:wikipedia:pt:Livraria Saraiva,shop:books","lat":-23.6937232,"lng":-46.5504199},{"id":"4478186275","name":"Starbucks","tags":"addr:city:São Bernardo do Campo,addr:country:BR,addr:housenumber:200,addr:street:Praça Samuel Sabatini,addr:suburb:Centro,amenity:cafe,brand:Starbucks,brand:wikidata:Q37158,brand:wikipedia:en:Starbucks,cuisine:coffee_shop,official_name:Starbucks Coffee,takeaway:yes","lat":-23.6937159,"lng":-46.5505728},{"id":"4525585075","name":"Carrefour Express","tags":"addr:city:São Bernardo do Campo,addr:country:BR,addr:housenumber:200,addr:street:Praça Samuel Sabatini,addr:suburb:Centro,brand:Carrefour Express,brand:wikidata:Q2940190,brand:wikipedia:fr:Carrefour Express,operator:Groupe Carrefour,operator:wikidata:Q3117359,operator:wikipedia:fr:Groupe Carrefour,shop:convenience","lat":-23.6935896,"lng":-46.5505751},{"id":"4525585078","name":"Banco do Brasil","tags":"addr:country:BR,addr:street:Praça Samuel Sabatini,amenity:bank,atm:yes,brand:Banco do Brasil,brand:wikidata:Q610817,brand:wikipedia:en:Banco do Brasil","lat":-23.6923567,"lng":-46.5500548},{"id":"4525585079","name":"Multibanco","tags":"amenity:atm,currency:BRL:yes,drive_through:no,network:Multibanco,operator:Multibanco","lat":-23.692283,"lng":-46.5499233},{"id":"4614227649","name":"Caixa Econômica Federal","tags":"addr:city:São Bernardo do Campo,addr:country:BR,addr:housenumber:50,addr:street:Praça Samuel Sabatini,addr:suburb:Centro,amenity:bank,atm:yes,brand:Caixa Econômica Federal,brand:wikidata:Q835283,brand:wikipedia:pt:Caixa Econômica Federal","lat":-23.6955786,"lng":-46.5524584},{"id":"4614227650","name":"Santander","tags":"addr:city:São Bernardo do Campo,addr:country:BR,addr:housenumber:50,addr:street:Praça Samuel Sabatini,addr:suburb:Centro,amenity:bank,atm:yes,brand:Santander,brand:wikidata:Q5835668,brand:wikipedia:en:Santander Bank","lat":-23.6957284,"lng":-46.5521579},{"id":"4656651840","name":"Bifarma","tags":"addr:housenumber:445,addr:postcode:09750-670,addr:street:Avenida Lucas Nogueira Garcez,addr:suburb:Centro,amenity:pharmacy,branch:089,contact:phone:+55 11 97600 6198,dispensing:yes,drive_through:no,healthcare:pharmacy,opening_hours:Mo-Su,PH  07:00-23:00,phone:+55 11 4332 4184","lat":-23.693171,"lng":-46.554655},{"id":"4656703945","name":"Restaurante Charme do Índico","tags":"amenity:restaurant,cuisine:regional,phone:+55 11 2355-5573","lat":-23.6963805,"lng":-46.5534326},{"id":"5070562021","tags":"access:yes,addr:city:São Bernardo do Campo,addr:street:Avenida Lucas Nogueira Garcez,addr:suburb:Centro,amenity:parking,fee:yes,operator:GDO Estacionamentos,operator:type:private,park_ride:no,parking:multi-storey,supervised:yes","lat":-23.6928779,"lng":-46.5543138},{"id":"5122308780","tags":"access:customers,amenity:parking,fee:yes,park_ride:no,parking:multi-storey,supervised:yes","lat":-23.6926941,"lng":-46.5500251},{"id":"5452265972","tags":"access:customers,amenity:parking,fee:yes,layer:-1,park_ride:no,parking:underground,payment:cash:yes,payment:coins:yes,payment:notes:yes,supervised:yes","lat":-23.6950886,"lng":-46.5532683},{"id":"5539130500","name":"Livraria Murador","tags":"addr:city:São Bernardo do Campo,addr:street:Praça Samuel Sabatini,addr:suburb:Centro,shop:books","lat":-23.6929444,"lng":-46.5496018},{"id":"5552712385","name":"Restaurante Princesa do Indico","tags":"addr:city:São Bernardo do Campo,addr:street:Avenida Índico,addr:suburb:Centro,amenity:restaurant,cuisine:regional,delivery:yes,outdoor_seating:yes,phone:+55 11 4125 8080,smoking:outside","lat":-23.6961987,"lng":-46.5532631},{"id":"5552712387","name":"Eficaz Fórmulas Farmácia de Manipulação","tags":"addr:city:São Bernardo do Campo,addr:street:Avenida Índico,addr:suburb:Centro,amenity:pharmacy,contact:phone:+55 11 4332 6556,dispensing:no,drive_through:no,healthcare:pharmacy,phone:+55 11 4125 5414","lat":-23.6961545,"lng":-46.5535233},{"id":"6551852475","name":"ampm","tags":"addr:city:São Bernardo do Campo,addr:housenumber:608,addr:postcode:09750-660,addr:street:Avenida Lucas Nogueira Garcez,addr:suburb:Centro,brand:ampm,brand:wikidata:Q306960,brand:wikipedia:en:Ampm,shop:convenience","lat":-23.6920511,"lng":-46.5557279},{"id":"6854099447","name":"Nosso Canto","tags":"addr:street:Avenida Redenção,amenity:bar,outdoor_seating:no","lat":-23.6953339,"lng":-46.5563759},{"id":"8025750034","name":"Restaurante Saborantella","tags":"addr:housenumber:450,addr:street:Avenida Índico,addr:suburb:Jardim do Mar,amenity:restaurant,cuisine:regional","lat":-23.6932614,"lng":-46.5552782},{"id":"8025763022","name":"Estacionamento Camp Nou Park","tags":"access:yes,amenity:parking,fee:yes,opening_hours:Mo-Fr 07:00-19:00; Sa 08:00-16:00,parking:surface,payment:cash:yes,payment:coins:yes,payment:notes:yes","lat":-23.6938279,"lng":-46.5548359},{"id":"8025779386","name":"Car Park Bahia","tags":"access:yes,addr:housenumber:404,addr:street:Avenida Índico,addr:suburb:Jardim do Mar,amenity:parking,fee:yes,parking:surface,payment:cash:yes,payment:coins:yes,payment:notes:yes","lat":-23.6935259,"lng":-46.5549189},{"id":"8475550069","tags":"addr:street:Rua Banda,addr:suburb:Vila Euclides,amenity:parking,fee:yes,parking:surface","lat":-23.6928931,"lng":-46.5574196},{"id":"9700679948","name":"Banco24Horas","tags":"amenity:atm,brand:Banco24Horas,brand:wikidata:Q4854069,drive_through:no,operator:Banco24Horas","lat":-23.6921107,"lng":-46.5557499},{"id":"9888492394","name":"Leitura","tags":"addr:housenumber:200,addr:street:Praça Samuel Sabatini,addr:suburb:Centro,alt_name:Livraria Leitura,brand:Leitura,brand:wikidata:Q6176628,email:metropole.gerencia@leitura.com.br,phone:+55 11 4125 3090,shop:books,website:https://leitura.com.br/","lat":-23.6928858,"lng":-46.5509578},{"id":"9931821762","name":"COI - Centro de Operações Integradas","tags":"addr:street:Avenida Redenção,amenity:police","lat":-23.6973008,"lng":-46.5539276},{"id":"9932840306","name":"Delegacia de Polícia de Proteção ao Idoso - DPPI","tags":"addr:housenumber:201,addr:street:Avenida Redenção,amenity:police,operator:Secretaria da Segurança Pública do Estado de São Paulo,operator:wikidata:Q10295162","lat":-23.6970032,"lng":-46.554126}]