[{"id":"2741073925","name":"Pizzaria Sala Vip","tags":"addr:city:São Bernardo do Campo,addr:country:BR,addr:housenumber:391,addr:street:Rua Bela Vista,amenity:restaurant,cuisine:pizza,phone:+55 11 4125 5757,website:https://www.salavippizzaria.com.br/","lat":-23.7124983,"lng":-46.5461366},{"id":"2804329621","tags":"access:private,addr:city:São Bernardo do Campo,addr:country:BR,addr:housenumber:545,addr:postcode:09715-000,addr:street:Rua João Pessoa,amenity:parking,capacity:20,fee:yes,layer:-1,park_ride:no,parking:underground,supervised:yes","lat":-23.7127081,"lng":-46.5481309},{"id":"3216781803","tags":"amenity:parking","lat":-23.7118761,"lng":-46.5484505},{"id":"4437127378","tags":"amenity:parking,fee:yes,park_ride:no,parking:surface,supervised:yes","lat":-23.7125778,"lng":-46.5473731},{"id":"4437127379","tags":"amenity:parking","lat":-23.7127227,"lng":-46.5468728},{"id":"4442425189","tags":"access:yes,addr:city:São Bernardo do Campo,addr:country:BR,addr:housenumber:7,addr:street:Rua Bendito Montenegro,addr:suburb:Centro,amenity:parking,capacity:10,fee:yes,park_ride:no,parking:surface,supervised:yes,surface:paved","lat":-23.7134212,"lng":-46.5451563},{"id":"4442814514","name":"Pelo sim... Pelo não","tags":"addr:city:São Bernardo do Campo,addr:country:BR,addr:postcode:09715-021,addr:street:Rua Bela Vista,description:Banho e tosa.,phone:+55 11 4121 9529,shop:pet","lat":-23.7138936,"lng":-46.5460658},{"id":"4465449494","name":"Di Marie","tags":"addr:country:BR,addr:street:Rua João Pessoa,amenity:cafe,cuisine:regional,smoking:outside","lat":-23.7133009,"lng":-46.5483471},{"id":"4465449504","tags":"addr:city:São Bernardo do Campo,addr:country:BR,addr:street:Rua João Pessoa,amenity:parking,fee:yes,parking:surface,supervised:yes,surface:paved","lat":-23.7124818,"lng":-46.5481761},{"id":"4465501398","name":"Restaurante Yamaguchi Sushi","tags":"addr:city:São Bernardo do Campo,addr:housenumber:535,addr:street:Rua Doutor Fláquer,addr:suburb:Centro,amenity:restaurant,contact:phone:+55 11 4121 9584,cuisine:japanese,email:contato@yamaguchisuchi.com.br,opening_hours:Mo-Fr 12:00-15:00; Sa-Su,PH 12:00-16:00,outdoor_seating:no,phone:+55 11 4122 2049,smoking:outside,website:http://www.yamaguchisushi.com.br/","lat":-23.7088816,"lng":-46.5481922},{"id":"4492985772","name":"Drogasil","tags":"addr:city:São Bernardo do Campo,addr:country:BR,addr:housenumber:1066,addr:postcode:09770-000,addr:street:Avenida Francisco Prestes Maia,amenity:pharmacy,brand:Drogasil,brand:wikidata:Q5308185,brand:wikipedia:pt:Drogasil,healthcare:pharmacy,operator:Drogasil,wheelchair:yes","lat":-23.7124429,"lng":-46.5435227},{"id":"4500564693","name":"Koneria","tags":"addr:city:São Bernardo do Campo,addr:country:BR,addr:housenumber:600,addr:street:Rua João Pessoa,amenity:restaurant,cuisine:Cone,drive_in:no,phone:+55 11 4317 4003,smoking:outside","lat":-23.7133063,"lng":-46.5484447},{"id":"4500592090","tags":"addr:city:São Bernardo do Campo,addr:country:BR,addr:housenumber:547,addr:street:Rua Bela Vista,phone:+55 11 2355 1819,shop:pet","lat":-23.7137767,"lng":-46.5459408},{"id":"4509005663","tags":"addr:country:BR,addr:street:Avenida Francisco Prestes Maia,amenity:pharmacy,drive_through:no,healthcare:pharmacy","lat":-23.7135615,"lng":-46.5427591},{"id":"4509005681","tags":"access:permissive,amenity:parking,fee:yes,supervised:yes","lat":-23.7137383,"lng":-46.5436925},{"id":"4509005682","tags":"access:permissive,amenity:parking,fee:yes,supervised:yes","lat":-23.713591,"lng":-46.5438025},{"id":"5008419992","tags":"access:permissive,amenity:parking,fee:yes,park_ride:no,parking:surface,supervised:yes,surface:paved","lat":-23.7136805,"lng":-46.5448385},{"id":"5008419993","tags":"amenity:parking,parking:surface","lat":-23.7138897,"lng":-46.5442081},{"id":"5099075240","name":"Soberano Gourmet","tags":"addr:city:São Bernardo do Campo,addr:country:BR,addr:street:Avenida Francisco Prestes Maia,addr:suburb:Santa Terezinha,amenity:restaurant","lat":-23.7088646,"lng":-46.546219},{"id":"5334191345","tags":"amenity:car_wash","lat":-23.7093011,"lng":-46.5483301},{"id":"6399659631","name":"Pão de Açúcar","tags":"addr:street:Avenida Francisco Prestes Maia,branch:Minuto,brand:Pão de Açúcar,brand:wikidata:Q3411543,brand:wikipedia:pt:Pão de Açúcar (supermercado brasileiro),shop:supermarket","lat":-23.7112522,"lng":-46.5433886},{"id":"6858711548","name":"Escola Terra Mater","tags":"addr:street:Rua João Pessoa,amenity:school","lat":-23.7096935,"lng":-46.5487773},{"id":"7151305500","name":"Salgadinhos Nagai","tags":"addr:housenumber:295,addr:street:Rua Silva Jardim,amenity:cafe,contact:phone:+55 11 2843 3000,description:Venda de salgadinhos e bolos para festas.,phone:+55 11 4122 2254","lat":-23.7139115,"lng":-46.5460971},{"id":"9395643377","name":"Restaurante Kirin Culinária Oriental","tags":"addr:city:São Bernardo do Campo,addr:housenumber:321,addr:postcode:09715030,addr:street:Rua Bela Vista,addr:suburb:Centro,air_conditioning:yes,amenity:restaurant,cuisine:chinese;japanese,internet_access:yes,phone:1141233233,website:https://www.restaurantekirin.com.br,wheelchair:yes","lat":-23.7117053,"lng":-46.546196}]