[{"id":"1056734035","tags":"amenity:bar","lat":-23.5744157,"lng":-46.6592894},{"id":"1070561890","name":"Pizzaria Camelo","tags":"addr:city:São Paulo,addr:country:BR,addr:street:Al. Pamplona,amenity:restaurant,cuisine:pizza","lat":-23.5723849,"lng":-46.6618107},{"id":"4024140673","name":"Camelo","tags":"addr:city:São Paulo,addr:housenumber:1877,addr:postcode:01405-003,addr:street:Rua Pamplona,amenity:restaurant","lat":-23.5722653,"lng":-46.6619163},{"id":"5268625723","name":"Santander","tags":"amenity:bank,brand:Santander,brand:wikidata:Q5835668,brand:wikipedia:en:Santander Bank","lat":-23.5764795,"lng":-46.6640919},{"id":"5448846124","name":"Itaú Personnalité","tags":"amenity:bank","lat":-23.5727103,"lng":-46.6624881},{"id":"5448846523","name":"Drogasil","tags":"amenity:pharmacy","lat":-23.5715135,"lng":-46.6614483},{"id":"6110169391","name":"Santander","tags":"amenity:bank,brand:Santander,brand:wikidata:Q5835668,brand:wikipedia:en:Santander Bank","lat":-23.571332,"lng":-46.6630575},{"id":"10274134471","name":"Carat Restaurant & Lounge","tags":"addr:city:São Paulo,addr:housenumber:1631,addr:postcode:01404-003,addr:street:Alameda Campinas,addr:suburb:Jardim Paulista,amenity:restaurant,phone:+55 11 913327429,website:https://www.caratrestaurante.com.br/","lat":-23.5736323,"lng":-46.6605785},{"id":"10274164429","name":"1900 Pizzeria","tags":"addr:city:São Paulo,addr:housenumber:1630,addr:street:Alameda Campinas,addr:suburb:Jardim Paulista,amenity:restaurant,cuisine:pizza,phone:+55 11 5575 1900,website:https://1900.com.br/","lat":-23.57337,"lng":-46.6607264},{"id":"10274184390","name":"Lellis Trattoria Campinas","tags":"addr:city:São Paulo,addr:housenumber:1615,addr:postcode:01404-003,addr:street:Alameda Campinas,addr:suburb:Jardim Paulista,air_conditioning:yes,amenity:restaurant,cuisine:italian,internet_access:wlan,phone:+55 11 3885 2698;+55 11 3885 7461;+55 11 3885 0525,website:https://www.lellis.com/,wheelchair:yes","lat":-23.5734079,"lng":-46.6604337}]