[{"id":"4367774791","name":"Maní","tags":"addr:city:São Paulo,addr:housenumber:210,addr:postcode:05415-000,addr:street:Rua Joaquim Antunes,amenity:restaurant,cuisine:regional,name:pt:Maní,wikidata:Q89934886","lat":-23.5663802,"lng":-46.6797289},{"id":"4528877490","name":"Salvatore Loi","tags":"addr:city:São Paulo,addr:housenumber:102,addr:postcode:05415-000,addr:street:Rua Joaquim Antunes,amenity:restaurant","lat":-23.5671534,"lng":-46.6790108},{"id":"4528907292","name":"Padoca do Mani","tags":"addr:city:São Paulo,addr:housenumber:138,addr:postcode:05415-000,addr:street:Rua Joaquim Antunes,amenity:restaurant,cuisine:regional;coffee_shop,opening_hours:Mo-Fr 07:30-19:30; Sa 07:30-17:00; Su 07:30-14:00,outdoor_seating:yes,shop:bakery,smoking:no","lat":-23.5668012,"lng":-46.6793362},{"id":"6130703905","name":"Drogasil","tags":"addr:city:São Paulo,addr:housenumber:21,addr:postcode:05415-010,addr:street:Rua Joaquim Antunes,amenity:pharmacy,dispensing:yes,healthcare:pharmacy","lat":-23.567754,"lng":-46.6786628},{"id":"6484536386","tags":"addr:housenumber:217,addr:postcode:05415-010,addr:street:Rua Joaquim Antunes,amenity:restaurant,cuisine:international,internet_access:wlan,name:en:Mercearia do Conde,opening_hours:Mo-Th 12:00-16:00, 19:00-23:30; Fr 12:00-00:30; Sa 12:30-00:30; Su 12:30-23:00,phone:+55 11 3081 7204,website:http://www.merceariadoconde.com.br","lat":-23.5663518,"lng":-46.6799814}]