[{"id":"1575974453","name":"Carrefour","tags":"brand:Carrefour,brand:wikidata:Q217599,brand:wikipedia:fr:Carrefour (enseigne),shop:supermarket,wheelchair:yes","lat":-23.5839605,"lng":-46.7252342},{"id":"1575974474","name":"Droga Raia","tags":"addr:city:São Paulo,addr:country:BR,addr:housenumber:2830,addr:postcode:05512-300,addr:state:SP,addr:street:Avenida Professor Francisco Morato,amenity:pharmacy,brand:Droga Raia,brand:wikidata:Q10357101,brand:wikipedia:pt:RaiaDrogasil,contact:phone:+55 11 3742-4677,contact:website:http://www.drogaraia.com.br,healthcare:pharmacy,opening_hours:24/7,wheelchair:yes","lat":-23.5867124,"lng":-46.7254916},{"id":"6815722721","tags":"amenity:car_wash","lat":-23.5872249,"lng":-46.7315099},{"id":"6815722722","name":"ampm","tags":"brand:ampm,brand:wikidata:Q306960,brand:wikipedia:en:Ampm,shop:convenience","lat":-23.5875076,"lng":-46.7316467},{"id":"6815723700","tags":"amenity:atm,cash_in:no,currency:BRL:yes,drive_through:no,operator:Banco 24H","lat":-23.5873057,"lng":-46.7324813},{"id":"10032623926","name":"BMG","tags":"amenity:bank,drive_through:no,phone:+55 11 3726 8743","lat":-23.5842434,"lng":-46.7251312},{"id":"10032623929","name":"Divino Fogão","tags":"amenity:restaurant,cuisine:regional,opening_hours:Mo-Sa 10:00-22:00; Su,PH 11:00-22:00,phone:+55 11 97340 4067,website:https://www.divinofogao.com.br/","lat":-23.5842434,"lng":-46.7255626},{"id":"10032623951","name":"Spoleto","tags":"amenity:restaurant,brand:Spoleto,cuisine:italian,takeaway:yes","lat":-23.5843243,"lng":-46.7249635}]