[{"id":"5125906948","name":"Itaú","tags":"amenity:bank,brand:Itaú Unibanco,brand:wikidata:Q1424293,brand:wikipedia:pt:Itaú Unibanco","lat":-23.6451954,"lng":-46.671576},{"id":"5125908548","name":"Droga Raia","tags":"amenity:pharmacy,brand:Droga Raia,brand:wikidata:Q10357101,brand:wikipedia:pt:RaiaDrogasil,healthcare:pharmacy","lat":-23.6457298,"lng":-46.6728957},{"id":"5125921196","name":"Drogaria São Paulo","tags":"amenity:pharmacy,brand:Drogaria São Paulo,brand:wikidata:Q5308184,brand:wikipedia:en:Grupo DPSP,healthcare:pharmacy","lat":-23.6442298,"lng":-46.6731612},{"id":"5125924064","name":"Bradesco","tags":"amenity:bank,brand:Bradesco,brand:wikidata:Q806181,brand:wikipedia:en:Banco Bradesco","lat":-23.644097,"lng":-46.6733597},{"id":"5125926448","name":"Agência dos Correios - AGF Chacara Monte Alegre","tags":"amenity:post_office","lat":-23.6437746,"lng":-46.6739672},{"id":"8984081812","name":"La Pasta Giala","tags":"amenity:restaurant","lat":-23.6465433,"lng":-46.6702813}]