[{"id":"1056948107","name":"Faculdade Cásper Líbero","tags":"addr:city:São Paulo,addr:housenumber:900,addr:street:Avenida Paulista,amenity:university,wikidata:Q5091543,wikipedia:pt:Faculdade Cásper Líbero","lat":-23.5655573,"lng":-46.6510915},{"id":"1180813951","name":"Ghost Bike Márcia Prado","tags":"historic:memorial,memorial:ghost_bike,tourism:attraction","lat":-23.5641167,"lng":-46.6530247},{"id":"2576273169","name":"Starbucks","tags":"addr:city:São Paulo,addr:housenumber:1499 L2,addr:postcode:01311-200,addr:street:Avenida Paulista,amenity:cafe,brand:Starbucks,brand:wikidata:Q37158,brand:wikipedia:en:Starbucks,cuisine:coffee_shop,internet_access:wlan,official_name:Starbucks Coffee,takeaway:yes","lat":-23.562291,"lng":-46.6557866},{"id":"2972400179","name":"Bistro Reserva","tags":"amenity:restaurant,cuisine:international,phone:+55 11 3287-3529,website:https://www.reservacultural.com.br/","lat":-23.5653467,"lng":-46.6513527},{"id":"3232289422","name":"Itaú Personalite","tags":"addr:city:São Paulo,addr:housenumber:1294,addr:postcode:01310-100,addr:street:Avenida Paulista,amenity:bank,entrance:yes,opening_hours:Mo-Fr 10:00-16:00","lat":-23.5631921,"lng":-46.6540145},{"id":"3621336510","name":"Bradesco","tags":"addr:city:São Paulo,addr:housenumber:967,addr:postcode:01311-100,addr:street:Avenida Paulista,amenity:bank,brand:Bradesco,brand:wikidata:Q806181,brand:wikipedia:en:Banco Bradesco,opening_hours:Mo-Fr 10:00-16:00","lat":-23.5655627,"lng":-46.6520045},{"id":"3621336511","name":"Drogasil","tags":"addr:city:São Paulo,addr:country:BR,addr:housenumber:995,addr:postcode:01311-100,addr:state:São Paulo,addr:street:Avenida Paulista,amenity:pharmacy,brand:Drogasil,brand:wikidata:Q5308185,brand:wikipedia:pt:Drogasil,contact:email:contato@drogasil.com.br,contact:phone:+55 11 3286-0114;+55 11 3253-2501,contact:website:https://www.drogasil.com.br/,healthcare:pharmacy,opening_hours:Mo-Sa 07:00-23:00; Su 08:00-22:00,wheelchair:yes","lat":-23.5654273,"lng":-46.6520986},{"id":"3621336513","name":"Itaú","tags":"addr:city:São Paulo,addr:housenumber:1151,addr:postcode:01311-200,addr:street:Avenida Paulista,amenity:bank,brand:Itaú Unibanco,brand:wikidata:Q1424293,brand:wikipedia:pt:Itaú Unibanco","lat":-23.5643244,"lng":-46.6532951},{"id":"3621336514","name":"Drogasil","tags":"addr:city:São Paulo,addr:country:BR,addr:housenumber:1257,addr:postcode:01311-200,addr:state:São Paulo,addr:street:Avenida Paulista,amenity:pharmacy,contact:phone:+55 11 3251-5252,healthcare:pharmacy","lat":-23.563772,"lng":-46.6540412},{"id":"3621336515","name":"Drogaria São Paulo","tags":"addr:city:São Paulo,addr:country:BR,addr:housenumber:1227,addr:postcode:01311-200,addr:state:São Paulo,addr:street:Avenida Paulista,amenity:pharmacy,brand:Drogaria São Paulo,brand:wikidata:Q5308184,brand:wikipedia:en:Grupo DPSP,contact:phone:+55 11 3288-8061;+55 11 3289-4182,contact:website:http://www.drogariasaopaulo.com.br/,healthcare:pharmacy,opening_hours:24/7","lat":-23.5640496,"lng":-46.6537481},{"id":"3621336516","name":"Santander","tags":"addr:city:São Paulo,addr:housenumber:1374B,addr:postcode:01310-100,addr:street:Avenida Paulista,amenity:bank,brand:Santander,brand:wikidata:Q5835668,brand:wikipedia:en:Santander Bank","lat":-23.562578,"lng":-46.6547644},{"id":"3621336517","name":"Bradesco","tags":"addr:city:São Paulo,addr:housenumber:1415,addr:postcode:01311-200,addr:street:Avenida Paulista,amenity:bank,brand:Bradesco,brand:wikidata:Q806181,brand:wikipedia:en:Banco Bradesco,entrance:yes,opening_hours:Mo-Fr 10:00-16:00","lat":-23.5627548,"lng":-46.6552616},{"id":"3621336518","name":"Bradesco Prime","tags":"addr:city:São Paulo,addr:housenumber:1450,addr:postcode:01310-100,addr:street:Avenida Paulista,amenity:bank,entrance:yes,opening_hours:Mo-Fr 10:00-16:00","lat":-23.5622367,"lng":-46.6550988},{"id":"3621336519","name":"Banco do Brasil Estilo","tags":"addr:city:São Paulo,addr:housenumber:1500,addr:postcode:01310-100,addr:street:Avenida Paulista,amenity:bank,entrance:yes,opening_hours:Mo-Fr 10:00-16:00","lat":-23.5620546,"lng":-46.6554004},{"id":"3621336520","name":"Bradesco","tags":"addr:city:São Paulo,addr:housenumber:1708,addr:postcode:01310-200,addr:street:Avenida Paulista,amenity:bank,brand:Bradesco,brand:wikidata:Q806181,brand:wikipedia:en:Banco Bradesco,entrance:yes,opening_hours:Mo-Fr 10:00-16:00","lat":-23.5605324,"lng":-46.6570221},{"id":"3621336522","name":"Citibank","tags":"addr:city:São Paulo,addr:housenumber:1776,addr:postcode:01310-200,addr:street:Avenida Paulista,amenity:bank,brand:Citibank,brand:wikidata:Q857063,brand:wikipedia:en:Citibank,entrance:yes,opening_hours:Mo-Fr 10:00-16:00,short_name:Citi","lat":-23.5602519,"lng":-46.6574316},{"id":"3890509457","name":"Itaú","tags":"addr:city:São Paulo,addr:postcode:01310-100,addr:street:Avenida Paulista,amenity:bank,atm:yes,brand:Itaú Unibanco,brand:wikidata:Q1424293,brand:wikipedia:pt:Itaú Unibanco,drive_through:no,operator:Itaú Unibanco","lat":-23.5639675,"lng":-46.6530132},{"id":"4024140670","name":"Manteigaria Lisboa","tags":"addr:city:São Paulo,addr:housenumber:674,addr:postcode:01405-001,addr:street:Rua Pamplona,amenity:cafe,cuisine:portuguese,email:contato@manteigarialisboa.com,internet_access:wlan,name:en:Manteigaria,phone:+55 11 3032-2229","lat":-23.5640284,"lng":-46.6541854},{"id":"4128587056","name":"Citibank","tags":"addr:city:São Paulo,addr:housenumber:1111,addr:postcode:01311-920,addr:street:Avenida Paulista,amenity:bank,atm:yes,brand:Citibank,brand:wikidata:Q857063,brand:wikipedia:en:Citibank,contact:website:https://www.citibank.com.br,opening_hours:Mo-Fr 10:00-16:00,phone:+55 11 4009-2536,short_name:Citi","lat":-23.56468,"lng":-46.6532144},{"id":"4128625593","name":"Banco Itaú Personalite","tags":"addr:city:São Paulo,addr:housenumber:1000A,addr:postcode:01310-100,addr:street:Avenida Paulista,amenity:bank","lat":-23.5647754,"lng":-46.6518832},{"id":"4139871552","name":"Drogaria São Paulo","tags":"addr:city:São Paulo,addr:housenumber:1766,addr:postcode:01310-200,addr:street:Avenida Paulista,amenity:pharmacy,brand:Drogaria São Paulo,brand:wikidata:Q5308184,brand:wikipedia:en:Grupo DPSP,healthcare:pharmacy","lat":-23.5603851,"lng":-46.6573121},{"id":"4535431189","name":"Charme da Paulista","tags":"addr:city:São Paulo,addr:housenumber:1499 L1,addr:postcode:01311-200,addr:street:Avenida Paulista,amenity:bar,name:pt:Charme da Paulista,outdoor_seating:yes","lat":-23.5622306,"lng":-46.6558687},{"id":"4562098095","name":"Ícone Park Estacionamentos Unidade 2","tags":"access:customers,addr:city:São Paulo,addr:housenumber:130,addr:postcode:01331-000,addr:street:Alameda Ribeirão Preto,addr:suburb:Bela Vista,amenity:parking,capacity:90,fee:yes,opening_hours:24/7,parking:surface,phone:+55 11 3093-0800,supervised:yes,website:http://www.iconepark.com.br/,wheelchair:yes","lat":-23.5645703,"lng":-46.6485561},{"id":"4742364437","name":"Pirajá","tags":"addr:city:São Paulo,addr:housenumber:998,addr:postcode:01409-000,addr:street:Alameda Santos,amenity:bar,cuisine:brazilian,name:en:Piraja","lat":-23.5618033,"lng":-46.6582084},{"id":"4777501843","name":"Citibank","tags":"addr:city:São Paulo,addr:housenumber:1146,addr:postcode:01418-100,addr:street:Alameda Santos,amenity:bank,brand:Citibank,brand:wikidata:Q857063,brand:wikipedia:en:Citibank,short_name:Citi","lat":-23.5652911,"lng":-46.6536988},{"id":"4939136891","tags":"addr:city:São Paulo,addr:housenumber:277,addr:postcode:01332-030,addr:street:Rua Carlos Comenale,amenity:restaurant,cuisine:french","lat":-23.5603694,"lng":-46.6563246},{"id":"4939136895","name":"SP Bar e Restaurante","tags":"addr:city:São Paulo,addr:housenumber:243,addr:postcode:01332-030,addr:street:Rua Carlos Comenale,amenity:restaurant","lat":-23.560432,"lng":-46.6562556},{"id":"4939136897","tags":"addr:city:São Paulo,addr:housenumber:239,addr:postcode:01332-030,addr:street:Rua Carlos Comenale,amenity:parking","lat":-23.5605,"lng":-46.6561807},{"id":"4940478524","tags":"addr:city:São Paulo,addr:housenumber:1488,addr:postcode:01310-100,addr:street:Avenida Paulista,amenity:parking,fee:yes,supervised:yes,surface:paved","lat":-23.5620951,"lng":-46.6553557},{"id":"4940478529","name":"Bradesco","tags":"addr:city:São Paulo,addr:housenumber:782,addr:postcode:01332-000,addr:street:Rua Itapeva,amenity:bank,brand:Bradesco,brand:wikidata:Q806181,brand:wikipedia:en:Banco Bradesco,entrance:yes,opening_hours:Mo-Fr 10:00-16:00","lat":-23.5620417,"lng":-46.6546103},{"id":"4940650343","name":"Armazen Cerealista","tags":"addr:city:São Paulo,addr:housenumber:726,addr:postcode:01405-001,addr:street:Rua Pamplona,shop:supermarket","lat":-23.5643848,"lng":-46.6545298},{"id":"4940650348","tags":"addr:city:São Paulo,addr:housenumber:712,addr:postcode:01405-001,addr:street:Rua Pamplona,amenity:post_office","lat":-23.5642336,"lng":-46.6544977},{"id":"4940650355","name":"Arabek","tags":"addr:city:São Paulo,addr:housenumber:684,addr:postcode:01405-001,addr:street:Rua Pamplona,amenity:restaurant,cuisine:arab","lat":-23.5641087,"lng":-46.654263},{"id":"4940939085","name":"Casa do Pão de Queijo","tags":"addr:city:São Paulo,addr:housenumber:1290,addr:postcode:01418-100,addr:street:Alameda Santos,amenity:cafe","lat":-23.5644487,"lng":-46.6548149},{"id":"4940939094","tags":"addr:city:São Paulo,addr:housenumber:1392,addr:postcode:01418-100,addr:street:Alameda Santos,amenity:parking,fee:yes,supervised:yes,surface:paved","lat":-23.5638479,"lng":-46.6555276},{"id":"4940939096","name":"Bradesco","tags":"addr:city:São Paulo,addr:housenumber:1432,addr:postcode:01418-100,addr:street:Alameda Santos,amenity:bank,brand:Bradesco,brand:wikidata:Q806181,brand:wikipedia:en:Banco Bradesco,entrance:yes,opening_hours:Mo-Fr 10:00-16:00","lat":-23.5634745,"lng":-46.6558542},{"id":"4940939100","name":"Gardens Restaurante","tags":"addr:city:São Paulo,addr:housenumber:1482,addr:postcode:01418-100,addr:street:Alameda Santos,amenity:restaurant","lat":-23.5633146,"lng":-46.6561158},{"id":"4940939101","name":"Le Monde","tags":"addr:city:São Paulo,addr:housenumber:1486,addr:postcode:01418-100,addr:street:Alameda Santos,amenity:restaurant","lat":-23.56329,"lng":-46.6561453},{"id":"4940939102","name":"Menta Café","tags":"addr:city:São Paulo,addr:housenumber:1490,addr:postcode:01418-100,addr:street:Alameda Santos,amenity:cafe","lat":-23.5632736,"lng":-46.656165},{"id":"4940939104","name":"Banco Sofisa","tags":"addr:city:São Paulo,addr:housenumber:1496,addr:postcode:01418-100,addr:street:Alameda Santos,amenity:bank,opening_hours:Mo-Fr 10:00-16:00","lat":-23.5631532,"lng":-46.656295},{"id":"4940939107","name":"Booz Restaurante","tags":"addr:city:São Paulo,addr:housenumber:1510B,addr:postcode:01418-102,addr:street:Alameda Santos,amenity:restaurant","lat":-23.5629512,"lng":-46.6565977},{"id":"4940939109","name":"Car Park","tags":"addr:city:São Paulo,addr:housenumber:41,addr:postcode:01408-001,addr:street:Alameda Casa Branca,amenity:parking,fee:yes,parking:underground,supervised:yes,surface:paved","lat":-23.562622,"lng":-46.656318},{"id":"4940939115","name":"BubbleKill","tags":"addr:city:São Paulo,addr:housenumber:1471,addr:postcode:01311-200,addr:street:Avenida Paulista,amenity:cafe","lat":-23.5624509,"lng":-46.6556124},{"id":"4940939117","name":"Banco Santander","tags":"addr:city:São Paulo,addr:housenumber:1439,addr:postcode:01311-200,addr:street:Avenida Paulista,amenity:bank,brand:Banco Santander,brand:en:Santander Bank,brand:es:Banco Santander,brand:wikidata:Q6496310,brand:wikipedia:es:Banco Santander,name:en:Santander Bank,name:es:Banco Santander,official_name:Santander Group,opening_hours:Mo-Fr 10:00-16:00","lat":-23.5626613,"lng":-46.6554154},{"id":"4940939119","tags":"addr:city:São Paulo,addr:housenumber:1373,addr:postcode:01311-200,addr:street:Avenida Paulista,amenity:parking,fee:yes,supervised:yes,surface:paved","lat":-23.5630398,"lng":-46.6549145},{"id":"4940940123","name":"Itaú","tags":"addr:city:São Paulo,addr:housenumber:1337,addr:postcode:01311-200,addr:street:Avenida Paulista,amenity:bank,entrance:yes,opening_hours:Mo-Fr 10:00-16:00","lat":-23.5632793,"lng":-46.6546269},{"id":"4944958600","name":"Estapar","tags":"addr:city:São Paulo,addr:housenumber:725,addr:postcode:01332-000,addr:street:Rua Itapeva,amenity:parking,fee:yes,supervised:yes,surface:paved","lat":-23.56213,"lng":-46.6543846},{"id":"4945044206","name":"Docas Carga e Descarga","tags":"addr:city:São Paulo,addr:housenumber:627,addr:postcode:01333-001,addr:street:Rua São Carlos do Pinhal,shop:mall","lat":-23.5631911,"lng":-46.6524085},{"id":"4945044209","name":"Casinha Mineira","tags":"addr:city:São Paulo,addr:housenumber:445,addr:postcode:01333-001,addr:street:Rua São Carlos do Pinhal,amenity:restaurant,cuisine:regional","lat":-23.5638214,"lng":-46.6516347},{"id":"4945044212","name":"Kare House","tags":"addr:city:São Paulo,addr:housenumber:234,addr:postcode:01404-000,addr:street:Alameda Campinas,amenity:restaurant","lat":-23.5640446,"lng":-46.6515502},{"id":"4945044213","name":"Restaurante Recanto 2","tags":"addr:city:São Paulo,addr:housenumber:242,addr:postcode:01404-000,addr:street:Alameda Campinas,amenity:restaurant","lat":-23.5640915,"lng":-46.651565},{"id":"4945044214","name":"Vita Natural","tags":"addr:city:São Paulo,addr:housenumber:244,addr:postcode:01404-000,addr:street:Alameda Campinas,amenity:restaurant,contact:facebook:https://www.facebook.com/vitanatural.vegano/,contact:instagram:https://www.instagram.com/vitanatural.vegano/,diet:vegan:only,opening_hours:11:30-15:30,self_service:yes","lat":-23.5641188,"lng":-46.6515912},{"id":"4945044215","name":"Restaurante Vila Campinas","tags":"addr:city:São Paulo,addr:housenumber:250,addr:postcode:01404-000,addr:street:Alameda Campinas,amenity:restaurant","lat":-23.5641483,"lng":-46.6516194},{"id":"4945044218","name":"Globo Park","tags":"addr:city:São Paulo,addr:housenumber:290,addr:postcode:01404-000,addr:street:Alameda Campinas,amenity:parking,fee:yes,supervised:yes,surface:paved","lat":-23.5643993,"lng":-46.6519135},{"id":"4945046021","name":"Estapar","tags":"addr:city:São Paulo,addr:housenumber:1098,addr:postcode:01310-100,addr:street:Avenida Paulista,amenity:parking,fee:yes,layer:-1,parking:underground,supervised:yes,surface:paved","lat":-23.5644584,"lng":-46.6525313},{"id":"4945785807","name":"kamisana Doces e Conveniências","tags":"addr:city:São Paulo,addr:housenumber:1027,addr:postcode:01311-100,addr:street:Avenida Paulista,shop:convenience","lat":-23.5652024,"lng":-46.6523688},{"id":"4945785813","tags":"addr:city:São Paulo,addr:postcode:01311-100,addr:street:Avenida Paulista,amenity:parking,fee:yes,layer:-1,parking:underground,supervised:yes,surface:paved","lat":-23.5654962,"lng":-46.6520896},{"id":"4945785815","name":"Bradesco Prime","tags":"addr:city:São Paulo,addr:housenumber:949A,addr:postcode:01311-100,addr:street:Avenida Paulista,amenity:bank","lat":-23.5656544,"lng":-46.6517664},{"id":"4945788538","tags":"addr:city:São Paulo,addr:housenumber:423,addr:postcode:01404-100,addr:street:Alameda Campinas,amenity:parking,fee:yes,layer:-1,parking:underground,supervised:yes,surface:paved","lat":-23.5654738,"lng":-46.6526875},{"id":"4947759375","name":"Unip","tags":"addr:city:São Paulo,addr:housenumber:886,addr:postcode:01310-100,addr:street:Avenida Paulista,amenity:university","lat":-23.5656734,"lng":-46.6510828},{"id":"4947759382","name":"Edifício Paulista Mil","tags":"addr:city:São Paulo,addr:housenumber:403,addr:postcode:01333-001,addr:street:Rua São Carlos do Pinhal,amenity:parking,fee:yes,supervised:yes,surface:paved","lat":-23.5641889,"lng":-46.6512282},{"id":"4947759384","name":"Objetivo","tags":"addr:city:São Paulo,addr:housenumber:303,addr:postcode:01333-001,addr:street:Rua São Carlos do Pinhal,amenity:school","lat":-23.5646891,"lng":-46.6505607},{"id":"4964023968","tags":"addr:city:São Paulo,addr:housenumber:421A,addr:postcode:01403-001,addr:street:Alameda Joaquim Eugênio de Lima,amenity:parking,fee:yes,supervised:yes,surface:paved","lat":-23.5655908,"lng":-46.6501125},{"id":"5159984781","name":"Trianon-Masp","tags":"public_transport:station,railway:station,station:subway,subway:yes,wikidata:Q3071513","lat":-23.5633121,"lng":-46.6542028},{"id":"5209256522","name":"Hakka Sushi","tags":"addr:city:São Paulo,addr:housenumber:239,addr:postcode:01410-001,addr:street:Alameda Ministro Rocha Azevedo,amenity:restaurant,cuisine:japanese,website:http://www.hakkasushi.com.br/","lat":-23.5606707,"lng":-46.6584706},{"id":"5266167426","name":"MASP Suplicy","tags":"amenity:cafe,outdoor_seating:no","lat":-23.5618,"lng":-46.6558},{"id":"5266416223","name":"Petclube","tags":"shop:pet","lat":-23.5650666,"lng":-46.6553305},{"id":"5266430021","tags":"shop:beauty","lat":-23.5656416,"lng":-46.6555302},{"id":"5266445332","name":"Cheiro Verde","tags":"addr:city:São Paulo,addr:housenumber:1078,addr:postcode:01409-000,addr:street:Rua Peixoto Gomide,amenity:restaurant","lat":-23.5624333,"lng":-46.6588266},{"id":"5421218021","name":"Patisserie Douce France","tags":"amenity:cafe","lat":-23.5639105,"lng":-46.6548974},{"id":"5705143521","name":"Café do Mirante","tags":"amenity:cafe,internet_access:wlan","lat":-23.5606459,"lng":-46.6552343},{"id":"6121126261","name":"Drogaria São Paulo","tags":"amenity:pharmacy,brand:Drogaria São Paulo,brand:wikidata:Q5308184,brand:wikipedia:en:Grupo DPSP,dispensing:yes,healthcare:pharmacy,wheelchair:yes","lat":-23.5656117,"lng":-46.6533489},{"id":"6960265017","name":"Itaú","tags":"amenity:bank,brand:Itaú Unibanco,brand:wikidata:Q1424293,brand:wikipedia:pt:Itaú Unibanco","lat":-23.5602179,"lng":-46.6519426},{"id":"7833509712","name":"Alecrim Restaurante","tags":"addr:city:São Paulo,addr:housenumber:1002,addr:postcode:01409-000,addr:street:Rua Peixoto Gomide,amenity:restaurant","lat":-23.5619231,"lng":-46.6583278},{"id":"7833509715","name":"Nutrikilo","tags":"addr:city:São Paulo,addr:housenumber:1066,addr:postcode:01409-000,addr:street:Rua Peixoto Gomide,amenity:restaurant","lat":-23.5623584,"lng":-46.6587522},{"id":"7833639568","name":"La Arena Parilla","tags":"addr:city:São Paulo,addr:housenumber:263,addr:postcode:01410-001,addr:street:Alameda Ministro Rocha Azevedo,amenity:restaurant","lat":-23.5608021,"lng":-46.6586085},{"id":"7833639569","name":"A Griffe do Filé","tags":"addr:city:São Paulo,addr:housenumber:267,addr:postcode:01410-001,addr:street:Alameda Ministro Rocha Azevedo,amenity:restaurant","lat":-23.5608624,"lng":-46.6586708},{"id":"7833639571","name":"Savana Bar e Restaurante","tags":"addr:city:São Paulo,addr:housenumber:251,addr:postcode:01410-001,addr:street:Alameda Ministro Rocha Azevedo,amenity:restaurant","lat":-23.5609667,"lng":-46.658801},{"id":"9393230498","name":"Minuto Pão de Açúcar","tags":"addr:city:São Paulo,addr:district:Bela Vista,addr:housenumber:466,addr:state:São Paulo,cash_withdrawal:No,cash_withdrawal:currency:BRL,cash_withdrawal:foreign_cards:yes,cash_withdrawal:purchase_minimum:no,cash_withdrawal:type:checkout,changing_table:no,level:0,opening_hours:Mo-Sa 07:00-22:00; PH,Su 08:00-20:00,organic:yes,shop:supermarket,toilets:no,toilets:access:private,toilets:wheelchair:no,wheelchair:yes","lat":-23.5624353,"lng":-46.6511003},{"id":"9394857231","name":"Fast Store","tags":"changing_table:no,level:0,opening_hours:24/7,organic:no,shop:convenience,toilets:yes,toilets:access:customers,toilets:wheelchair:no,wheelchair:yes","lat":-23.5643236,"lng":-46.6492964},{"id":"9397076621","name":"Terraço Paulista","tags":"amenity:restaurant,cuisine:brazilian,delivery:yes,level:0,outdoor_seating:yes,self_service:yes,smoking:no,stars:3,takeaway:no,wheelchair:yes","lat":-23.5651348,"lng":-46.6496864},{"id":"9400602115","name":"Monte Verde Cantina e Pizzaria","tags":"addr:housenumber:467,addr:street:Alameda Ribeirão Preto,amenity:restaurant,cuisine:italian;pasta;pizza,delivery:Ifood,internet_access:yes,internet_access:fee:no,level:0,outdoor_seating:yes,reservation:no,smoking:no,stars:3,toilets:yes,toilets:access:customers,toilets:wheelchair:designated,wheelchair:yes","lat":-23.5617932,"lng":-46.6518178},{"id":"9429622028","name":"Bánh Mì Vietnam","tags":"addr:housenumber:44,addr:street:Rua Doutor Seng,addr:suburb:Bela Vista,amenity:restaurant,cuisine:vietnamese,diet:vegan:yes,opening_hours:Su 12:30-16:30; Sa 12:30-15:30,18:30-21:30; We-Fr 11:30-15:30, 17:30-21:30,website:https://banh-mi-vietnam.goomer.app/menu","lat":-23.563165,"lng":-46.6497914},{"id":"9465998284","name":"Divas e Galãs","tags":"addr:housenumber:302,addr:street:Alameda Ribeirão Preto,beauty:hair_removal;hair,level:0,shop:beauty,wheelchair:no,wheelchair:step_height:30","lat":-23.563564,"lng":-46.6497287},{"id":"9500999661","name":"Drogasil","tags":"amenity:pharmacy,brand:Drogasil,dispensing:yes,healthcare:pharmacy,level:0,opening_hours:07:00-23:00,operator:Drogasil,wheelchair:yes","lat":-23.5618902,"lng":-46.6523349},{"id":"9509304019","tags":"access:customers,addr:housenumber:314,addr:street:Alameda Ribeirão Preto,amenity:parking,fee:yes,lit:yes,park_ride:no,parking:surface,parking:orientation:parallel,supervised:yes","lat":-23.5633228,"lng":-46.6500595},{"id":"9711130772","name":"Oxxo","tags":"addr:street:Alameda Ribeirão Preto,brand:Oxxo,level:0,shop:convenience","lat":-23.5641259,"lng":-46.649028},{"id":"9711142219","tags":"addr:street:Alameda Ribeirão Preto,amenity:restaurant,cuisine:pizza,delivery:Mo-Su,level:0,takeaway:yes","lat":-23.5640274,"lng":-46.6492092},{"id":"9848226599","name":"Café Crio","tags":"addr:city:São Paulo,addr:housenumber:1470,addr:postcode:01419-002,addr:street:Alameda Santos,addr:suburb:Bela Vista,amenity:cafe,cuisine:cafe;pao_de_queijo,internet_access:yes,internet_access:fee:no,opening_hours:Mo-Fr 09:00-19:00,outdoor_seating:yes,phone:+55 (11) 93936-0385,website:https://www.crio.cafe/,wheelchair:yes","lat":-23.5633335,"lng":-46.6560812}]