[{"id":"3958870257","name":"Academia SmartFit Bonfiglioli","tags":"addr:city:São Paulo,addr:housenumber:616,addr:postcode:05588-000,addr:street:Avenida Engenheiro Heitor Antônio Eiras Garcia,leisure:sports_centre,opening_hours:Mo-Fr 06:00-23:00; Sa 09:00-18:00; Su 10:00-16:00,website:https://www.smartfit.com.br/","lat":-23.5760212,"lng":-46.7419981},{"id":"4139584794","name":"A Paneleira","tags":"addr:city:São Paulo,addr:housenumber:2430,addr:postcode:05340-000,addr:street:Avenida Corifeu de Azevedo Marques,amenity:restaurant","lat":-23.5733932,"lng":-46.7364891},{"id":"4150326112","tags":"access:customers,amenity:parking,fee:yes","lat":-23.5724562,"lng":-46.7392384},{"id":"4164293389","tags":"addr:city:São Paulo,addr:housenumber:2787,addr:postcode:05339-000,addr:street:Avenida Corifeu de Azevedo Marques,shop:beauty","lat":-23.5712749,"lng":-46.7400485},{"id":"4248698378","tags":"addr:city:São Paulo,addr:housenumber:2831,addr:postcode:05339-000,addr:street:Avenida Corifeu de Azevedo Marques,addr:suburb:Vila Lageado,amenity:restaurant","lat":-23.5715502,"lng":-46.7398083},{"id":"5263670021","name":"Biblioteca Camila Cerqueira César","tags":"access:yes,addr:city:São Paulo,addr:housenumber:41,addr:street:Rua Valdemar Sanches,amenity:library,email:bcsp.ccesar@prefeitura.sp.gov.br,phone:+55-11-3731-5210,website:https://www.prefeitura.sp.gov.br/cidade/secretarias/cultura/bibliotecas/bibliotecas_bairro/bibliotecas_a_l/camilacerqueiracesar/,wheelchair:yes","lat":-23.5759742,"lng":-46.738172},{"id":"6491832811","name":"Dia","tags":"addr:housenumber:21,addr:postcode:05589020,addr:street:Rua Manoel Alonso Esteves,opening_hours:Mo-Sa 08:00-20:00; Su 08:00-14:00,phone:+55 11 4002-1080,shop:supermarket","lat":-23.5749839,"lng":-46.739533}]