[{"id":"1741782835","name":"Drogaria Stella","tags":"addr:street:Rua Caiubi,amenity:pharmacy,dispensing:yes,drive_through:no,healthcare:pharmacy","lat":-23.6838345,"lng":-46.5398235},{"id":"1741782836","name":"Mercadinho São Sebastião","tags":"shop:supermarket","lat":-23.6837068,"lng":-46.539904},{"id":"4553196571","name":"Bradesco","tags":"amenity:atm,brand:Bradesco,brand:wikidata:Q806181,brand:wikipedia:en:Banco Bradesco,currency:BRL:yes,drive_through:no,network:Bradesco,operator:Bradesco,operator:wikidata:Q806181,operator:wikipedia:en:Banco Bradesco","lat":-23.6863096,"lng":-46.5468695},{"id":"4553196573","name":"Café Floresta","tags":"addr:city:Santo André,addr:country:BR,addr:housenumber:1500,addr:street:Avenida Pereira Barreto,addr:suburb:Baeta Neves,amenity:cafe,cuisine:regional,internet_access:no","lat":-23.6858528,"lng":-46.5466603},{"id":"9632462622","name":"São Judas","tags":"addr:housenumber:1479,addr:postcode:09751-000,addr:street:Avenida Pereira Barreto,addr:suburb:Centro,amenity:university,phone:+55 11 2799 1677,website:https://www.usjt.br/unidades/sao-bernardo-campo/#","lat":-23.6854394,"lng":-46.5480307}]