[{"id":"1770523099","name":"Dia","tags":"brand:Dia,brand:wikidata:Q925132,brand:wikipedia:es:Supermercados DIA,shop:supermarket","lat":-23.6525778,"lng":-46.6587144},{"id":"5001231976","name":"Santander","tags":"amenity:bank,brand:Santander,brand:wikidata:Q5835668,brand:wikipedia:en:Santander Bank","lat":-23.6531179,"lng":-46.6576794},{"id":"5001231977","name":"Banco do Brasil","tags":"amenity:bank,brand:Banco do Brasil,brand:wikidata:Q610817,brand:wikipedia:en:Banco do Brasil","lat":-23.6528771,"lng":-46.6579047},{"id":"5126808830","name":"Igreja Presbiteriana do Jabaquara","tags":"addr:street:Rua dos Marapés,amenity:place_of_worship,building:church,denomination:presbyterian,religion:christian","lat":-23.6533591,"lng":-46.6485143},{"id":"5126819833","name":"Comunidade Cristã Paz e Vida","tags":"amenity:place_of_worship,building:church,denomination:neo-pentecostal,religion:christian","lat":-23.6505201,"lng":-46.6586799}]