[{"id":"1393378082","name":"Praça Bon Caccino","tags":"leisure:park","lat":-23.5933372,"lng":-46.6545622},{"id":"1769540780","name":"Bar da Piscina","tags":"amenity:restaurant,cuisine:regional","lat":-23.5947018,"lng":-46.6522327},{"id":"2797920669","name":"São Paulo Tokyo","tags":"addr:city:São Paulo,addr:housenumber:1172,addr:street:Rua Borges Lagoa,addr:suburb:Vila Clementino,amenity:restaurant,cuisine:japanese,phone:+55 11 5081-6444,smoking:outside,wheelchair:yes","lat":-23.5964985,"lng":-46.6482547},{"id":"2812233693","name":"Carandá","tags":"amenity:school","lat":-23.5949383,"lng":-46.6498814},{"id":"4518057075","name":"Caixa Econômica Federal","tags":"addr:city:São Paulo,addr:street:Rua Borges Lagoa,amenity:bank,atm:yes,operator:Caixa Econômica Federal,toilets:wheelchair:yes,wheelchair:yes","lat":-23.5968323,"lng":-46.6480219},{"id":"5730401533","name":"AACD – Servidor","tags":"network:Linha 5 - Lilás,operator:Via Mobilidade,public_transport:station,railway:station,start_date:2018-08-31,station:subway,subway:yes,wikidata:Q5908613","lat":-23.5978482,"lng":-46.6523883},{"id":"6635973351","name":"Zapata","tags":"amenity:restaurant","lat":-23.5964224,"lng":-46.6492975}]