[{"id":"2553532067","name":"Amigão","tags":"addr:street:Avenida Robert Kennedy,amenity:car_wash,automated:no,self_service:no","lat":-23.6961467,"lng":-46.5794708},{"id":"2576318231","name":"Bruxas","tags":"access:yes,addr:city:Diadema,addr:street:Rua dos Escudeiros,amenity:parking,fee:yes,parking:surface,supervised:yes,surface:paved","lat":-23.6926967,"lng":-46.5818556},{"id":"2594495751","tags":"access:private,addr:city:São Bernardo do Campo,addr:street:Rua dos Escudeiros,amenity:parking,fee:yes,supervised:yes","lat":-23.6927657,"lng":-46.5812678},{"id":"2599660607","name":"Farmárcia Fabrini","tags":"addr:city:São Bernardo do Campo,addr:housenumber:460,addr:postcode:09861-160,addr:street:Avenida Moinho Fabrini,addr:suburb:Jardim Brasília,amenity:pharmacy,dispensing:yes,drive_through:no,healthcare:pharmacy","lat":-23.6968965,"lng":-46.5816939},{"id":"7094776891","name":"Mercado Velasco","tags":"addr:housenumber:421,addr:street:Avenida Moinho Fabrini,phone:+55 11 4343 4667,shop:supermarket","lat":-23.6965025,"lng":-46.5814985},{"id":"8826146355","name":"Policar","tags":"addr:street:Rua Rosa e Silva,amenity:car_wash,automated:no,phone:+55 11 4392 6920,self_service:no","lat":-23.6966632,"lng":-46.5812943},{"id":"8826146356","name":"Canto dos Pássaros","tags":"addr:housenumber:438,addr:street:Avenida Moinho Fabrini,contact:mobile:+55 11 99250 6943,phone:+55 11 4343 4824,shop:pet","lat":-23.6966459,"lng":-46.5817297},{"id":"9288047112","tags":"addr:street:Rua Bueno de Paiva,shop:beauty","lat":-23.6940771,"lng":-46.5805816}]