[{"id":"2480793003","name":"Bartataria da Vovó","tags":"addr:city:São Paulo,addr:housenumber:807,addr:postcode:01545-001,addr:street:Rua Coronel Diogo,amenity:bar","lat":-23.5781141,"lng":-46.6199869},{"id":"3559321867","tags":"addr:city:São Paulo,addr:housenumber:1941,addr:postcode:01536-001,addr:street:Avenida Lacerda Franco,amenity:pharmacy,healthcare:pharmacy","lat":-23.5797708,"lng":-46.6257122},{"id":"3559683593","name":"Rede Bem Drogarias","tags":"addr:city:São Paulo,addr:housenumber:1361,addr:postcode:01545-001,addr:street:Rua Coronel Diogo,amenity:pharmacy,healthcare:pharmacy","lat":-23.5808039,"lng":-46.6156083},{"id":"3826481546","tags":"amenity:car_wash","lat":-23.5783563,"lng":-46.6217107},{"id":"4015903412","name":"ampm","tags":"brand:ampm,brand:wikidata:Q306960,brand:wikipedia:en:Ampm,shop:convenience","lat":-23.5799338,"lng":-46.6240743},{"id":"4015903450","tags":"amenity:car_wash","lat":-23.5767282,"lng":-46.6221846},{"id":"4015903451","tags":"amenity:car_wash","lat":-23.5785473,"lng":-46.6253879},{"id":"4365728458","name":"Filé","tags":"amenity:restaurant,height:5.398","lat":-23.5768315,"lng":-46.6235035},{"id":"4785239537","tags":"amenity:restaurant","lat":-23.5802872,"lng":-46.6150638},{"id":"5288520270","name":"CDD Cambuci","tags":"amenity:post_office","lat":-23.57845,"lng":-46.6232138},{"id":"5288530337","name":"Drogaria São Paulo","tags":"amenity:pharmacy,brand:Drogaria São Paulo,brand:wikidata:Q5308184,brand:wikipedia:en:Grupo DPSP,healthcare:pharmacy","lat":-23.5784848,"lng":-46.6241587},{"id":"5294046091","name":"Drogaria São Paulo","tags":"amenity:pharmacy,brand:Drogaria São Paulo,brand:wikidata:Q5308184,brand:wikipedia:en:Grupo DPSP,healthcare:pharmacy,opening_hours:24/7","lat":-23.5767065,"lng":-46.6234277},{"id":"5294056214","name":"Itaú","tags":"amenity:bank","lat":-23.5791291,"lng":-46.6243866},{"id":"5294067282","name":"Drogasil","tags":"amenity:pharmacy,brand:Drogasil,brand:wikidata:Q5308185,brand:wikipedia:pt:Drogasil,healthcare:pharmacy,wheelchair:yes","lat":-23.5795409,"lng":-46.6239883},{"id":"9558274026","tags":"addr:city:São Paulo,addr:housenumber:1970,addr:street:Avenida Lins de Vasconcelos,amenity:car_wash","lat":-23.5805669,"lng":-46.6247963},{"id":"9885218646","name":"E. E. Gomes Cardim","tags":"amenity:school","lat":-23.5773192,"lng":-46.6250474}]