[{"id":"745723008","tags":"amenity:parking","lat":-23.5611721,"lng":-46.6382169},{"id":"745723009","name":"Bradesco","tags":"amenity:bank,brand:Bradesco,brand:wikidata:Q806181,brand:wikipedia:en:Banco Bradesco","lat":-23.5632326,"lng":-46.6386984},{"id":"745723010","tags":"amenity:parking","lat":-23.5614252,"lng":-46.6383248},{"id":"745723012","name":"FMU","tags":"amenity:university","lat":-23.5606489,"lng":-46.6385492},{"id":"745723017","tags":"amenity:parking","lat":-23.5605361,"lng":-46.6380273},{"id":"2082333804","name":"5ª Delegacia de Polícia","tags":"amenity:police","lat":-23.5655827,"lng":-46.6380598},{"id":"3449922200","name":"Liberdade Grill","tags":"addr:city:São Paulo,addr:housenumber:1088,addr:postcode:01502-001,addr:street:Avenida da Liberdade,amenity:restaurant,cuisine:regional","lat":-23.5621432,"lng":-46.6389122},{"id":"3722288068","name":"Villa Tavola","tags":"addr:housenumber:848,addr:street:Rua Treze de Maio,amenity:restaurant,website:http://www.villatavola.com.br/","lat":-23.5606945,"lng":-46.646332},{"id":"3722288069","name":"Pizzaria Speranza","tags":"addr:housenumber:1004,addr:street:Rua Treze de Maio,amenity:restaurant,cuisine:pizza,opening_hours:Mo-Su 18:00-12:00,website:http://pizzaria.com.br/","lat":-23.5621293,"lng":-46.6461858},{"id":"4564096506","tags":"addr:city:São Paulo,addr:housenumber:1410,addr:postcode:01318-001,addr:street:Avenida Brigadeiro Luís Antônio,amenity:restaurant","lat":-23.5612611,"lng":-46.6441887},{"id":"4652676458","tags":"addr:city:São Paulo,addr:housenumber:1285,addr:postcode:01317-001,addr:street:Avenida Brigadeiro Luís Antônio,amenity:parking,fee:yes,parking:surface,supervised:yes","lat":-23.5605597,"lng":-46.6432541},{"id":"4652676466","tags":"addr:city:São Paulo,addr:housenumber:134,addr:postcode:01322-000,addr:street:Rua Artur Prado,amenity:parking,fee:yes,parking:multi-storey,supervised:yes,surface:paved","lat":-23.5615366,"lng":-46.6428864},{"id":"5371381560","name":"ETAPA - São Joaquim","tags":"amenity:school","lat":-23.561764,"lng":-46.6390076},{"id":"5371396923","name":"Caixa Econômica Federal","tags":"amenity:bank,brand:Caixa Econômica Federal,brand:wikidata:Q835283,brand:wikipedia:pt:Caixa Econômica Federal","lat":-23.5631129,"lng":-46.6391497},{"id":"5894400085","name":"Sukiya Tokyo Bowls & Noodles","tags":"amenity:restaurant,cuisine:japanese","lat":-23.5622655,"lng":-46.6389511},{"id":"6357355291","name":"Mundo Pensante","tags":"addr:housenumber:830,addr:postcode:01327-000,addr:street:Rua Treze de Maio,amenity:nightclub","lat":-23.5605616,"lng":-46.6463612},{"id":"6357370285","name":"Casa Barbosa","tags":"addr:housenumber:559,addr:postcode:01326-010,addr:street:Rua Rui Barbosa,amenity:nightclub","lat":-23.5605075,"lng":-46.6450631},{"id":"7717276955","name":"São Joaquim","tags":"public_transport:station,railway:station,station:subway,subway:yes,wikidata:Q7665498,wikipedia:pt:Estação São Joaquim","lat":-23.5615965,"lng":-46.6386084},{"id":"9923916537","name":"Farmácia Tabajara","tags":"amenity:pharmacy,dispensing:yes,healthcare:pharmacy","lat":-23.562825,"lng":-46.6455586},{"id":"9946480566","name":"Pizzaria Moraes","tags":"amenity:restaurant,website:http://pizzariamoraes.com.br/","lat":-23.5614372,"lng":-46.6444057}]