[{"id":"5126010497","name":"Igreja Universal do Reino de Deus","tags":"amenity:place_of_worship,building:church,religion:christian","lat":-23.6554703,"lng":-46.6554232},{"id":"5126805016","name":"Igreja da Graça","tags":"amenity:place_of_worship,building:church,religion:christian","lat":-23.6543492,"lng":-46.6569794},{"id":"5126813558","name":"Assembléia de Deus","tags":"addr:city:São Paulo,addr:street:Rua Luísa Álvares,addr:suburb:Vila Campestre,amenity:place_of_worship,building:church,denomination:pentecostal,religion:christian","lat":-23.6569829,"lng":-46.6485458},{"id":"5272156486","name":"Bom Brás","tags":"amenity:restaurant","lat":-23.653714,"lng":-46.6571714},{"id":"5272218374","name":"Ayumi","tags":"shop:supermarket","lat":-23.6563004,"lng":-46.6546354},{"id":"5577209327","name":"Drogaria São Paulo","tags":"amenity:pharmacy,brand:Drogaria São Paulo,brand:wikidata:Q5308184,brand:wikipedia:en:Grupo DPSP,healthcare:pharmacy","lat":-23.6568896,"lng":-46.6541291},{"id":"8301194617","name":"Feijão de Corda - Santa Catarina","tags":"addr:street:Avenida Santa Catarina,amenity:restaurant","lat":-23.6543483,"lng":-46.6566259}]