[{"id":"3203462941","name":"Drogaria São Paulo","tags":"addr:city:São Bernardo do Campo,addr:housenumber:3634,addr:postcode:09850-300,addr:street:Avenida Humberto Alencar Castelo Branco,addr:suburb:Parque Neide,amenity:pharmacy,brand:Drogaria São Paulo,brand:wikidata:Q5308184,brand:wikipedia:en:Grupo DPSP,contact:phone:+55 11 4352-5014;+55 11 4351-4506;0800 779 8767,contact:website:http://www.drogariasaopaulo.com.br,dispensing:yes,healthcare:pharmacy","lat":-23.7211449,"lng":-46.5812097},{"id":"4711874190","name":"Droga Neide","tags":"addr:city:São Bernardo do Campo,addr:street:Avenida Humberto de Alencar Castelo Branco,addr:suburb:Parque Neide,amenity:pharmacy,dispensing:yes,drive_through:no,healthcare:pharmacy,phone:+55 11 4109 6161","lat":-23.7214135,"lng":-46.5808005},{"id":"5218838137","name":"Novara Pizzas e Esfihas","tags":"addr:city:São Bernardo do Campo,addr:country:BR,addr:housenumber:3469,addr:street:Avenida Robert Kennedy,addr:suburb:Assunção,amenity:restaurant,contact:phone:+55 11 4104 4199,cuisine:arab;pizza,delivery:yes,phone:+55 4356 4475,takeaway:yes,website:http://pizzarianovara.com.br/#inicio","lat":-23.7211171,"lng":-46.5734574},{"id":"5307589979","tags":"addr:city:São Bernardo do Campo,addr:street:Avenida João Firmino,addr:suburb:Assunção,amenity:restaurant,cuisine:japanese,outdoor_seating:no,smoking:outside","lat":-23.7245618,"lng":-46.573426},{"id":"5449526859","name":"Restaurante Bom Sabor","tags":"addr:city:São Bernardo do Campo,addr:street:Avenida João Firmino,addr:suburb:Assunção,amenity:restaurant,cuisine:regional","lat":-23.7246225,"lng":-46.5734501},{"id":"6517175777","name":"Clinica veterinária Vida Vet","tags":"addr:street:Avenida Robert Kennedy,addr:suburb:Assunção,contact:mobile:+55 11 99819 7364,phone:+55 11 2833 7218,shop:pet","lat":-23.7211861,"lng":-46.5734678},{"id":"6958549889","name":"Recanto da Margarete & Marco Reis","tags":"addr:housenumber:3720,addr:street:Avenida Robert Kennedy,amenity:restaurant,contact:mobile:+55 11 95387 9132,cuisine:regional;fish,opening_hours:Mo off; Tu-We12:00-20:00; Th,Fr 12:00-22:00; Sa 13:00-22:00; Su 10:30-14:00,opening_hours:covid19:off","lat":-23.7233945,"lng":-46.5745432},{"id":"7081621450","name":"Grife da Pizza","tags":"addr:housenumber:934,addr:street:Rua Cristiano Angeli,amenity:restaurant,contact:phone:+55 11 2758 4939,cuisine:pizza,delivery:yes,phone:+55 11 4355 7907","lat":-23.7204104,"lng":-46.5723066},{"id":"8196572676","name":"Cantina Silva","tags":"addr:street:Avenida Robert Kennedy,amenity:restaurant","lat":-23.7208001,"lng":-46.5739074},{"id":"8196572677","tags":"amenity:restaurant,cuisine:pizza","lat":-23.7208355,"lng":-46.573982},{"id":"9849075313","name":"Miados e Latidos Banho e Tosa","tags":"addr:street:Rua Cristiano Angeli,opening_hours:We - Sa 09:00-17:00; Su-Tu , PH off,payment:cash:yes,payment:coins:yes,payment:debit_cards:yes,payment:notes:yes,payment:pix:yes,phone:+55 11 94972 8242,shop:pet","lat":-23.7203814,"lng":-46.5759011},{"id":"9902328209","tags":"addr:street:Rua Cristiano Angeli,addr:suburb:Assunção,amenity:post_office,operator:Correios,operator:wikidata:Q3375004","lat":-23.7203957,"lng":-46.5756637}]