[{"id":"3190899576","name":"Bradesco","tags":"addr:city:Santo André,addr:country:BR,addr:housenumber:969,addr:street:Avenida Itamarati,amenity:bank,atm:yes,brand:Bradesco,brand:wikidata:Q806181,brand:wikipedia:en:Banco Bradesco","lat":-23.6469473,"lng":-46.5146273},{"id":"3190899577","name":"Caixa","tags":"addr:city:Santo André,addr:country:BR,addr:housenumber:949,addr:street:Avenida Itamarati,amenity:bank,atm:yes","lat":-23.6470172,"lng":-46.514691},{"id":"3190899579","name":"A Igreja de Jesus Cristo dos Santos dos Últimos Dias","tags":"amenity:place_of_worship,building:church,denomination:mormon,religion:christian","lat":-23.6457214,"lng":-46.5130861},{"id":"3190899581","name":"Ragazzo","tags":"amenity:restaurant","lat":-23.6466835,"lng":-46.5140732},{"id":"5614323613","name":"G & G","tags":"amenity:restaurant,cuisine:pizza","lat":-23.6474665,"lng":-46.5101118},{"id":"5616356748","tags":"leisure:fitness_centre,sport:pilates","lat":-23.6475721,"lng":-46.5156318},{"id":"5616356765","name":"Mulher.com","tags":"shop:beauty","lat":-23.646394,"lng":-46.5140748},{"id":"5616356771","name":"Drogaria Farmais","tags":"amenity:pharmacy,healthcare:pharmacy","lat":-23.6461127,"lng":-46.5139394},{"id":"5616356772","name":"Pacparela","tags":"amenity:restaurant,cuisine:pizza,delivery:yes","lat":-23.6460875,"lng":-46.5139132},{"id":"5616356782","name":"Asterix","tags":"amenity:restaurant,cuisine:potato","lat":-23.6451028,"lng":-46.5129912},{"id":"5616356786","name":"Sobre Patas","tags":"shop:pet","lat":-23.643276,"lng":-46.512841}]