[{"id":"3905207751","name":"Bengala","tags":"addr:street:Avenida Líder,shop:supermarket","lat":-23.5558496,"lng":-46.4781813},{"id":"3905221227","name":"Itaú","tags":"addr:street:Avenida Líder,amenity:bank,atm:yes,opening_hours:Mo-Fr 10:00-16:00","lat":-23.5559948,"lng":-46.4786341},{"id":"3987967619","name":"Farmais","tags":"addr:city:São Paulo,addr:street:Avenida Líder,addr:suburb:Cidade Líder,amenity:pharmacy,opening_hours:08:00-22:00","lat":-23.5547928,"lng":-46.4807755},{"id":"4028920353","name":"Farmais","tags":"addr:city:São Paulo,addr:housenumber:2765,addr:postcode:08280-190,addr:street:Avenida Maria Luiza Americano,addr:suburb:Cidade Líder,amenity:pharmacy","lat":-23.5583083,"lng":-46.4754267},{"id":"4028953529","name":"Colégio Escrevivendo","tags":"addr:city:São Paulo,addr:housenumber:2140,addr:postcode:08280-000,addr:street:Avenida Líder,addr:suburb:Itaquera,amenity:school","lat":-23.5568066,"lng":-46.4744372}]