[{"id":"1975555698","name":"Le Pain Quotidien","tags":"addr:housenumber:178,addr:street:Rua Pais de Araújo,amenity:cafe,brand:Le Pain Quotidien,brand:wikidata:Q2046903,cuisine:coffee_shop,takeaway:yes","lat":-23.5830802,"lng":-46.6813934},{"id":"2871440836","name":"Biblioteca Anne Frank","tags":"addr:city:São Paulo,addr:housenumber:45,addr:street:Rua Cojuba,amenity:library","lat":-23.5868917,"lng":-46.6840983},{"id":"2958548456","name":"Carcamano","tags":"addr:housenumber:1127,addr:street:Rua Pedroso Alvarenga,amenity:restaurant,cuisine:pizza","lat":-23.5826168,"lng":-46.6812622},{"id":"3520102385","tags":"addr:city:São Paulo,addr:housenumber:257,addr:street:Avenida Horácio Lafer,amenity:restaurant","lat":-23.5874365,"lng":-46.6818162},{"id":"3806751597","name":"Gourmet Tea","tags":"addr:street:Rua Professor Artur Ramos,amenity:restaurant,smoking:outside","lat":-23.5823521,"lng":-46.6866036},{"id":"3806754757","name":"Drogasil","tags":"addr:city:São Paulo,addr:country:BR,addr:housenumber:247,addr:postcode:01453-010,addr:state:SP,addr:street:Rua Doutor Mário Ferraz,amenity:pharmacy,contact:email:atendimento@drogasil.com.br,contact:phone:+55 11 3817-4266;+55 11 3817-4267,contact:website:http://www.drogasil.com.br/,drive_through:no,opening_hours:24/7","lat":-23.5827843,"lng":-46.6862992},{"id":"3861632059","name":"4fit","tags":"leisure:fitness_centre","lat":-23.5845362,"lng":-46.6813322},{"id":"3861634145","name":"Octavio","tags":"amenity:cafe","lat":-23.5827486,"lng":-46.6841124},{"id":"4128458354","name":"Cidade Jardim","tags":"public_transport:station,railway:station,train:yes,wheelchair:yes,wikidata:Q10275649","lat":-23.5852388,"lng":-46.6911827},{"id":"4339110957","name":"Citibank","tags":"addr:housenumber:3355,addr:street:Avenida Brigadeiro Faria Lima,amenity:bank,opening_hours:Mo-Fr 10:00-16:00,phone:+55 11 4001-4688,website:https://www.citibank.com.br","lat":-23.5856333,"lng":-46.6825492},{"id":"4341891590","name":"Davvero Gelato Tradizionale","tags":"addr:housenumber:129,addr:street:Rua Pais de Araújo,amenity:restaurant,cuisine:ice_cream,opening_hours:Mo-Su 11:30-22:00,website:http://www.davvero.com.br","lat":-23.583393,"lng":-46.681454},{"id":"4675283201","name":"Loup Restaurante","tags":"addr:city:São Paulo,addr:housenumber:528,addr:postcode:01453-011,addr:street:Rua Doutor Mário Ferraz,addr:suburb:Jardim Paulistano,amenity:restaurant,capacity:110,contact:facebook:https://www.facebook.com/Restaurante.Le.Loup/,opening_hours:Mo-Fr 12:00-15:00;Mo-Sa 19:00-01:00;Sa 12:00-17:30,smoking:no","lat":-23.5850061,"lng":-46.6853364},{"id":"4983777024","name":"Bradesco Prime","tags":"amenity:bank,name:pt:Bradesco Prime","lat":-23.585222,"lng":-46.6831514},{"id":"4983777025","name":"Santander","tags":"amenity:bank,brand:Santander,brand:wikidata:Q5835668,brand:wikipedia:en:Santander Bank,name:pt:Santander","lat":-23.5849837,"lng":-46.6828324},{"id":"4983777026","name":"Citibank","tags":"amenity:bank,name:pt:Citibank","lat":-23.5852684,"lng":-46.6827403},{"id":"4983792723","name":"Brexó Bar e Cozinha","tags":"amenity:restaurant,name:pt:Brexó Bar e Cozinha","lat":-23.5854094,"lng":-46.6847333},{"id":"4992716224","name":"Banco Itaú","tags":"amenity:bank,name:pt:Banco Itaú","lat":-23.5831348,"lng":-46.6861856},{"id":"4998065622","name":"Milk & Mellow Burguers","tags":"amenity:restaurant,name:pt:Milk & Mellow Burguers","lat":-23.5856386,"lng":-46.6885943},{"id":"4998065623","name":"Balada Mix","tags":"amenity:restaurant,name:pt:Salada Mix","lat":-23.5854344,"lng":-46.6839408},{"id":"4998065821","name":"Santander Select","tags":"amenity:bank,name:pt:Santander Select","lat":-23.5856544,"lng":-46.6882794},{"id":"5008342123","name":"Casa do Pão de Queijo","tags":"amenity:cafe,name:pt:Casa do Pão de Queijo","lat":-23.5834631,"lng":-46.6834368},{"id":"5008342229","name":"Pizaa","tags":"addr:housenumber:510,addr:street:Rua Iguatemi,amenity:restaurant,name:pt:Pizaa","lat":-23.5822683,"lng":-46.6835886},{"id":"5008365621","name":"Sushi Massao","tags":"addr:housenumber:480,addr:street:Rua Iguatemi,amenity:restaurant,name:pt:Sushi Massao","lat":-23.582486,"lng":-46.6834585},{"id":"9499559136","name":"Dhaigo","tags":"addr:city:São Paulo,addr:housenumber:178,addr:street:Rua Araçari,addr:suburb:Itaim Bibi,amenity:restaurant,cuisine:japanese,phone:+55 11 3168 2819","lat":-23.5834727,"lng":-46.6853267}]