[{"id":"525522286","tags":"amenity:school","lat":-23.633754,"lng":-46.7040811},{"id":"1443220349","name":"Cheirin Bão","tags":"addr:housenumber:1161,addr:street:Avenida João Carlos da Silva Borges,amenity:cafe,contact:instagram:https://instagram.com/cheirinbaochacarasantoantonio","lat":-23.634987,"lng":-46.7118861},{"id":"1443230337","name":"Colégio Elvira Brandão","tags":"addr:housenumber:158,addr:street:Luiz Seraphico Júnior,amenity:school","lat":-23.6346211,"lng":-46.7133489},{"id":"1872204269","name":"Indiano","tags":"amenity:restaurant,wheelchair:yes","lat":-23.6341603,"lng":-46.7094064},{"id":"4685529896","name":"Caixa Econômica Federal","tags":"addr:street:Rua Alexandre Dumas,amenity:bank,atm:yes,opening_hours:Mo-Fr 10:00-16:00","lat":-23.6326316,"lng":-46.7030445},{"id":"4818477127","name":"Banco Santander","tags":"addr:street:Rua Verbo Divino,amenity:bank,atm:yes","lat":-23.6318328,"lng":-46.7074846},{"id":"5937808536","name":"Carrefour Express","tags":"addr:city:São Paulo,addr:housenumber:1100,addr:postcode:04719-002,addr:street:Rua Verbo Divino,addr:suburb:Chácara Santo Antônio,opening_hours:Mo-Su 09:00-21:00,shop:supermarket","lat":-23.6328,"lng":-46.706212},{"id":"5937817476","name":"Itaú Personnalité","tags":"amenity:bank,atm:no,description:Agência 5629. Não possui caixa eletrônico.,drive_through:no,opening_hours:Mo-Fr 10:00-16:00","lat":-23.6331142,"lng":-46.705508},{"id":"6587356711","tags":"amenity:atm,description:Fica dentro do Carrefour Express.,operator:banco24horas","lat":-23.6328092,"lng":-46.7062103},{"id":"8275653069","name":"Vila Tupiniquim","tags":"addr:city:São Paulo,addr:country:BR,addr:housenumber:52,addr:state:SC,addr:street:Rua Pais da Silva,amenity:restaurant","lat":-23.632435,"lng":-46.7061934},{"id":"8313265437","name":"Minuto Pão de Açúcar","tags":"addr:city:São Paulo,addr:housenumber:1401,addr:street:Rua Alexandre Dumas,addr:suburb:Chácara Santo Antônio,payment:cash:yes,payment:contactless:yes,payment:credit_cards:yes,payment:debit_cards:yes,shop:supermarket","lat":-23.6321189,"lng":-46.7046396},{"id":"8320001272","name":"Pague Menos","tags":"amenity:pharmacy,brand:Pague Menos,brand:wikidata:Q7124466,brand:wikipedia:pt:Pague Menos,dispensing:yes,healthcare:pharmacy","lat":-23.6317931,"lng":-46.7049659},{"id":"8791812381","name":"the coffee.","tags":"addr:city:São Paulo,addr:country:BR,addr:housenumber:1218,addr:state:SP,addr:street:Rua Verbo Divino,amenity:cafe,website:https://www.thecoffee.jp/","lat":-23.6322826,"lng":-46.7071657}]