[{"id":"6455314485","name":"Mini mercado extra","tags":"shop:supermarket,wheelchair:limited","lat":-23.6348051,"lng":-46.5323378},{"id":"6455314487","name":"Dia","tags":"shop:supermarket","lat":-23.6351361,"lng":-46.5322873},{"id":"6455314686","name":"Vieira Shopping","tags":"shop:mall","lat":-23.6346688,"lng":-46.5319397},{"id":"6466626689","name":"Acqua Vida","tags":"leisure:fitness_centre","lat":-23.6336994,"lng":-46.5325739},{"id":"6466626788","name":"Feliz Farma","tags":"amenity:pharmacy,healthcare:pharmacy","lat":-23.6352282,"lng":-46.5326346},{"id":"6466626789","name":"Itaú","tags":"amenity:bank,brand:Itaú Unibanco,brand:wikidata:Q1424293,brand:wikipedia:pt:Itaú Unibanco","lat":-23.6344576,"lng":-46.5319422},{"id":"7086894385","name":"Alto Astral","tags":"amenity:pharmacy,healthcare:pharmacy,survey:date:2019-12-26","lat":-23.6316416,"lng":-46.5300925}]