[{"id":"4443122951","name":"Alto do Ipiranga","tags":"public_transport:station,railway:station,station:subway,subway:yes,wikidata:Q4736839","lat":-23.6022366,"lng":-46.6124857},{"id":"7149041113","name":"Paremi Estacionamento","tags":"access:yes,addr:housenumber:300,addr:street:Avenida Doutor Gentil de Moura,amenity:parking,fee:yes,opening_hours:Mo-Fr 06:00-18:00,parking:surface,surface:paved","lat":-23.6025429,"lng":-46.6119129},{"id":"7149043598","name":"Linha Verde Campeâo","tags":"addr:street:Avenida Doutor Gentil de Moura,amenity:restaurant,cuisine:pastel,description:Yakisoba, pastel, regional","lat":-23.6023756,"lng":-46.6131062},{"id":"7149051855","name":"Pátio 3","tags":"access:yes,amenity:parking,fee:yes,opening_hours:Mo-Fr 06:00-23:00,parking:surface,surface:paved","lat":-23.6022417,"lng":-46.6119546},{"id":"7211661656","name":"Estacionamentos 277","tags":"addr:housenumber:277,amenity:parking,opening_hours:Mo-Fr 06:00-00:00; Sa 06:00-18:00","lat":-23.6023298,"lng":-46.6118199},{"id":"7214165050","tags":"addr:street:Avenida Doutor Gentil de Moura,amenity:pharmacy,dispensing:yes,drive_through:no,healthcare:pharmacy","lat":-23.6025159,"lng":-46.612255}]