[{"id":"1040038931","name":"Fátima","tags":"amenity:school","lat":-23.5977657,"lng":-46.5254347},{"id":"1069924383","name":"Posto Policial Jardim Grimaldi","tags":"amenity:police","lat":-23.5985166,"lng":-46.5196761},{"id":"5888870362","name":"Mercado Municipal","tags":"addr:city:São Paulo,addr:housenumber:7911,addr:postcode:03988-000,addr:street:Avenida Sapopemba,addr:suburb:Vila Fátima,shop:supermarket","lat":-23.5968262,"lng":-46.5226378},{"id":"5888870370","name":"Bem Barato Grimaldi","tags":"addr:city:São Paulo,addr:housenumber:77,addr:postcode:03922-000,addr:street:Rua Benedito Jacinto Mendes,addr:suburb:Jardim Grimaldi,opening_hours:Mo-Sa 08:00-20:00; Su 08:00-18:00,shop:supermarket","lat":-23.5976514,"lng":-46.5175174},{"id":"5888870377","name":"Drogaria São Paulo","tags":"addr:city:São Paulo,addr:housenumber:8491,addr:postcode:03271-010,addr:street:Avenida Sapopemba,addr:suburb:Jardim Grimaldi,amenity:pharmacy,dispensing:yes,healthcare:pharmacy","lat":-23.5985455,"lng":-46.5187553}]