[{"id":"5001257158","name":"Extra","tags":"addr:city:São Paulo,addr:street:Avenida Cupecê,brand:Extra,brand:wikidata:Q5422131,brand:wikipedia:pt:Extra (rede varejista),shop:supermarket","lat":-23.6704598,"lng":-46.6480315},{"id":"5077660163","name":"Colégio São Francisco de Assis","tags":"amenity:school","lat":-23.6724248,"lng":-46.656852},{"id":"5077660166","name":"Emef Elza Maia Costa Freire PROFA","tags":"amenity:school","lat":-23.6732391,"lng":-46.6586411},{"id":"5125999629","name":"Igreja Evangélica Assembleia de Deus","tags":"amenity:place_of_worship,building:church,religion:christian","lat":-23.6707497,"lng":-46.6492487},{"id":"5126002835","name":"Igreja Batista Regular de Americanópolis","tags":"amenity:place_of_worship,building:church,denomination:baptist,religion:christian","lat":-23.6715518,"lng":-46.6495142},{"id":"5126010500","name":"Igreja Metodista Livre de Cidade Ademar","tags":"amenity:place_of_worship,building:church,denomination:methodist,religion:christian","lat":-23.6707423,"lng":-46.6524459}]