[{"id":"3491174393","name":"Estação Rua do Grito","tags":"amenity:bus_station,bus:yes,description:Estação Grito, 10000 Ref.: 10000 - Estação Grito B/C,gtfs_id:3305797,network:SPTRANS,public_transport:stop_position,route_ref:5105-10","lat":-23.5981285,"lng":-46.597231},{"id":"3570318392","name":"Peso D`Ouro","tags":"addr:city:São Paulo,addr:housenumber:608,addr:postcode:04222-000,addr:street:Rua Auriverde,amenity:restaurant,cuisine:regional,phone:+55 11 2215-4552","lat":-23.5934787,"lng":-46.5935983},{"id":"3570320893","name":"Banco Bradesco","tags":"addr:city:São Paulo,addr:housenumber:609,addr:postcode:04222-000,addr:street:Rua Auriverde,amenity:bank","lat":-23.5933582,"lng":-46.5934856},{"id":"4374698899","name":"Chocolândia","tags":"addr:city:São Paulo,addr:country:BR,addr:housenumber:2040,addr:state:SP,addr:street:Rua Silva Bueno,addr:suburb:Ipiranga,contact:facebook:https://www.facebook.com/chocolandia,contact:phone:+55 11 2889-7600,contact:website:http://www.chocolandia.com.br/,opening_hours:Mo-Sa 08:00-22:00; Su,PH 09:00-20:00,phone:+55 11 2889 7600,shop:supermarket,website:http://www.chocolandia.com.br/page/home","lat":-23.5965871,"lng":-46.6009928},{"id":"4622819992","name":"Santander","tags":"addr:city:São Paulo,addr:street:Rua Silva Bueno,addr:suburb:Ipiranga,amenity:bank,drive_through:no,operator:Santander","lat":-23.5949997,"lng":-46.6012088},{"id":"4622820008","name":"Banco do Brasil","tags":"addr:city:São Paulo,addr:street:Rua Silva Bueno,addr:suburb:Ipiranga,amenity:bank,brand:Banco do Brasil,brand:wikidata:Q610817,brand:wikipedia:en:Banco do Brasil,drive_through:no,operator:Banco do Brasil","lat":-23.5949113,"lng":-46.6007085},{"id":"4623735093","name":"Drogaria São Paulo","tags":"addr:city:São Paulo,addr:housenumber:2175,addr:postcode:04208-052,addr:street:Rua Silva Bueno,addr:suburb:Ipiranga,amenity:pharmacy,brand:Drogaria São Paulo,brand:wikidata:Q5308184,brand:wikipedia:en:Grupo DPSP,contact:phone:+55 11 2273-0790;+55 11 2274-7300,contact:website:http://www.drogariasaopaulo.com.br/,drive_through:no,healthcare:pharmacy,height:4.14,opening_hours:Mo-Su 07:00-24:00","lat":-23.5977666,"lng":-46.6005464},{"id":"4623833214","name":"Bradesco","tags":"addr:city:São Paulo,addr:country:BR,addr:housenumber:2263,addr:postcode:04208-053,addr:state:SP,addr:street:Rua Silva Bueno,amenity:bank,atm:yes,contact:email:2894.gerencia@bradesco.com.br,contact:facebook:https://www.facebook.com/Bradesco/,contact:instagram:https://www.instagram.com/bradesco/,contact:linkedin:https://www.linkedin.com/company/bradesco,contact:phone:+55 11 3968-2100,contact:snapchat:https://www.snapchat.com/add/bradescooficial,contact:twitter:https://twitter.com/bradesco,contact:youtube:https://www.youtube.com/bradesco,opening_hours:Mo-Fr 10:00-16:00,operator:Bradesco,wheelchair:yes","lat":-23.5985857,"lng":-46.6004568}]