[{"id":"2725862496","name":"Colégio São Camilo Cardeal Mota","tags":"addr:city:São Paulo,addr:housenumber:400,addr:street:Rua Paulo Bregaro,amenity:school,operator:São Camilo,phone:+55 11 2588-4500","lat":-23.5836544,"lng":-46.6120686},{"id":"4066780889","name":"Drogaria São José do Ipiranga","tags":"amenity:pharmacy,drive_through:no,healthcare:pharmacy,phone:+55 11 2914-8979","lat":-23.5865131,"lng":-46.6043024},{"id":"4090664884","name":"Hirota Supermercados","tags":"addr:street:Rua Agostinho Gomes,shop:supermarket","lat":-23.586152,"lng":-46.6041218},{"id":"5613489124","tags":"amenity:school","lat":-23.5856651,"lng":-46.6074072},{"id":"6893353242","name":"Drogaria São Paulo","tags":"addr:street:Rua Agostinho Gomes,amenity:pharmacy,brand:Drogaria São Paulo,brand:wikidata:Q5308184,brand:wikipedia:en:Grupo DPSP,dispensing:yes,healthcare:pharmacy","lat":-23.5834729,"lng":-46.6046176},{"id":"6893353243","name":"Caixa Econômica Federal","tags":"addr:street:Rua Agostinho Gomes,amenity:bank,atm:yes,brand:Caixa Econômica Federal,brand:wikidata:Q835283,brand:wikipedia:pt:Caixa Econômica Federal,drive_through:no","lat":-23.5836712,"lng":-46.6046049},{"id":"7241540426","name":"Biblioteca do Museu Paulista","tags":"addr:city:São Paulo,addr:housenumber:731,addr:street:Rua Bom Pastor,amenity:library","lat":-23.5829688,"lng":-46.6075839},{"id":"7256880036","name":"Zabeu","tags":"amenity:restaurant","lat":-23.582866,"lng":-46.6076066},{"id":"8047464946","name":"Leopoldina","tags":"amenity:restaurant,cuisine:international","lat":-23.5857558,"lng":-46.6055764}]