[{"id":"976893043","tags":"amenity:school","lat":-23.5611581,"lng":-46.6231717},{"id":"2642881411","name":"Restaurante Casa da Biza","tags":"amenity:restaurant,cuisine:regional","lat":-23.5642418,"lng":-46.6219069},{"id":"4365728456","name":"Banco do Brasil","tags":"amenity:bank,brand:Banco do Brasil,brand:wikidata:Q610817,brand:wikipedia:en:Banco do Brasil,operator:Banco do Brasil,website:https://www.bb.com.br/","lat":-23.5632118,"lng":-46.619612},{"id":"4365728457","name":"Banco do Brasil","tags":"amenity:bank,atm:yes,brand:Banco do Brasil,brand:wikidata:Q610817,brand:wikipedia:en:Banco do Brasil","lat":-23.5649311,"lng":-46.6214439},{"id":"5288525930","name":"Correios","tags":"amenity:post_office","lat":-23.5646257,"lng":-46.6208876},{"id":"5294081427","name":"Bradesco","tags":"addr:street:Avenida Lins de Vasconcelos,amenity:bank,brand:Bradesco,brand:wikidata:Q806181,brand:wikipedia:en:Banco Bradesco","lat":-23.5649281,"lng":-46.6210365},{"id":"5369032532","name":"Drogaria Xavier Molina","tags":"addr:city:São Paulo,addr:housenumber:63,addr:postcode:01523-010,addr:street:Largo do Cambuci,amenity:pharmacy,healthcare:pharmacy","lat":-23.562517,"lng":-46.6210593},{"id":"5369037965","name":"Cambuci Restaurante e Pizzaria","tags":"addr:city:São Paulo,addr:housenumber:11,addr:postcode:01523-010,addr:street:Largo do Cambuci,amenity:restaurant,cuisine:pizza","lat":-23.5622082,"lng":-46.6214327}]