[{"id":"4676944087","name":"Jandira","tags":"public_transport:station,railway:station,train:yes,wikidata:Q10275886","lat":-23.5276045,"lng":-46.9023728},{"id":"5376568665","tags":"leisure:park","lat":-23.5301526,"lng":-46.9016896},{"id":"5376568668","tags":"leisure:park","lat":-23.5312494,"lng":-46.9028939},{"id":"9095738179","name":"Guarda Cívil Metropolitana","tags":"addr:street:Rua José Manoel da Conceição,amenity:police","lat":-23.5284676,"lng":-46.9020941},{"id":"9095738182","tags":"addr:street:Rua José Manoel da Conceição,amenity:post_office","lat":-23.5294503,"lng":-46.9018045},{"id":"9758116898","name":"Smart Fit","tags":"addr:housenumber:20,addr:postcode:06600-010,addr:street:Avenida Carmine Gragnano,brand:Smart Fit,brand:wikidata:Q30930959,leisure:fitness_centre,opening_hours:Mo-Th 06:00-23:00; Fr-Su,PH off,sport:fitness","lat":-23.5304257,"lng":-46.9027454},{"id":"9758116899","name":"Select","tags":"access:private,addr:housenumber:20,addr:postcode:06600-010,addr:street:Avenida Carmine Gragnano,amenity:parking,fee:yes,parking:multi-storey,surface:paved","lat":-23.5304651,"lng":-46.9027239}]