[{"id":"4479245329","tags":"amenity:parking","lat":-23.526317,"lng":-46.6659857},{"id":"4593540897","name":"Palmeiras - Barra Funda","tags":"old_name:Barra Funda,operator:CPTM;Via Mobilidade,public_transport:station,railway:station,train:yes,wikidata:Q3293864,wikipedia:pt:Terminal Intermodal Palmeiras-Barra Funda","lat":-23.5254616,"lng":-46.6675134},{"id":"4593556119","name":"Palmeiras - Barra Funda","tags":"public_transport:station,railway:station,station:subway,subway:yes,wikidata:Q15265202","lat":-23.5259743,"lng":-46.6674683},{"id":"4593556120","name":"Rodoviária de São Paulo Barra Funda","tags":"amenity:bus_station,bus:yes,name:en:Sao Paulo Barra Funda bus station,public_transport:station,tourist_bus:yes","lat":-23.5248959,"lng":-46.6674133},{"id":"4601779990","name":"Memorial da pessoa com deficiência","tags":"toilets:wheelchair:yes,tourism:museum,wheelchair:yes,wikidata:Q30937723","lat":-23.5268281,"lng":-46.6634804}]