[{"id":"598667067","name":"Maria Paula Bar e Restaurante","tags":"amenity:restaurant","lat":-23.5520829,"lng":-46.6383065},{"id":"598667069","tags":"amenity:parking","lat":-23.5518567,"lng":-46.6389089},{"id":"598667070","tags":"amenity:parking","lat":-23.5516403,"lng":-46.639263},{"id":"598667073","tags":"amenity:parking","lat":-23.5526337,"lng":-46.6386729},{"id":"598667076","tags":"amenity:parking","lat":-23.5535582,"lng":-46.6391128},{"id":"598667080","tags":"shop:convenience","lat":-23.5521911,"lng":-46.6379278},{"id":"598667081","name":"Banco24Horas","tags":"amenity:atm,brand:Banco24Horas,brand:wikidata:Q4854069,brand:wikipedia:pt:Banco24Horas,operator:Banco 24 Horas","lat":-23.5522944,"lng":-46.6379959},{"id":"598678128","tags":"amenity:pharmacy,healthcare:pharmacy","lat":-23.5528451,"lng":-46.6430063},{"id":"598678129","tags":"amenity:parking","lat":-23.552796,"lng":-46.6428454},{"id":"598678130","tags":"amenity:parking","lat":-23.5527861,"lng":-46.6426844},{"id":"598678135","tags":"amenity:parking","lat":-23.5516207,"lng":-46.6435116},{"id":"598678136","tags":"amenity:parking","lat":-23.5517584,"lng":-46.6432005},{"id":"598678137","tags":"amenity:parking","lat":-23.5537499,"lng":-46.6433346},{"id":"598678138","tags":"amenity:parking","lat":-23.5537647,"lng":-46.644606},{"id":"598678139","name":"EE Dra. Maria Augusta Saraiva","tags":"amenity:school","lat":-23.5529189,"lng":-46.6434134},{"id":"598678141","name":"Bradesco","tags":"amenity:bank,brand:Bradesco,brand:wikidata:Q806181,brand:wikipedia:en:Banco Bradesco,operator:Bradesco","lat":-23.5532558,"lng":-46.6433657},{"id":"598678159","tags":"amenity:parking","lat":-23.5530961,"lng":-46.6379154},{"id":"1480096185","name":"Prueba","tags":"amenity:restaurant,cuisine:spanish","lat":-23.5522062,"lng":-46.6448165},{"id":"1707747194","name":"Saga supermercado","tags":"addr:housenumber:9,addr:street:Rua Doutor Luís Barreto,shop:supermarket","lat":-23.55457,"lng":-46.6475706},{"id":"2074045681","tags":"amenity:parking","lat":-23.5545483,"lng":-46.6390248},{"id":"2074045685","name":"Santander","tags":"amenity:bank,atm:yes,brand:Santander,brand:wikidata:Q5835668,brand:wikipedia:en:Santander Bank","lat":-23.5544458,"lng":-46.6389755},{"id":"2074045687","name":"Bradesco","tags":"amenity:bank,atm:yes,brand:Bradesco,brand:wikidata:Q806181,brand:wikipedia:en:Banco Bradesco","lat":-23.5546805,"lng":-46.6391143},{"id":"2074045691","tags":"amenity:parking","lat":-23.5531186,"lng":-46.6382448},{"id":"2274548049","name":"Bar Amigo Giannotti","tags":"addr:city:São Paulo,addr:housenumber:1106,addr:postcode:01314-001,addr:street:Rua Santo Antônio,amenity:bar,website:https://www.facebook.com/BarAmigoGiannotti","lat":-23.5541744,"lng":-46.6476537},{"id":"2869109081","name":"Planeta's","tags":"addr:city:São Paulo,addr:housenumber:212,addr:postcode:01306-040,addr:street:Rua Martinho Prado,amenity:restaurant,diet:vegetarian:yes","lat":-23.5500752,"lng":-46.6460297},{"id":"3524831784","name":"Mini Mercado Extra","tags":"addr:city:São Paulo,addr:housenumber:469,addr:postcode:01317-000,addr:street:Avenida Brigadeiro Luís Antônio,addr:suburb:Bela Vista,opening_hours:Mo-Sa 07:00-21:00; Su 08:00-18:00; PH off,operator:Cia Brasileira de Distribuição,shop:convenience","lat":-23.5545408,"lng":-46.6387847},{"id":"3527373939","name":"Mini Extra","tags":"addr:city:São Paulo,addr:housenumber:228,addr:postcode:01050-000,addr:street:Rua Martins Fontes,brand:Mini Extra,brand:wikidata:Q5422131,brand:wikipedia:pt:Extra (rede varejista),shop:convenience","lat":-23.5492949,"lng":-46.6445758},{"id":"3529605702","name":"Dia","tags":"brand:Dia,brand:wikidata:Q925132,brand:wikipedia:es:Supermercados DIA,shop:supermarket","lat":-23.5509835,"lng":-46.6429406},{"id":"3535088599","tags":"amenity:pharmacy,healthcare:pharmacy","lat":-23.5507665,"lng":-46.6419063},{"id":"3621233762","name":"Bradesco","tags":"addr:city:São Paulo,addr:housenumber:26,addr:postcode:01050-060,addr:street:Viaduto Nove de Julho,amenity:bank,atm:yes,brand:Bradesco,brand:wikidata:Q806181,brand:wikipedia:en:Banco Bradesco,entrance:main","lat":-23.5502884,"lng":-46.6419612},{"id":"3666756701","name":"Correio","tags":"addr:city:São Paulo,addr:housenumber:300,addr:postcode:01314-000,addr:street:Rua Santo Antônio,amenity:post_office","lat":-23.5501216,"lng":-46.6415592},{"id":"3719540060","name":"Famiglia Mancini","tags":"addr:city:São Paulo,addr:housenumber:25,addr:postcode:01306-001,addr:street:Rua Avanhandava,amenity:restaurant,cuisine:italian,website:http://www.famigliamancini.com.br/","lat":-23.5498251,"lng":-46.645153},{"id":"3719540061","name":"Famiglia Mancini","tags":"addr:city:São Paulo,addr:housenumber:81,addr:postcode:01306-001,addr:street:Rua Avanhandava,amenity:restaurant,cuisine:italian","lat":-23.5503688,"lng":-46.6451046},{"id":"3719540062","name":"Walter Mancini","tags":"addr:city:São Paulo,addr:housenumber:126,addr:street:Rua Avanhandava,amenity:restaurant","lat":-23.5504533,"lng":-46.6453592},{"id":"3719540066","name":"Café Marokita","tags":"addr:city:São Paulo,addr:housenumber:32,addr:street:Rua Avanhandava,amenity:cafe","lat":-23.5501573,"lng":-46.6451834},{"id":"3719540067","name":"Migalhas na Boca da Rua","tags":"addr:city:São Paulo,addr:housenumber:16,addr:street:Rua Avanhandava,amenity:restaurant","lat":-23.5499739,"lng":-46.6452837},{"id":"3719540068","name":"Madreperola","tags":"addr:city:São Paulo,addr:housenumber:16,addr:street:Rua Avanhandava,amenity:restaurant","lat":-23.5500135,"lng":-46.6452273},{"id":"3873686200","name":"Café Piu Piu","tags":"addr:housenumber:134,addr:street:Rua Treze de Maio,amenity:bar,website:http://www.cafepiupiu.com.br/","lat":-23.5541913,"lng":-46.6469574},{"id":"4512145366","name":"Guarda Civil Metropolitana","tags":"amenity:police","lat":-23.5498351,"lng":-46.6464534},{"id":"4678380399","tags":"addr:city:São Paulo,addr:housenumber:295,addr:postcode:01050-000,addr:street:Rua Martins Fontes,amenity:parking,fee:yes,parking:surface,supervised:yes,surface:paved","lat":-23.5497061,"lng":-46.6449478},{"id":"4678707500","tags":"addr:city:São Paulo,addr:housenumber:600,addr:postcode:01312-000,addr:street:Avenida Nove de Julho,amenity:parking,fee:yes,parking:surface,supervised:yes","lat":-23.5504117,"lng":-46.6443383},{"id":"4678707501","tags":"addr:city:São Paulo,addr:housenumber:544,addr:postcode:01312-000,addr:street:Avenida Nove de Julho,amenity:parking,fee:yes,parking:surface,supervised:yes","lat":-23.5501426,"lng":-46.6435024},{"id":"4705272098","tags":"addr:city:São Paulo,addr:housenumber:644,addr:postcode:01314-000,addr:street:Rua Santo Antônio,amenity:parking,fee:yes,supervised:yes,surface:paved","lat":-23.5515256,"lng":-46.644683},{"id":"4946143590","name":"Qualimart Alimentos","tags":"addr:city:São Paulo,addr:housenumber:538,addr:postcode:01315-000,addr:street:Rua Santo Amaro,addr:suburb:Bela Vista,opening_hours:Mo-Sa 07:00-20:30; Su,PH 08:00-14:00,shop:convenience","lat":-23.5545635,"lng":-46.6404537},{"id":"4964254558","name":"Minimercado Extra","tags":"addr:city:São Paulo,addr:housenumber:283,addr:postcode:01315-001,addr:street:Rua Santo Amaro,addr:suburb:Bela Vista,opening_hours:Mo-Sa 08:00-21:00; Su 08:00-18:00; PH 08:00-18:00,operator:Cia Brasileira de Distribuição,shop:convenience","lat":-23.5523464,"lng":-46.6405254},{"id":"4969373422","name":"Madri","tags":"addr:city:São Paulo,addr:housenumber:12,addr:postcode:01307-000,addr:street:Rua Frei Caneca,amenity:restaurant,name:pt:Madri,opening_hours:Mo-Su 07:00-22:00,phone:11 32374436","lat":-23.551339,"lng":-46.6478394},{"id":"4969386621","name":"La Franttine","tags":"addr:housenumber:307,addr:street:Rua Major Quedinho,amenity:restaurant,cuisine:pizza,name:pt:La Franttine,opening_hours:Su-Th 18:00-00:00; Fr-Sa 18:00-01:00,website:https://www.lafranttine.com.br/","lat":-23.5507319,"lng":-46.6432455},{"id":"4969390721","name":"Pizzaria Famiglia","tags":"addr:housenumber:310,addr:street:Rua Major Quedinho,amenity:restaurant,cuisine:pizza,name:pt:Pizzaria Famiglia,opening_hours:Tu-Su 18:00-00:00,phone:11 26883501","lat":-23.5506719,"lng":-46.6434418},{"id":"5074049858","tags":"addr:city:São Paulo,addr:housenumber:52,addr:postcode:01318-000,addr:street:Avenida Brigadeiro Luís Antônio,amenity:parking","lat":-23.5509972,"lng":-46.6370366},{"id":"6886525650","tags":"access:yes,addr:city:São Paulo,addr:housenumber:185,addr:postcode:01050-000,addr:street:Rua Martins Fontes,amenity:parking,fee:yes,parking:multi-storey,surface:concrete","lat":-23.5491981,"lng":-46.6440252}]