[{"id":"3362631380","name":"Jardim Secreto Bistrô","tags":"addr:housenumber:389,addr:street:Rua Caraíbas,amenity:restaurant,cuisine:italian,wheelchair:limited","lat":-23.5315085,"lng":-46.6816988},{"id":"4041877220","name":"Tapete de asfalto","tags":"tourism:attraction","lat":-23.5291001,"lng":-46.6911037},{"id":"4460098489","name":"Ecully","tags":"addr:city:São Paulo,addr:housenumber:493,addr:postcode:05021-000,addr:street:Rua Cotoxó,addr:suburb:Perdizes,amenity:restaurant,cuisine:fine_dining,name:en:Ecully,name:pt:Ecully,website:https://www.ecully.com.br/","lat":-23.5314829,"lng":-46.684295},{"id":"9216457028","name":"Miúda Livraria","tags":"addr:housenumber:776,shop:books","lat":-23.5311828,"lng":-46.6887586},{"id":"9397071118","name":"Prato Sete Refeições Caseiras","tags":"amenity:restaurant","lat":-23.5299556,"lng":-46.6890222},{"id":"9749837532","name":"Farmacia&cia","tags":"amenity:pharmacy,dispensing:yes,healthcare:pharmacy","lat":-23.5306542,"lng":-46.6826368}]