[{"id":"1837176733","name":"Santander","tags":"amenity:bank,brand:Santander,brand:wikidata:Q5835668,brand:wikipedia:en:Santander Bank","lat":-23.5539206,"lng":-46.7097154},{"id":"2458882431","name":"Santander","tags":"amenity:bank,brand:Santander,brand:wikidata:Q5835668,brand:wikipedia:en:Santander Bank","lat":-23.5539447,"lng":-46.7076976},{"id":"3847900357","name":"Select","tags":"shop:convenience","lat":-23.5544378,"lng":-46.7097191},{"id":"4017284558","name":"am/pm","tags":"shop:convenience,toilets:wheelchair:no,wheelchair:yes","lat":-23.5544747,"lng":-46.7080041},{"id":"5069704936","name":"Itaú","tags":"addr:street:Praça Panamericana,amenity:bank,brand:Itaú Unibanco,brand:wikidata:Q1424293,brand:wikipedia:pt:Itaú Unibanco","lat":-23.5526833,"lng":-46.7094114},{"id":"5069705019","name":"Pão de Açúcar","tags":"shop:supermarket","lat":-23.5541637,"lng":-46.7101082},{"id":"5069705039","name":"Bradesco","tags":"addr:street:Praça Panamericana,amenity:bank,atm:yes,brand:Bradesco,brand:wikidata:Q806181,brand:wikipedia:en:Banco Bradesco","lat":-23.5529897,"lng":-46.7080413}]