[{"id":"3677576096","name":"HSBC","tags":"addr:city:São Paulo,addr:housenumber:958,addr:postcode:08410-000,addr:street:Rua Salvador Gianetti,amenity:bank","lat":-23.5432977,"lng":-46.413036},{"id":"3677576097","tags":"addr:city:São Paulo,addr:housenumber:920,addr:postcode:08410-000,addr:street:Rua Salvador Gianetti,amenity:parking","lat":-23.5432001,"lng":-46.4133648},{"id":"5878700233","name":"Correios","tags":"amenity:post_office,operator:Empresa Brasileira de Correios e Telegrafos","lat":-23.541554,"lng":-46.4106334},{"id":"6666741370","name":"Guaianases","tags":"alt_name:Guaianazes,operator:Companhia Paulista de Trens Metropolitanos,platforms:4,public_transport:station,railway:station,train:yes","lat":-23.542331,"lng":-46.4157007},{"id":"6719073234","name":"Drogalis","tags":"addr:city:São Paulo,addr:housenumber:570,addr:postcode:08410-000,addr:street:Rua Salvador Gianetti,amenity:pharmacy,healthcare:pharmacy","lat":-23.5426105,"lng":-46.4168754},{"id":"8235089303","name":"Terminal Guaianazes Sul","tags":"amenity:bus_station,bus:yes,operator:EMTU,public_transport:station","lat":-23.5428972,"lng":-46.4161038},{"id":"8235089304","name":"Terminal Guaianases Norte","tags":"amenity:bus_station,bus:yes,public_transport:station","lat":-23.5418313,"lng":-46.4162177},{"id":"8238100582","name":"Estação Velha Guaianazes (Desativado)","tags":"public_transport:station,railway:halt,train:yes","lat":-23.5436212,"lng":-46.4108945}]