[{"id":"2939324710","name":"Boteco","tags":"addr:city:São Paulo,addr:housenumber:126,addr:postcode:02214-030,addr:street:Rua Francisco de Medeiros Jordão,amenity:bar,opening_hours:Mo-Sa 08:00-20:00; Su 08:00-14:00","lat":-23.4953469,"lng":-46.586782},{"id":"2977494939","name":"Pizza Quero Mais","tags":"addr:city:São Paulo,addr:housenumber:2827,addr:postcode:02135-000,addr:street:Avenida Conceição,amenity:restaurant,cuisine:pizza,delivery:yes,opening_hours:18:30-24:00,phone:+55 11 2981-5565,takeaway:only","lat":-23.4987663,"lng":-46.588678},{"id":"3503903900","name":"Neiguinho Mocoto","tags":"amenity:restaurant,cuisine:regional,opening_hours:Mo-Sa 08:00-20:00","lat":-23.4987983,"lng":-46.5882461},{"id":"3544809030","name":"União Farma","tags":"addr:city:São Paulo,addr:housenumber:503,addr:postcode:02203-000,addr:street:Avenida Ede,amenity:pharmacy,healthcare:pharmacy","lat":-23.494809,"lng":-46.5924936},{"id":"4485533739","tags":"addr:city:São Paulo,addr:housenumber:2544,addr:postcode:02135-000,addr:street:Avenida Conceição,shop:beauty","lat":-23.4997545,"lng":-46.5909856},{"id":"4492388971","name":"AMF","tags":"addr:city:São Paulo,addr:housenumber:3477,addr:postcode:02135-001,addr:street:Avenida Conceição,leisure:sports_centre,opening_hours:Mo-Sa 10:00-20:00","lat":-23.4948036,"lng":-46.5841444},{"id":"4492388972","name":"Sanches Estetica Automotiva","tags":"addr:city:São Paulo,addr:housenumber:3379,addr:postcode:02135-001,addr:street:Avenida Conceição,amenity:car_wash,automated:no,opening_hours:Mo-Fr 09:00-18:30; Sa 08:00-13:00,self_service:no","lat":-23.4947965,"lng":-46.584105},{"id":"4517233378","name":"Esfiha & Cia","tags":"addr:city:São Paulo,addr:housenumber:71,addr:postcode:02220-000,addr:street:Rua Itamonte,amenity:restaurant,cuisine:pizza,delivery:yes,description:Qualidade é o Nosso Principal Ingrediente,opening_hours:18:00-24:00 open \\Delivery\\,phone:+55 11 2983-6041;+55 11 2987-0687,takeaway:only","lat":-23.4946011,"lng":-46.5844334},{"id":"4524154125","tags":"addr:city:São Paulo,addr:housenumber:212,addr:postcode:02134-030,addr:street:Praça Marcelino Machado,opening_hours:Mo-Fr 08:00-18:00; Sa 08:00-14:00,shop:pet","lat":-23.4976578,"lng":-46.5859267},{"id":"4557185126","name":"Lucia Cabelereiros","tags":"addr:city:São Paulo,addr:housenumber:3650,addr:postcode:02135-001,addr:street:Avenida Conceição,beauty:nails,opening_hours:Mo-Fr 10:00-13:00, 14:00-18:00; Sa 10:00-20:00,phone:+55 11 2981-9134,shop:beauty","lat":-23.4949399,"lng":-46.5824248},{"id":"4897783954","name":"Studio Belisário Moderno","tags":"addr:city:São Paulo,addr:housenumber:744,addr:postcode:02133-000,addr:street:Avenida Belisário Pena,beauty:hair,description:Corte, barba, sobrancelhas, progessiva, luzes etc.,email:studiosbm@gmail.com,opening_hours:Tu-Sa 09:00-19:00; Mo 12:00-18:00,operator:Leonardo Ramos,phone:+55 11 2983-0903,shop:beauty","lat":-23.4969673,"lng":-46.5844771},{"id":"5422392557","name":"Maranhão Bar & Lanches","tags":"addr:city:São Paulo,addr:housenumber:14,addr:street:Rua Tupirama,amenity:restaurant,check_date:opening_hours:2021-10-13,cuisine:regional;sandwich;chicken,opening_hours:Mo-Sa 08:00-19:00, Su 09:00-13:00,phone:+55 11 2934-1925","lat":-23.4969188,"lng":-46.5861866},{"id":"7303891985","name":"Pizzaria","tags":"addr:city:São Paulo,addr:housenumber:95,addr:postcode:02214-030,addr:street:Rua Francisco de Medeiros Jordão,addr:suburb:Vila Medeiros,amenity:restaurant,opening_hours:Mo-Fr 09:00-18:00; Sa 08:00-12:00+,phone:+55 11 2987-8155","lat":-23.4956521,"lng":-46.5867035}]