[{"id":"2632416329","name":"Restaurante Sabor e Prazer","tags":"addr:city:São Paulo,addr:housenumber:1180,addr:postcode:05051-001,addr:street:Rua Tito,amenity:restaurant,opening_hours:11:00-15:00,takeaway:yes","lat":-23.5281178,"lng":-46.7032071},{"id":"2632416335","name":"Pizzaria Didios","tags":"addr:city:São Paulo,addr:housenumber:114,addr:postcode:05050-060,addr:street:Praça Cívica,amenity:restaurant","lat":-23.5279162,"lng":-46.7040253},{"id":"2632416389","name":"Civicão","tags":"addr:city:São Paulo,addr:housenumber:20,addr:postcode:05050-060,addr:street:Praça Cívica,shop:pet","lat":-23.5279863,"lng":-46.7032824},{"id":"2632416391","name":"Farma Civica","tags":"addr:city:São Paulo,addr:housenumber:102,addr:postcode:05050-060,addr:street:Praça Cívica,amenity:pharmacy,healthcare:pharmacy","lat":-23.5277954,"lng":-46.7039368},{"id":"2632416394","name":"Harumi","tags":"addr:city:São Paulo,addr:housenumber:98,addr:postcode:05050-060,addr:street:Praça Cívica,amenity:restaurant,cuisine:japanese","lat":-23.5277644,"lng":-46.7039042},{"id":"3367302611","name":"Tutti Pizza","tags":"addr:city:São Paulo,addr:housenumber:1312,addr:postcode:05051-001,addr:street:Rua Tito,amenity:restaurant,cuisine:pizza","lat":-23.5277983,"lng":-46.7044953},{"id":"4972271216","name":"Escola Municipal de Ensino Infantil Jean Piaget","tags":"addr:city:São Paulo,addr:housenumber:485,addr:postcode:05081000,addr:street:Rua Saldanha da Gama,addr:suburb:Alto da Lapa,amenity:school,operator:Secretaria Municipal de Ensino do Município de São Paulo","lat":-23.530733,"lng":-46.7128731}]