[{"id":"2428234457","tags":"amenity:bus_station","lat":-23.5243512,"lng":-46.7055753},{"id":"3367303697","name":"China in Box","tags":"amenity:restaurant,cuisine:chinese","lat":-23.5272137,"lng":-46.7034864},{"id":"4559123618","name":"Sebolândia","tags":"addr:city:São Paulo,addr:country:BR,addr:housenumber:709,addr:postcode:05072-000,addr:state:SP,addr:street:Rua Nossa Senhora da Lapa,contact:email:lapa@sebolandialapa.com.br,contact:phone:+55 11 3831-0407,contact:website:https://www.sebolandialapa.com.br,opening_hours:Mo-Fr 09:30-18:00; Sa 09:30-14:00,shop:books","lat":-23.5251966,"lng":-46.706107},{"id":"5116220903","name":"Farmacia Carrefour","tags":"addr:city:São Paulo,addr:housenumber:457,addr:postcode:05072-000,addr:street:Rua Nossa Senhora da Lapa,amenity:pharmacy,healthcare:pharmacy","lat":-23.5234627,"lng":-46.7044619},{"id":"5117644672","name":"Mini Extra","tags":"addr:city:São Paulo,addr:housenumber:29,addr:postcode:05072-050,addr:street:Praça Professor José Azevedo Antunes,brand:Mini Extra,brand:wikidata:Q5422131,brand:wikipedia:pt:Extra (rede varejista),shop:convenience","lat":-23.5241305,"lng":-46.7049085},{"id":"5117883856","name":"Carrefour Express","tags":"addr:city:São Paulo,addr:housenumber:342,addr:postcode:05050-000,addr:street:Rua Monteiro de Melo,brand:Carrefour Express,brand:wikidata:Q2940190,brand:wikipedia:fr:Carrefour Express,shop:convenience","lat":-23.5244874,"lng":-46.7031364},{"id":"5184522079","tags":"addr:city:São Paulo,addr:housenumber:300,addr:postcode:05076-000,addr:street:Rua Afonso Sardinha,amenity:parking,fee:yes,parking:surface,supervised:yes,surface:paved","lat":-23.5223205,"lng":-46.7068185},{"id":"5194655286","tags":"addr:city:São Paulo,addr:housenumber:1973,addr:postcode:05047-002,addr:street:Rua Coriolano,amenity:parking,fee:yes,parking:surface,supervised:yes,surface:paved","lat":-23.5255599,"lng":-46.7047652},{"id":"7140026684","tags":"addr:city:São Paulo,addr:housenumber:219,addr:postcode:05060-000,addr:street:Rua Pio XI,amenity:restaurant","lat":-23.5267251,"lng":-46.7083758},{"id":"7140034986","name":"Pharmasol","tags":"addr:city:São Paulo,addr:housenumber:125,addr:postcode:05060-000,addr:street:Rua Pio XI,amenity:pharmacy,dispensing:yes,healthcare:pharmacy","lat":-23.5258207,"lng":-46.7068999}]