[{"id":"1456477684","name":"Atlanta Snooker Bar","tags":"amenity:bar","lat":-23.523766,"lng":-46.6894919},{"id":"2428249229","name":"SESC Pompeia","tags":"amenity:cafe","lat":-23.525621,"lng":-46.6832605},{"id":"2428249759","name":"SESC Pompeia","tags":"amenity:restaurant","lat":-23.525739,"lng":-46.6832179},{"id":"2428249857","tags":"amenity:library","lat":-23.5254242,"lng":-46.6836416},{"id":"2428250203","tags":"leisure:sports_centre","lat":-23.5245832,"lng":-46.6825527},{"id":"2634702499","name":"Valadares","tags":"amenity:bar","lat":-23.5239965,"lng":-46.6898729},{"id":"2634702500","name":"Lewis","tags":"amenity:bar","lat":-23.5240882,"lng":-46.6898553},{"id":"4226136389","name":"The Week","tags":"addr:housenumber:324,addr:postcode:05033-000,addr:street:Rua Guaicurus,amenity:nightclub,wikidata:Q7774108","lat":-23.5226738,"lng":-46.6880716},{"id":"4972915181","tags":"amenity:bar","lat":-23.5217658,"lng":-46.6876057},{"id":"9200010231","tags":"addr:city:São Paulo,addr:housenumber:105,addr:postcode:05041-060,addr:street:Praça dos Inconfidentes,addr:suburb:Agua Branca,shop:convenience","lat":-23.5233571,"lng":-46.6859851}]