[{"id":"2260669934","name":"Citibank","tags":"amenity:bank","lat":-23.4598119,"lng":-46.5288121},{"id":"3016793305","name":"Churrascaria do Bosque","tags":"amenity:restaurant","lat":-23.4581704,"lng":-46.5305225},{"id":"4109582492","name":"ponto Ka","tags":"amenity:restaurant","lat":-23.4605442,"lng":-46.5283008},{"id":"4109582590","name":"onofre","tags":"amenity:pharmacy,healthcare:pharmacy","lat":-23.4599781,"lng":-46.528661},{"id":"6335246985","name":"Black Rock","tags":"amenity:bar","lat":-23.455817,"lng":-46.532717},{"id":"6341701290","name":"Madeli","tags":"amenity:restaurant","lat":-23.4594597,"lng":-46.5292198},{"id":"6341938122","name":"Filho & Fogao","tags":"amenity:restaurant","lat":-23.4575872,"lng":-46.530947},{"id":"6348317286","name":"Petz","tags":"brand:Petz,brand:wikidata:Q28680851,shop:pet","lat":-23.460216,"lng":-46.5287584},{"id":"9221631995","name":"Jun Japanese Food","tags":"addr:city:Guarulhos,addr:housenumber:1841,addr:postcode:07111000,addr:street:Avenida Paulo Faccini,addr:suburb:Jardim Maia,amenity:restaurant,cuisine:japanese,phone:+55 11 22296514,website:https://www.junjapanesefood.com.br/","lat":-23.4569636,"lng":-46.5314905}]