[{"id":"736941794","tags":"amenity:parking","lat":-23.537818,"lng":-46.6524537},{"id":"736952997","name":"Extra","tags":"brand:Extra,brand:wikidata:Q5422131,brand:wikipedia:pt:Extra (rede varejista),shop:supermarket","lat":-23.5375968,"lng":-46.6510955},{"id":"736952998","name":"Sacolão Saúde","tags":"shop:supermarket","lat":-23.5369328,"lng":-46.65159},{"id":"736952999","name":"Banco do Brasil","tags":"amenity:bank,brand:Banco do Brasil,brand:wikidata:Q610817,brand:wikipedia:en:Banco do Brasil,operator:CEF","lat":-23.5371689,"lng":-46.6515712},{"id":"736953001","name":"Itaú","tags":"amenity:bank,brand:Itaú Unibanco,brand:wikidata:Q1424293,brand:wikipedia:pt:Itaú Unibanco,operator:Itaú","lat":-23.5362221,"lng":-46.6528453},{"id":"1973090340","name":"Angélica Grill","tags":"addr:city:São Paulo,addr:country:BR,addr:housenumber:430,addr:state:SP,addr:street:Avenida Angélica,amenity:restaurant,contact:email:sac@angelicagrill.com,contact:phone:+55 11 3664-0070,contact:website:http://www.angelicagrill.com/,cuisine:steak_house,opening_hours:Mo-Sa 11:30-23:30;Su 11:30-23:00","lat":-23.5367639,"lng":-46.6544916},{"id":"1997445450","tags":"amenity:parking","lat":-23.5377518,"lng":-46.6539574},{"id":"2006327143","name":"Instituto Nacional de Educação a Distância","tags":"addr:housename:INED,addr:housenumber:356,addr:postcode:01150-010,addr:street:Praça Marechal Deodoro,amenity:school,short_name:INED","lat":-23.5335182,"lng":-46.6556061},{"id":"4588096659","name":"NotreDame Intermédica Hospital e Pronto Socorro Santa Cecilia","tags":"addr:city:São Paulo,addr:country:BR,addr:housenumber:151,addr:state:SP,addr:street:Praça Marechal Deodoro,alt_name:Hospital Santa Cecília,amenity:hospital,contact:linkedin:https://www.linkedin.com/company/gndi,contact:phone:+55 11 3823-7000,contact:website:http://www.gndi.com.br/unidade-detalhe-hospital-santa-cecilia,contact:youtube:https://www.youtube.com/channel/UCsQbqbLY-uvbXSCXinr5imA,healthcare:hospital,opening_hours:24/7","lat":-23.5350649,"lng":-46.6544865},{"id":"4596662040","name":"FarmaFacil","tags":"addr:city:São Paulo,addr:housenumber:902,addr:postcode:01202-002,addr:street:Alameda Barão de Limeira,amenity:pharmacy","lat":-23.5336688,"lng":-46.6481742},{"id":"4596662045","name":"Bradesco","tags":"addr:city:São Paulo,addr:housenumber:966,addr:postcode:01202-002,addr:street:Alameda Barão de Limeira,amenity:bank,brand:Bradesco,brand:wikidata:Q806181,brand:wikipedia:en:Banco Bradesco","lat":-23.5331203,"lng":-46.6486177},{"id":"4770163221","name":"Boteco do Gois","tags":"amenity:bar,cuisine:local,diet:vegan:yes,name:pt:Boteco do Gois,opening_hours:Mo-Su 08:00-18:00,website:https://www.botecogois.com.br/","lat":-23.5378024,"lng":-46.650419},{"id":"4987285634","name":"Restaurante Bom Prato","tags":"addr:city:São Paulo,addr:housenumber:56,addr:postcode:01201-020,addr:street:Rua General Júlio Marcondes Salgado,addr:suburb:Campos Elíseos,amenity:restaurant,delivery:yes,description:GOVERNO DO ESTADO DE SÃO PAULO Secretaria de Desenvolvimento Social,opening_hours:Mo-Su 10:30-14:30, 17:30-18:30","lat":-23.5362632,"lng":-46.6503289},{"id":"4987291244","name":"Centro de Educação Infantil CEI Jardim Flor de Lis","tags":"addr:city:São Paulo,addr:housenumber:56 - 1o andar,addr:postcode:01201-020,addr:street:Rua General Júlio Marcondes Salgado,addr:suburb:Campos Elíseos,amenity:childcare,operator:Diretoria Regional de Educação do Ipiranga","lat":-23.5363005,"lng":-46.6503023},{"id":"5368625730","name":"Marechal Deodoro","tags":"public_transport:station,railway:station,station:subway,subway:yes,wikidata:Q6758759","lat":-23.5339809,"lng":-46.6558993},{"id":"6270278384","name":"Drogarias Ultra Popular","tags":"amenity:pharmacy,dispensing:yes,healthcare:pharmacy","lat":-23.5336654,"lng":-46.6554332},{"id":"6270278387","name":"Gaspar Presentes","tags":"shop:convenience","lat":-23.533324,"lng":-46.6560376}]