[{"id":"4360206636","name":"Praça Alice Gonçalves","tags":"leisure:park","lat":-23.527096,"lng":-46.5708828},{"id":"5448154522","name":"AM PM","tags":"opening_hours:Mo-Su,PH 06:00-08:00,shop:convenience","lat":-23.5232605,"lng":-46.5666095},{"id":"5448172321","tags":"amenity:car_wash,automated:no,self_service:no","lat":-23.5227431,"lng":-46.5653979},{"id":"5454351426","name":"Caixa","tags":"amenity:bank,opening_hours:Mo-Fr 10:00-16:00","lat":-23.5271736,"lng":-46.5666302},{"id":"5454383122","name":"Academia Corinthians","tags":"leisure:fitness_centre,opening_hours:Mo-Su,PH 08:00-18:00","lat":-23.5272181,"lng":-46.5668345},{"id":"6162458803","name":"Blue Point","tags":"shop:convenience","lat":-23.5227862,"lng":-46.5653601}]