[{"id":"3485440546","name":"Brasileirinho","tags":"addr:city:São Paulo,addr:housenumber:1288,addr:postcode:02065-040,addr:street:Avenida Joaquina Ramalho,addr:suburb:Vila Guilherme,amenity:restaurant,cuisine:regional,delivery:only,phone:+55 11 2905-3319","lat":-23.5054236,"lng":-46.6042772},{"id":"4539696451","tags":"addr:city:São Paulo,addr:housenumber:415,addr:postcode:02066-011,addr:street:Rua Capitão Luís Ramos,amenity:restaurant,delivery:yes,takeaway:only","lat":-23.5053155,"lng":-46.6069572},{"id":"6835186826","name":"Shell","tags":"brand:Shell,brand:wikidata:Q110716465,brand:wikipedia:en:Royal Dutch Shell,shop:convenience","lat":-23.5088167,"lng":-46.6051646},{"id":"6835186829","tags":"amenity:car_wash,automated:no,self_service:no","lat":-23.5089452,"lng":-46.6051628},{"id":"8868052208","name":"Churrascaria Parada Dez","tags":"addr:city:São Paulo,addr:housenumber:741,addr:postcode:02067-001,addr:street:Rua Chico Pontes,amenity:restaurant","lat":-23.506376,"lng":-46.6051642},{"id":"8934148117","name":"Banco24Horas","tags":"amenity:atm,brand:Banco24Horas,brand:wikidata:Q4854069,brand:wikipedia:pt:Banco24Horas,operator:Banco 24horas.","lat":-23.5065899,"lng":-46.6052161}]