[{"id":"2427983122","tags":"amenity:school","lat":-23.4455098,"lng":-46.7310731},{"id":"2427983350","tags":"amenity:police","lat":-23.4480591,"lng":-46.7350159},{"id":"2427983352","tags":"amenity:police","lat":-23.447754,"lng":-46.7346833},{"id":"2427984007","name":"Supermercado Extra","tags":"addr:housenumber:997,addr:postcode:02991-000,addr:street:Estrada de Taipas,opening_hours:Mo-Sa 08:00-22:00; Su 08:00-21:00,phone:01139413097,shop:supermarket,website:https://www.extra.com.br/","lat":-23.4492206,"lng":-46.7349086},{"id":"2427984029","name":"Bradesco","tags":"amenity:bank","lat":-23.4496956,"lng":-46.735287},{"id":"2427984083","name":"Itau","tags":"amenity:bank","lat":-23.4500234,"lng":-46.735282},{"id":"2427984113","tags":"amenity:bar","lat":-23.4499051,"lng":-46.7352042},{"id":"2427990379","tags":"amenity:pharmacy","lat":-23.4495946,"lng":-46.7351232}]