[{"id":"1707752919","name":"Mini Mercado Extra","tags":"addr:city:São Paulo,addr:housenumber:262,addr:postcode:01303-020,addr:street:Praça Franklin Roosevelt,shop:convenience","lat":-23.547662,"lng":-46.6458516},{"id":"2619074740","name":"Galeria do Reggae","tags":"addr:city:São Paulo,addr:housenumber:116,addr:street:Rua 24 de Maio,shop:mall","lat":-23.543889,"lng":-46.6396034},{"id":"2634256028","name":"Viaduto do Chá","tags":"architect:Jules-Victor-André Martin;Elisário Bahiana,historic:bridge,length:240,start_date:1892-11-06,tourism:attraction,website:http://www.saopaulo.sp.gov.br/conhecasp/turismo_pontos-turisticos_viaduto-do-cha,width:14,wikidata:Q7924455,wikipedia:pt:Viaduto do Chá","lat":-23.5465818,"lng":-46.6379543},{"id":"3511781364","name":"Anhangabaú","tags":"public_transport:station,railway:station,station:subway,subway:yes,website:http://www.metro.sp.gov.br/redes/vermelha/teanhangabau.shtml,wheelchair:yes,wikidata:Q4764340","lat":-23.547819,"lng":-46.6392744},{"id":"3666756702","name":"Caixa Econômica Federal","tags":"addr:city:São Paulo,addr:housenumber:75,addr:postcode:01301-000,addr:street:Rua da Consolação,amenity:bank,atm:yes,brand:Caixa Econômica Federal,brand:wikidata:Q835283,brand:wikipedia:pt:Caixa Econômica Federal","lat":-23.5480636,"lng":-46.6421271},{"id":"3702334525","name":"Correios","tags":"addr:city:São Paulo,addr:country:BR,addr:housenumber:76,addr:postcode:01223-970,addr:street:Rua Marquês de Itu,addr:suburb:Vila Buarque,alt_name:AC Marquês de Itu,amenity:post_office,brand:Correios,brand:wikidata:Q3375004,brand:wikipedia:en:Correios,opening_hours:Mo-Fr 09:00-17:00","lat":-23.5438076,"lng":-46.6450236},{"id":"3719548502","name":"Carrefour Express","tags":"addr:city:São Paulo,addr:housenumber:83,addr:postcode:01048-100,addr:street:Rua Coronel Xavier de Toledo,brand:Carrefour Express,brand:wikidata:Q2940190,brand:wikipedia:fr:Carrefour Express,shop:convenience","lat":-23.5467537,"lng":-46.6392177},{"id":"3730283204","name":"Banco do Brasil","tags":"addr:city:São Paulo,addr:housenumber:78,addr:postcode:01048-000,addr:street:Rua Coronel Xavier de Toledo,amenity:bank,brand:Banco do Brasil,brand:wikidata:Q610817,brand:wikipedia:en:Banco do Brasil","lat":-23.5465774,"lng":-46.6393892},{"id":"3787128135","name":"Santander","tags":"addr:city:São Paulo,addr:housenumber:192,addr:postcode:01046-000,addr:street:Avenida São Luís,amenity:bank,brand:Santander,brand:wikidata:Q5835668,brand:wikipedia:en:Santander Bank","lat":-23.5467574,"lng":-46.6431269},{"id":"3994366410","name":"Por um punhado de dólares - PPD","tags":"addr:city:São Paulo,addr:housenumber:115,addr:postcode:01303-010,addr:street:Rua Nestor Pestana,amenity:cafe,internet_access:yes,name:pt:Por um Punhado de Dólares - PPD,opening_hours:Mo-Su 10:00-00:00,phone:+55 11 3214 5891","lat":-23.5485561,"lng":-46.6453462},{"id":"4121698127","name":"133. Praça Roosevelt","tags":"disused:amenity:bicycle_rental,leisure:park","lat":-23.5482153,"lng":-46.6464816},{"id":"4211032428","name":"Universidade Estadual Paulista Júlio de Mesquita Filho","tags":"addr:city:São Paulo,addr:country:BR,addr:housename:Reitoria,addr:housenumber:215,addr:postcode:01049-010,addr:street:Rua Quirino de Andrade,addr:suburb:Centro,amenity:university,contact:website:http://www.unesp.br,entrance:yes,short_name:Unesp","lat":-23.5478873,"lng":-46.6409254},{"id":"4280289889","name":"ABC Bailão","tags":"addr:city:São Paulo,addr:country:BR,addr:housenumber:182,addr:postcode:01223-000,addr:state:SP,addr:street:Rua Marquês de Itu,amenity:bar,contact:email:abcbailao@gmail.com,contact:facebook:https://www.facebook.com/ABCbailao,contact:phone:+55 11 9 7777-2940,contact:soundcloud:https://soundcloud.com/dj-eduardog2,contact:website:http://novo.abcbailao.com.br/acasa/,contact:youtube:https://www.youtube.com/user/djeduardog1","lat":-23.5437833,"lng":-46.6460225},{"id":"4293611789","name":"Agência do Banco do Brasil","tags":"addr:city:São Paulo,addr:housenumber:357,addr:street:Rua Formosa,amenity:bank","lat":-23.5454691,"lng":-46.6372612},{"id":"4305213694","name":"Paribar","tags":"addr:city:São Paulo,addr:housenumber:42,addr:street:praça dom josé gaspar,amenity:restaurant,phone:+55 11 3159-0219,website:http://www.paribar.com.br,wikidata:Q62027286","lat":-23.5464681,"lng":-46.6418431},{"id":"4311953410","name":"República","tags":"public_transport:station,railway:station,station:subway,subway:yes,train:no,wikidata:Q7314773","lat":-23.5440945,"lng":-46.642665},{"id":"4321097189","name":"Apfel","tags":"addr:city:São Paulo,addr:housenumber:99,addr:postcode:01038-100,addr:street:Rua Dom José de Barros,amenity:restaurant,diet:vegan:yes,diet:vegetarian:yes,opening_hours:Mo-Sa 11:00-15:00,phone:+55 11 3256 7909,website:https://www.apfel.com.br/","lat":-23.5446224,"lng":-46.641057},{"id":"4436461094","name":"Bradesco","tags":"addr:city:São Paulo,addr:housenumber:282,addr:postcode:01046-010,addr:street:Avenida Ipiranga,amenity:bank,brand:Bradesco,brand:wikidata:Q806181,brand:wikipedia:en:Banco Bradesco,opening_hours:Mo-Fr 10:00-16:00","lat":-23.5458537,"lng":-46.6442274},{"id":"4442406496","name":"Minas Chic","tags":"addr:city:São Paulo,addr:housenumber:241,addr:postcode:01220-000,addr:street:Rua Bento Freitas,amenity:restaurant,cuisine:regional","lat":-23.5439508,"lng":-46.6454307},{"id":"4442406936","tags":"addr:city:São Paulo,addr:housenumber:221,addr:postcode:01223-001,addr:street:Rua Marquês de Itu,amenity:bar","lat":-23.5439157,"lng":-46.6464843},{"id":"4490913406","name":"Drosophyla","tags":"addr:city:São Paulo,addr:housenumber:163,addr:postcode:01303-010,addr:street:Rua Nestor Pestana,amenity:restaurant,amenity_1:bar,cuisine:international","lat":-23.5490322,"lng":-46.6453841},{"id":"4521136030","name":"Itaú","tags":"addr:city:São Paulo,addr:housenumber:236,addr:postcode:01044-000,addr:street:Rua Sete de Abril,amenity:bank,brand:Itaú Unibanco,brand:wikidata:Q1424293,brand:wikipedia:pt:Itaú Unibanco","lat":-23.5457745,"lng":-46.6412802},{"id":"4524594696","tags":"addr:city:São Paulo,addr:housenumber:310,addr:postcode:01048-000,addr:street:Rua Coronel Xavier de Toledo,shop:supermarket","lat":-23.5475934,"lng":-46.6412089},{"id":"4524594703","tags":"addr:city:São Paulo,addr:housenumber:254,addr:postcode:01048-000,addr:street:Rua Coronel Xavier de Toledo,amenity:restaurant,cuisine:regional","lat":-23.5474825,"lng":-46.6406482},{"id":"4524594707","tags":"addr:city:São Paulo,addr:housenumber:226,addr:postcode:01048-000,addr:street:Rua Coronel Xavier de Toledo,amenity:restaurant,cuisine:regional","lat":-23.5474216,"lng":-46.6404096},{"id":"4524594712","tags":"addr:city:São Paulo,addr:housenumber:192,addr:postcode:01048-000,addr:street:Rua Coronel Xavier de Toledo,amenity:restaurant,cuisine:regional","lat":-23.547351,"lng":-46.6400858},{"id":"4526413323","name":"Bar e Café Crispiniano","tags":"addr:city:São Paulo,addr:housenumber:98,addr:postcode:01044-000,addr:street:Rua Sete de Abril,amenity:cafe,cuisine:regional","lat":-23.5467698,"lng":-46.6405048},{"id":"4526413324","tags":"addr:city:São Paulo,addr:housenumber:52,addr:postcode:01044-000,addr:street:Rua Sete de Abril,amenity:restaurant,cuisine:regional","lat":-23.5470337,"lng":-46.6401714},{"id":"4526413325","tags":"addr:city:São Paulo,addr:housenumber:56,addr:postcode:01044-000,addr:street:Rua Sete de Abril,amenity:restaurant,cuisine:regional","lat":-23.5470065,"lng":-46.6402063},{"id":"4526413331","name":"Cascais","tags":"addr:city:São Paulo,addr:housenumber:136,addr:postcode:01044-000,addr:street:Rua Sete de Abril,amenity:restaurant,cuisine:regional","lat":-23.5465155,"lng":-46.6407264},{"id":"4526413332","name":"Fazenda Grill","tags":"addr:city:São Paulo,addr:housenumber:140,addr:postcode:01044-000,addr:street:Rua Sete de Abril,amenity:restaurant,cuisine:regional","lat":-23.5464798,"lng":-46.6407531},{"id":"4526413336","tags":"addr:city:São Paulo,addr:housenumber:172,addr:postcode:01044-000,addr:street:Rua Sete de Abril,amenity:restaurant,cuisine:regional","lat":-23.5462653,"lng":-46.6409132},{"id":"4526413341","name":"Emporio","tags":"shop:supermarket","lat":-23.5456349,"lng":-46.6413826},{"id":"4526413343","tags":"addr:city:São Paulo,addr:housenumber:258,addr:postcode:01044-000,addr:street:Rua Sete de Abril,amenity:restaurant,cuisine:regional","lat":-23.5455721,"lng":-46.6414289},{"id":"4526413345","name":"Drogasil","tags":"addr:city:São Paulo,addr:housenumber:268,addr:postcode:01044-000,addr:street:Rua Sete de Abril,amenity:pharmacy,brand:Drogasil,brand:wikidata:Q5308185,brand:wikipedia:pt:Drogasil,contact:email:atendimento@drogasil.com.br,contact:phone:+55 11 3258-4605;+55 11 3257-4895,contact:website:http://www.drogasil.com.br/,healthcare:pharmacy,opening_hours:Mo-Fr 07:00-21:00;Sa 07:00-18:00;Su 00:00-24:00,wheelchair:yes","lat":-23.5455019,"lng":-46.6414806},{"id":"4526413349","name":"Restaurante Finisteri","tags":"addr:city:São Paulo,addr:housenumber:290,addr:postcode:01044-000,addr:street:Rua Sete de Abril,amenity:restaurant,cuisine:italian","lat":-23.5453393,"lng":-46.6416005},{"id":"4526413356","name":"Churrascaria","tags":"addr:city:São Paulo,addr:housenumber:346,addr:postcode:01044-000,addr:street:Rua Sete de Abril,amenity:restaurant,cuisine:regional,name:ko:슈하스카리아 트릴랴 가우차,name:pt:Churrascaria Trilha Gaucha","lat":-23.5449255,"lng":-46.6419109},{"id":"4526413362","name":"Banco do Brasil","tags":"addr:city:São Paulo,addr:housenumber:386,addr:postcode:01044-000,addr:street:Rua Sete de Abril,amenity:bank,brand:Banco do Brasil,brand:wikidata:Q610817,brand:wikipedia:en:Banco do Brasil","lat":-23.5446722,"lng":-46.6421728},{"id":"4526413364","name":"Santander","tags":"addr:city:São Paulo,addr:housenumber:410,addr:postcode:01044-000,addr:street:Rua Sete de Abril,amenity:bank,brand:Santander,brand:wikidata:Q5835668,brand:wikipedia:en:Santander Bank","lat":-23.5445302,"lng":-46.6423335},{"id":"4526925296","name":"Casa do Pão de Queijo","tags":"addr:city:São Paulo,addr:housenumber:49,addr:postcode:01047-020,addr:street:Rua Doutor Bráulio Gomes,amenity:cafe,brand:Casa do Pão de Queijo,brand:wikidata:Q9698946,brand:wikipedia:pt:Casa do Pão de Queijo,cuisine:coffee_shop,takeaway:yes","lat":-23.546539,"lng":-46.641364},{"id":"4528875291","name":"A Casa do Porco Bar","tags":"addr:city:São Paulo,addr:housenumber:124,addr:postcode:01220-020,addr:street:Rua Araújo,amenity:bar,entrance:main,opening_hours:Mo-Sa 12:00-00:00; Su 12:00-17:00,phone:+55 11 3258 2578,website:https://acasadoporco.com.br","lat":-23.544852,"lng":-46.6446448},{"id":"4528920989","name":"Bar da Dona Onça","tags":"addr:city:São Paulo,addr:housenumber:200,addr:postcode:01046-010,addr:street:Avenida Ipiranga,amenity:bar,cuisine:brazilian,internet_access:wlan,opening_hours:Mo-We 12:00-23:30; Th-Sa 12:00-00:30; Su 12:00-17:30,phone:1132572016,website:https://www.bardadonaonca.com.br/","lat":-23.5465344,"lng":-46.6448641},{"id":"4539930516","name":"Mini Mercado Extra","tags":"addr:city:São Paulo,addr:housenumber:244,addr:postcode:01220-020,addr:street:Rua Araújo,shop:convenience","lat":-23.5459918,"lng":-46.6450062},{"id":"4539930649","tags":"addr:city:São Paulo,addr:housenumber:32,addr:postcode:01220-030,addr:street:Rua Epitácio Pessoa,amenity:restaurant,cuisine:regional","lat":-23.5460802,"lng":-46.6452358},{"id":"4588145837","name":"Medicina Diagnóstica Lavoisier","tags":"addr:city:São Paulo,addr:housenumber:47,addr:postcode:01046-001,addr:street:Avenida São Luís,amenity:hospital,contact:phone:+55 11 3047-4488,contact:website:http://www.lavoisier.com.br/","lat":-23.5452113,"lng":-46.6430721},{"id":"4641297791","name":"Carlino Restaurante","tags":"addr:city:São Paulo,addr:housenumber:85,addr:postcode:01220-030,addr:street:Rua Epitácio Pessoa,amenity:restaurant,cuisine:italian,name:en:Carlino,name:pt:Carlino,opening_hours:Mo-Su 12:00-00:00,website:https://www.ristorantecarlino.com.br/","lat":-23.5460885,"lng":-46.6457625},{"id":"4644509361","name":"G.A.T.X","tags":"addr:city:São Paulo,addr:housenumber:1,addr:postcode:01301-000,addr:street:Rua da Consolação,amenity:parking,fee:yes,parking:multi-storey,supervised:yes,surface:concrete","lat":-23.5479486,"lng":-46.6413083},{"id":"4644509363","name":"Rede Park","tags":"addr:city:São Paulo,addr:housenumber:15,addr:postcode:01301-000,addr:street:Rua da Consolação,amenity:parking,fee:yes,parking:multi-storey,supervised:yes,surface:concrete","lat":-23.5479711,"lng":-46.6414575},{"id":"4648524305","tags":"addr:city:São Paulo,addr:housenumber:115,addr:postcode:01047-020,addr:street:Rua Doutor Bráulio Gomes,shop:mall,toilets:yes","lat":-23.5470089,"lng":-46.6413693},{"id":"4648524312","name":"Itaú","tags":"addr:city:São Paulo,addr:housenumber:167,addr:postcode:01043-000,addr:street:Rua Sete de Abril,amenity:bank,brand:Itaú Unibanco,brand:wikidata:Q1424293,brand:wikipedia:pt:Itaú Unibanco","lat":-23.5463856,"lng":-46.6409785},{"id":"4659755782","name":"Bradesco","tags":"addr:city:São Paulo,addr:housenumber:210,addr:postcode:01046-010,addr:street:Avenida Ipiranga,amenity:bank,brand:Bradesco,brand:wikidata:Q806181,brand:wikipedia:en:Banco Bradesco,name:pt:Bradesco Agência Nova Central","lat":-23.546111,"lng":-46.6445029},{"id":"4659821482","name":"Mini Extra","tags":"addr:city:São Paulo,addr:housenumber:382,addr:postcode:01302-000,addr:street:Rua da Consolação,shop:convenience","lat":-23.5472597,"lng":-46.6450299},{"id":"4660442248","name":"Bar e Lanches Chapéu de Couro","tags":"addr:city:São Paulo,addr:housenumber:55,addr:street:Rua Formosa,amenity:bar","lat":-23.5476356,"lng":-46.639043},{"id":"4660442253","name":"Tomdam Bar e Lanchonete","tags":"addr:city:São Paulo,addr:housenumber:69,addr:street:Rua Formosa,amenity:bar","lat":-23.5475292,"lng":-46.6389575},{"id":"4675112602","name":"Caixa Econômica Federal","tags":"addr:city:São Paulo,addr:housenumber:345,addr:postcode:01043-000,addr:street:Rua Sete de Abril,amenity:bank,brand:Caixa Econômica Federal,brand:wikidata:Q835283,brand:wikipedia:pt:Caixa Econômica Federal","lat":-23.545036,"lng":-46.6419777},{"id":"4678301981","name":"Banco Safra","tags":"addr:city:São Paulo,addr:housenumber:213,addr:postcode:01042-001,addr:street:Rua Barão de Itapetininga,amenity:bank","lat":-23.5443904,"lng":-46.6410821},{"id":"4678305001","name":"Rei do Mate","tags":"addr:city:São Paulo,addr:housenumber:19,addr:postcode:01038-100,addr:street:Rua Dom José de Barros,amenity:cafe,brand:Rei do Mate,brand:wikidata:Q7309875,brand:wikipedia:pt:Rei do Mate,cuisine:tea,takeaway:yes","lat":-23.545081,"lng":-46.6416334},{"id":"4678872008","name":"Tap Tap","tags":"addr:city:São Paulo,addr:housenumber:449,addr:postcode:01301-000,addr:street:Rua da Consolação,amenity:bar","lat":-23.5475067,"lng":-46.6457071},{"id":"4678872042","name":"Mini Mercado Extra","tags":"addr:city:São Paulo,addr:housenumber:254,addr:postcode:01303-020,addr:street:Praça Franklin Roosevelt,shop:convenience","lat":-23.5477303,"lng":-46.6458754},{"id":"4678872043","name":"Mini Mercado Extra","tags":"addr:city:São Paulo,addr:housenumber:268,addr:postcode:01303-020,addr:street:Praça Franklin Roosevelt,shop:convenience","lat":-23.5476301,"lng":-46.6458405},{"id":"4679277055","tags":"addr:city:São Paulo,addr:housenumber:94,addr:postcode:01303-010,addr:street:Rua Nestor Pestana,amenity:parking,fee:yes,parking:surface,supervised:yes","lat":-23.5483975,"lng":-46.6454876},{"id":"4680455394","name":"Galeria Louzã","tags":"addr:city:São Paulo,addr:housenumber:70,addr:postcode:01038-000,addr:street:Rua Dom José de Barros,shop:mall","lat":-23.5448907,"lng":-46.6412016},{"id":"4680455413","name":"Itaú","tags":"addr:city:São Paulo,addr:housenumber:131,addr:postcode:01042-001,addr:street:Rua Barão de Itapetininga,amenity:bank,brand:Itaú Unibanco,brand:wikidata:Q1424293,brand:wikipedia:pt:Itaú Unibanco","lat":-23.5448449,"lng":-46.6405138},{"id":"4680455417","name":"Bradesco","tags":"addr:city:São Paulo,addr:housenumber:107,addr:postcode:01042-001,addr:street:Rua Barão de Itapetininga,amenity:bank,brand:Bradesco,brand:wikidata:Q806181,brand:wikipedia:en:Banco Bradesco","lat":-23.5450313,"lng":-46.6402778},{"id":"4683366694","name":"OXXO","tags":"addr:city:São Paulo,addr:housenumber:397,addr:postcode:01301-000,addr:street:Rua da Consolação,opening_hours:24/7,shop:convenience","lat":-23.5475916,"lng":-46.6452477},{"id":"4685271768","name":"Banco Itaú","tags":"addr:city:São Paulo,addr:housenumber:480,addr:postcode:01302-000,addr:street:Rua da Consolação,amenity:bank","lat":-23.5469671,"lng":-46.6463446},{"id":"4685271792","tags":"addr:city:São Paulo,addr:housenumber:20,addr:street:Rua Doutor Teodoro Baima,amenity:parking,surface:paved","lat":-23.5461748,"lng":-46.6460732},{"id":"4685271794","tags":"addr:city:São Paulo,addr:housenumber:38,addr:street:Rua Doutor Teodoro Baima,amenity:parking","lat":-23.5463341,"lng":-46.6461103},{"id":"4685331615","name":"Banco do Brasil","tags":"addr:city:São Paulo,addr:housenumber:530,addr:postcode:01220-010,addr:street:Rua Rego Freitas,amenity:bank,brand:Banco do Brasil,brand:wikidata:Q610817,brand:wikipedia:en:Banco do Brasil","lat":-23.5465762,"lng":-46.6467484},{"id":"4686945541","name":"Galeria R Monteiro","tags":"addr:city:São Paulo,addr:housenumber:77,addr:postcode:01041-001,addr:street:Rua Vinte e Quatro de Maio,shop:mall","lat":-23.5444479,"lng":-46.6394657},{"id":"4686945555","name":"Bradesco","tags":"addr:city:São Paulo,addr:housenumber:102,addr:postcode:01041-000,addr:street:Rua Vinte e Quatro de Maio,amenity:bank,brand:Bradesco,brand:wikidata:Q806181,brand:wikipedia:en:Banco Bradesco","lat":-23.5442136,"lng":-46.6395593},{"id":"4686945581","tags":"addr:city:São Paulo,addr:housenumber:393,addr:postcode:01035-000,addr:street:Avenida São João,amenity:restaurant","lat":-23.5437135,"lng":-46.6381516},{"id":"4694044380","name":"Itaú","tags":"addr:city:São Paulo,addr:housenumber:288,addr:postcode:01042-000,addr:street:Rua Barão de Itapetininga,amenity:bank,branch:Personnalite,brand:Itaú Unibanco,brand:wikidata:Q1424293,brand:wikipedia:pt:Itaú Unibanco,entrance:main","lat":-23.5438299,"lng":-46.6415499},{"id":"4694044789","tags":"addr:city:São Paulo,addr:housenumber:254,addr:postcode:01042-000,addr:street:Rua Barão de Itapetininga,shop:supermarket","lat":-23.5440301,"lng":-46.6412835},{"id":"4695577846","name":"Boi na Brasa","tags":"addr:city:São Paulo,addr:housenumber:139,addr:postcode:01223-001,addr:street:Rua Marquês de Itu,amenity:restaurant,cuisine:steak_house,opening_hours:Mo-Fr 11:00-04:00,outdoor_seating:no,phone:+55 11 3222-9479","lat":-23.5439349,"lng":-46.6456676},{"id":"4696125724","tags":"addr:city:São Paulo,addr:housenumber:204,addr:postcode:01220-020,addr:street:Rua Araújo,amenity:post_office","lat":-23.5456342,"lng":-46.6448545},{"id":"4696125727","name":"Love Story","tags":"addr:city:São Paulo,addr:housenumber:232,addr:postcode:01220-020,addr:street:Rua Araújo,amenity:nightclub,website:http://www.danceterialovestory.tur.br/,wikidata:Q28681028","lat":-23.5459231,"lng":-46.6449685},{"id":"4697407676","name":"Buono Café","tags":"addr:city:São Paulo,addr:housenumber:167,addr:postcode:01045-001,addr:street:Praça da República,amenity:cafe","lat":-23.5442642,"lng":-46.6445248},{"id":"4697407793","name":"Lanchonete e Restaurante Bar da Cidade","tags":"addr:city:São Paulo,addr:housenumber:90,addr:postcode:01223-010,addr:street:Rua General Jardim,amenity:restaurant","lat":-23.544674,"lng":-46.6454348},{"id":"4697491525","tags":"addr:city:São Paulo,addr:housenumber:157,addr:postcode:01223-011,addr:street:Rua General Jardim,amenity:parking,fee:yes,parking:multi-storey,supervised:yes,surface:paved","lat":-23.5448266,"lng":-46.6461486},{"id":"4697491538","name":"Trevo Estacionamentos","tags":"access:permissive,addr:city:São Paulo,addr:housenumber:228,addr:postcode:01222-000,addr:street:Rua Major Sertório,amenity:parking,fee:yes,opening_hours:07:00-20:00,parking:multi-storey,supervised:yes,surface:paved","lat":-23.5453752,"lng":-46.6462534},{"id":"4703607696","tags":"addr:city:São Paulo,addr:housenumber:420,addr:postcode:01220-000,addr:street:Rua Bento Freitas,amenity:parking,fee:yes,park_ride:no,parking:surface,supervised:yes,surface:paved","lat":-23.5457074,"lng":-46.6456568},{"id":"4703607729","name":"Boi na Brasa","tags":"addr:city:São Paulo,addr:housenumber:188,addr:postcode:01223-000,addr:street:Rua Marquês de Itu,amenity:restaurant,cuisine:steak_house,opening_hours:Mo-Fr 11:00-04:00,website:http://www.churrascariaboinabrasa.com.br/","lat":-23.54378,"lng":-46.6461657},{"id":"4781914317","name":"Trevo Estacionamentos","tags":"access:permissive,addr:city:São Paulo,addr:housenumber:285,addr:postcode:01220-010,addr:street:Rua Rego Freitas,amenity:parking,contact:website:http://www.estacionamentostrevo.com.br/,fee:yes,opening_hours:24/7,supervised:yes,surface:paved","lat":-23.5443724,"lng":-46.6465175},{"id":"4781914469","name":"Trevo Estacionamentos","tags":"access:permissive,addr:city:São Paulo,addr:country:BR,addr:housenumber:252,addr:street:Rua General Jardim,addr:suburb:Vila Buarque,amenity:parking,fee:yes,opening_hours:Mo-Fr 07:00-20:00; Sa 07:00-14:00,parking:surface,supervised:yes,surface:paved","lat":-23.5446347,"lng":-46.6470325},{"id":"4781917596","name":"Super Lanches","tags":"addr:city:São Paulo,addr:housenumber:84,addr:postcode:01223-000,addr:street:Rua Marquês de Itu,amenity:bar,outdoor_seating:no","lat":-23.5438051,"lng":-46.6451089},{"id":"4781920943","name":"DHL","tags":"addr:city:São Paulo,addr:country:BR,addr:housenumber:71,addr:postcode:01045-001,addr:street:Praça da República,amenity:post_office,brand:DHL,brand:wikidata:Q489815,brand:wikipedia:en:DHL,contact:website:http://www.dhl.com.br/,opening_hours:Mo-Fr 13:00-18:00, 09:00-12:00","lat":-23.5449193,"lng":-46.6437908},{"id":"4832870545","tags":"addr:city:São Paulo,addr:housenumber:366,addr:postcode:01220-010,addr:street:Rua Rego Freitas,amenity:parking,parking:surface,supervised:no","lat":-23.5450993,"lng":-46.6467012},{"id":"4841729058","name":"Restaurante Chopp Escuro","tags":"addr:city:São Paulo,addr:housenumber:252,addr:postcode:01223-000,addr:street:Rua Marquês de Itu,amenity:restaurant,cuisine:regional,opening_hours:Mo 12:00-17:00, Tu-Sa 12:00-02:00, Su 00:00-02:00,12:00-24:00,phone:+55 11 3221-0872","lat":-23.5437604,"lng":-46.6468132},{"id":"4841729070","tags":"addr:city:São Paulo,addr:housenumber:326,addr:postcode:01223-000,addr:street:Rua Marquês de Itu,amenity:parking,fee:yes,parking:surface,supervised:yes,surface:paved","lat":-23.5437471,"lng":-46.6475287},{"id":"4847850823","name":"Boi na Brasa I","tags":"addr:housenumber:139,addr:street:Rua Marquês de Itu,amenity:restaurant,name:pt:BOI NA BRASA I","lat":-23.5439462,"lng":-46.6456217},{"id":"4884206721","name":"B/B Mercato","tags":"name:ja:B/B メルカト,name:pt:B/B Mercato,shop:supermarket","lat":-23.5438501,"lng":-46.637291},{"id":"4918369714","name":"Esther Rooftop","tags":"addr:city:São Paulo,addr:postcode:01045-000,addr:street:Praça da República,amenity:restaurant,cuisine:french;international,outdoor_seating:no,phone:(11) 3256-1009,smoking:isolated","lat":-23.5446214,"lng":-46.6426234},{"id":"4945030022","name":"Pizzaria Copan","tags":"amenity:restaurant,cuisine:pizza,name:pt:Pizzaria Copan","lat":-23.5467618,"lng":-46.6449309},{"id":"4946129621","tags":"addr:street:Rua Dom José de Barros,amenity:restaurant,name:en:Frigideira Grill","lat":-23.5449427,"lng":-46.6412532},{"id":"4967263118","name":"Varanda Copan","tags":"amenity:restaurant","lat":-23.5466602,"lng":-46.6449126},{"id":"5015144923","name":"Panda Express Vegano","tags":"addr:city:São Paulo,addr:housenumber:137,addr:postcode:01009-000,addr:street:Rua Líbero Badaró,amenity:restaurant,diet:vegan:only,diet:vegetarian:only,name:pt:Panda Express Vegano","lat":-23.5482356,"lng":-46.6373451},{"id":"5015213921","name":"Carrefour Express","tags":"addr:city:São Paulo,addr:housenumber:130,addr:postcode:01008-000,addr:street:Rua Líbero Badaró,brand:Carrefour Express,brand:wikidata:Q2940190,brand:wikipedia:fr:Carrefour Express,name:pt:Carrefour Express,shop:convenience","lat":-23.5483741,"lng":-46.6372206},{"id":"5015214122","name":"Lanches Triângulo","tags":"addr:city:São Paulo,addr:housenumber:141,addr:postcode:01009-000,addr:street:Rua Líbero Badaró,amenity:cafe,name:pt:Lanches Triângulo","lat":-23.5482054,"lng":-46.6373275},{"id":"5015216521","name":"Lanchonete Manga e Laranja","tags":"addr:city:São Paulo,addr:housenumber:127,addr:postcode:01009-000,addr:street:Rua Líbero Badaró,amenity:cafe,name:pt:Lanchonete Manga e Laranja","lat":-23.5482941,"lng":-46.6373791},{"id":"5067720929","name":"Alberta #3","tags":"addr:housenumber:272,addr:street:Avenida São Luís,amenity:bar,name:pt:Alberta #3","lat":-23.5477207,"lng":-46.6427998},{"id":"5079592304","tags":"addr:city:São Paulo,addr:housenumber:136,addr:postcode:01008-000,addr:street:Rua Líbero Badaró,amenity:parking","lat":-23.5483037,"lng":-46.6371817},{"id":"5226085382","name":"Nutrisom Centro","tags":"addr:city:São Paulo,addr:housenumber:160 sobre loja,addr:postcode:01050-060,addr:street:Viaduto Nove de Julho,addr:suburb:Centro,amenity:restaurant,diet:vegan:yes,diet:vegetarian:only,level:1,opening_hours:Mo-Su 11:00-15:15,phone:+55 11 3255 - 4263,website:http://www.nutrisom.com.br/","lat":-23.5488423,"lng":-46.6423018},{"id":"5235155624","name":"Pizzaria Prosperitá","tags":"amenity:restaurant,cuisine:savory_pancakes;pizza","lat":-23.546307,"lng":-46.6440172},{"id":"5278298946","name":"Terraço Itália","tags":"amenity:restaurant,contact:phone:+55 11 2189-2929,contact:website:http://www.terracoitalia.com.br/,cuisine:italian,location:roof,opening_hours:Mo-Fr 12:00-24:00; Sa 00:00-01:00,12:00-24:00; Su 00:00-01:00,12:00-23:00,wikidata:Q10380809,wikipedia:pt:Terraço Itália","lat":-23.5454386,"lng":-46.6435572},{"id":"5295470524","name":"Little Rock Coffee","tags":"amenity:bar","lat":-23.5470627,"lng":-46.643077},{"id":"5380681143","name":"Mandíbula","tags":"addr:housenumber:106,addr:postcode:01047-010,addr:street:Praça Dom José Gaspar,amenity:bar,opening_hours:Mo-Fr 18:00-01:00,phone:(11) 3129-3556,website:http://mandibula.tv/","lat":-23.5475159,"lng":-46.6423407},{"id":"5977226585","name":"Banco Santander","tags":"amenity:bank,brand:Banco Santander,brand:en:Santander Bank,brand:es:Banco Santander,brand:wikidata:Q6496310,brand:wikipedia:es:Banco Santander,name:en:Santander Bank,name:es:Banco Santander,official_name:Santander Group","lat":-23.5469073,"lng":-46.6460716},{"id":"6193942890","name":"Magg Café","tags":"addr:city:São Paulo,addr:housenumber:200,addr:postcode:01046-010,addr:street:Avenida Ipiranga,addr:suburb:Centro,amenity:cafe,cuisine:coffee_shop,lgbtq:yes,outdoor_seating:no,smoking:no,store:75 and 76,takeaway:yes","lat":-23.5465145,"lng":-46.6441343},{"id":"6270270137","name":"Starbucks","tags":"amenity:cafe,brand:Starbucks,brand:wikidata:Q37158,brand:wikipedia:en:Starbucks,cuisine:coffee_shop,official_name:Starbucks Coffee,smoking:no,takeaway:yes","lat":-23.5447812,"lng":-46.6429989},{"id":"6337380292","name":"Dia","tags":"brand:Dia,brand:wikidata:Q925132,brand:wikipedia:es:Supermercados DIA,shop:supermarket","lat":-23.5442192,"lng":-46.6397254},{"id":"6463734186","name":"Starbucks","tags":"amenity:cafe,brand:Starbucks,brand:wikidata:Q37158,brand:wikipedia:en:Starbucks,cuisine:coffee_shop,name:ja:スターバックスコーヒー,official_name:Starbucks Coffee,takeaway:yes","lat":-23.5463416,"lng":-46.638905},{"id":"6481658285","name":"Bar dos Arcos","tags":"amenity:restaurant,cuisine:international,opening_hours:Tu-Su 18:00-01:00","lat":-23.5453194,"lng":-46.6384353},{"id":"6638653999","name":"Conservatório Dramatico e Musical de São Paulo","tags":"tourism:attraction","lat":-23.5443931,"lng":-46.6371802},{"id":"6638654000","name":"Escola De Dança do Theatro Municipal de São Paulo","tags":"tourism:attraction","lat":-23.5444326,"lng":-46.6371001},{"id":"6638654001","name":"Fundação Fernando Henrique Cardoso","tags":"tourism:museum","lat":-23.5453813,"lng":-46.6372948},{"id":"6638654002","name":"Praça das Artes","tags":"tourism:museum","lat":-23.5443176,"lng":-46.6373301},{"id":"6638654003","name":"Praça das Artes","tags":"tourism:attraction","lat":-23.5448051,"lng":-46.6371093},{"id":"6886525649","name":"KL","tags":"addr:city:São Paulo,addr:housenumber:165,addr:postcode:01050-000,addr:street:Rua Martins Fontes,shop:convenience","lat":-23.5490604,"lng":-46.6438772},{"id":"7234959580","name":"Restaurante Marajá","tags":"addr:city:São Paulo,addr:housenumber:153,addr:postcode:01050-000,addr:street:Rua Martins Fontes,addr:suburb:Consolação,amenity:restaurant,contact:facebook:https://www.facebook.com/restaurantemaraja/,cuisine:brazilian;italian,opening_hours:Mo-Su 11:30-16:00,phone:+55 11 3104-8727,website:https://www.restaurantemaraja.com/contato","lat":-23.5488998,"lng":-46.643675},{"id":"8124135189","name":"Drogasil","tags":"addr:city:São Paulo,addr:housenumber:40,addr:postcode:01042-000,addr:street:Rua Barão de Itapetininga,addr:suburb:Centro,amenity:pharmacy,brand:Drogasil,brand:wikidata:Q5308185,brand:wikipedia:pt:Drogasil,dispensing:yes,healthcare:pharmacy,wheelchair:yes","lat":-23.5450199,"lng":-46.6398071},{"id":"8507390776","name":"Megafauna","tags":"shop:books","lat":-23.5462931,"lng":-46.6438946},{"id":"8507390777","name":"Cuia","tags":"amenity:restaurant,cuisine:regional","lat":-23.5463741,"lng":-46.6438437},{"id":"9146534117","name":"Orfeu","tags":"amenity:restaurant","lat":-23.5455462,"lng":-46.6435093},{"id":"9933123479","name":"Carrefour Express","tags":"shop:convenience","lat":-23.5480554,"lng":-46.6420234},{"id":"4884206727","name":"Hirota Food Express","tags":"addr:street:Avenida Ipiranga,shop:convenience","lat":-23.5454948,"lng":-46.6437849}]