[{"id":"9197820800","tags":"access:private,amenity:parking,parking:surface","lat":-23.288397,"lng":-46.750297},{"id":"9197977291","name":"Peteleco Alimentação Animal","tags":"addr:street:Rua Afonso Moreno,contact:mobile:+55 11 94462 5395,phone:+55 11 4608 5617,shop:pet","lat":-23.2891048,"lng":-46.749472},{"id":"9198089131","name":"Elite Lava Car","tags":"addr:street:Rua Afonso Moreno,amenity:car_wash,automated:no,self_service:no","lat":-23.2888861,"lng":-46.7493368},{"id":"9198089140","name":"Pet Stop","tags":"addr:street:Rua Afonso Moreno,contact:mobile:+55 11 97796 9065,phone:+55 11 4881 2883,shop:pet","lat":-23.2878865,"lng":-46.7495043},{"id":"9198089142","name":"A Atelier","tags":"addr:street:Rua Afonso Moreno,contact:mobile:+55 11 97608 3323,phone:+55 11 98823 0050,shop:beauty","lat":-23.287748,"lng":-46.7495311}]