[{"id":"2015024619","name":"Parque das Bandeiras Shopping","tags":"addr:housenumber:3900,addr:postcode:13060-803,addr:street:Avenida John Boyd Bunlop,shop:mall,website:https://www.shoppingparquedasbandeiras.com.br/","lat":-22.9247795,"lng":-47.1249681},{"id":"4526254289","tags":"addr:housenumber:993,addr:postcode:13060800,addr:street:Rua Hermano Penteado,amenity:bar,email:vladrogerio28@gmail.com,internet_access:wlan,phone:19991041005","lat":-22.9245115,"lng":-47.121754},{"id":"5053597524","name":"Lojas Americanas","tags":"name:pt:Lojas Americanas,shop:convenience","lat":-22.9240055,"lng":-47.1269403},{"id":"5053597721","name":"Sondas","tags":"name:pt:Sondas Supermercados,shop:supermarket","lat":-22.9243113,"lng":-47.1261532},{"id":"5053847528","tags":"amenity:atm,operator:24 Horas","lat":-22.9242632,"lng":-47.1282477},{"id":"5053899139","name":"Matuto","tags":"amenity:restaurant,cuisine:steak_house,name:pt:Matuto","lat":-22.9266322,"lng":-47.1269341},{"id":"5053928622","name":"Drogasil","tags":"amenity:pharmacy,brand:Drogasil,brand:wikidata:Q5308185,brand:wikipedia:pt:Drogasil,healthcare:pharmacy,name:pt:Drogasil,wheelchair:yes","lat":-22.9263977,"lng":-47.1271509},{"id":"5053965721","name":"Smart Fit","tags":"brand:Smart Fit,brand:wikidata:Q30930959,brand:wikipedia:pt:Smart Fit,leisure:fitness_centre,name:pt:Smart Fit","lat":-22.9244094,"lng":-47.1276927},{"id":"5054016821","name":"Matuto","tags":"amenity:restaurant,name:pt:Matuto","lat":-22.9244346,"lng":-47.128243},{"id":"5054161121","name":"Receita Federal","tags":"amenity:police,name:pt:Receita Federal","lat":-22.9248312,"lng":-47.1271434},{"id":"5060619727","name":"Ragazzo","tags":"amenity:restaurant,name:pt:Ragazzo","lat":-22.9264463,"lng":-47.1266802},{"id":"5060620025","tags":"amenity:school","lat":-22.9269023,"lng":-47.1250218},{"id":"5060673826","tags":"amenity:childcare","lat":-22.9271534,"lng":-47.125458},{"id":"5062087622","tags":"amenity:cafe","lat":-22.9253303,"lng":-47.1259861},{"id":"5062102123","tags":"amenity:cafe","lat":-22.924164,"lng":-47.1266732},{"id":"5062102124","tags":"amenity:cafe","lat":-22.9242889,"lng":-47.1264273},{"id":"5084247522","tags":"amenity:pharmacy,healthcare:pharmacy","lat":-22.9269543,"lng":-47.1259939},{"id":"5097952523","name":"Fogão Mineiro","tags":"amenity:restaurant,name:pt:Fogão Mineiro","lat":-22.9242639,"lng":-47.1276645},{"id":"6232634286","name":"Eco Center Pet","tags":"addr:street:Av John Boyd Dunlop,opening_hours:Mo-Sa 12:00-22:00; Su 12:00-20:00,shop:pet","lat":-22.9254772,"lng":-47.1259476},{"id":"6232634289","name":"O Matuto Express","tags":"amenity:restaurant","lat":-22.9244,"lng":-47.1280357}]