[{"id":"1118916905","name":"Banco do Brasil","tags":"amenity:bank,brand:Banco do Brasil,brand:wikidata:Q610817,brand:wikipedia:en:Banco do Brasil","lat":-22.7347539,"lng":-47.6389343},{"id":"1457873482","name":"Na Casa Dela","tags":"addr:housenumber:1572,addr:street:Avenida Independência,amenity:bar","lat":-22.7351188,"lng":-47.6391673},{"id":"4431752691","name":"Espaço Camargo","tags":"addr:housenumber:1.189,addr:postcode:13419260,addr:street:Rua Prudente de Moraes,name:pt:Espaço Camargo,shop:beauty","lat":-22.7315249,"lng":-47.6404575},{"id":"4431757990","name":"Espaço Estética e Beleza Daniela","tags":"addr:housenumber:1.149,addr:postcode:13419-150,addr:street:Rua Aquilino Pacheco,shop:beauty","lat":-22.7343276,"lng":-47.6396078},{"id":"4431763692","name":"Le Luan","tags":"addr:housenumber:1791,addr:street:Avenida Independência,phone:34342870,shop:beauty","lat":-22.7340117,"lng":-47.6388407},{"id":"4432547906","name":"Espaço de Beleza Daniela Libardi","tags":"addr:housenumber:1449,addr:postcode:13419-150,addr:street:Rua Aquilino Pacheco,shop:beauty","lat":-22.7341306,"lng":-47.6395163},{"id":"4812412207","name":"Praça da Saudade","tags":"leisure:park","lat":-22.7316659,"lng":-47.6370143}]