[{"id":"2255054291","name":"Restaurante Universitário Rucas","tags":"access:customers,amenity:restaurant,description:Apenas para estudantes","lat":-22.70475,"lng":-47.6325943},{"id":"2255097344","name":"UBAS","tags":"amenity:hospital","lat":-22.7077612,"lng":-47.6320391},{"id":"2534488018","name":"Centro de Métodos Quantitativos","tags":"amenity:university,room:yes","lat":-22.7068621,"lng":-47.6291493},{"id":"2534501114","name":"Grupo Monte Olimpo","tags":"amenity:university","lat":-22.7057937,"lng":-47.6273506},{"id":"2535436524","name":"LCF - Departamento de Ciências Florestais","tags":"amenity:university,room:yes","lat":-22.7065822,"lng":-47.6290056},{"id":"2535436527","name":"Horticultura","tags":"amenity:university","lat":-22.7082105,"lng":-47.6295884},{"id":"2535436685","name":"Serviço de Pós Graduação ESALQ","tags":"amenity:university","lat":-22.7057237,"lng":-47.6343394},{"id":"2535436688","name":"Pavilhão da Agricultura","tags":"amenity:university","lat":-22.7081854,"lng":-47.6326994},{"id":"2535436691","name":"LAN - Departamento de Ciências dos Alimentos II","tags":"amenity:university","lat":-22.7052031,"lng":-47.6330024},{"id":"2535436693","name":"LAN - Departamento de Ciência dos Alimentos I","tags":"amenity:university","lat":-22.7061663,"lng":-47.6328332},{"id":"3611225603","name":"OCA/ESALQ","tags":"amenity:university","lat":-22.7067921,"lng":-47.6293025},{"id":"5801562326","name":"Serviço de Graduação","tags":"amenity:university","lat":-22.7072096,"lng":-47.6325831},{"id":"5801562328","name":"Departamento de Ciência do Solos","tags":"amenity:university,name:en:Soil Science Building","lat":-22.7082429,"lng":-47.6317637},{"id":"5801562494","name":"Central de Aulas","tags":"amenity:university","lat":-22.7054703,"lng":-47.6325051},{"id":"5801562503","name":"Pav Botânica / Fitopatologia","tags":"amenity:university","lat":-22.7085867,"lng":-47.6299426},{"id":"5801562568","name":"Zootecnia - Pav. Athanassof","tags":"amenity:university","lat":-22.7073834,"lng":-47.632146},{"id":"5801562576","name":"Zootecnia Ruminantes","tags":"amenity:university","lat":-22.7069245,"lng":-47.6326596}]