[{"id":"4475893291","name":"Cantinho da Beleza","tags":"addr:housenumber:460,addr:postcode:13408059,addr:street:Rua Maria de Lurdes Rocha Stolf,name:pt:Cantinho da Beleza,shop:beauty","lat":-22.6742236,"lng":-47.6946972},{"id":"4475932691","name":"Jane Estilo Fashion","tags":"addr:housenumber:1385,addr:street:Rua Corcovado,name:pt:Instituto de Beleza La Be Hair,phone:34257792,shop:beauty","lat":-22.673199,"lng":-47.6918686},{"id":"4475947189","name":"Cantinho da Mulher","tags":"addr:housenumber:589,addr:postcode:13408011,addr:street:Rua Felício Nalin,name:pt:Cantinho da Mulher,shop:beauty","lat":-22.6753594,"lng":-47.6919603},{"id":"4475954189","name":"Sueli Aparecida Zanoli","tags":"addr:housenumber:583,addr:street:Rua Peixoto Gomide,name:pt:Sueli Aparecida Zanoli,shop:beauty","lat":-22.6703897,"lng":-47.6955339},{"id":"4477832791","name":"Espaço Beleza Kaju","tags":"addr:housenumber:65,addr:street:Rua Anacleto Della Modesto,name:pt:Espaço Beleza Kaju,shop:beauty","lat":-22.673894,"lng":-47.6926651},{"id":"4477832792","name":"Mariana Nabas Salão de Beleza","tags":"addr:housenumber:157,addr:street:Avenida Euclides de Figueiredo,name:pt:Mariana Nabas Salão de Beleza,phone:34253769,shop:beauty","lat":-22.6715105,"lng":-47.6926284},{"id":"4477909600","name":"Espaço Nathalia Soave","tags":"addr:housenumber:370,addr:street:Rua Maria de Lurdes Rocha Stolf,name:pt:Espaço Nathalia Soave,phone:984145414,shop:beauty","lat":-22.6736711,"lng":-47.6944126},{"id":"4480287090","name":"Lenna Melo Cabelo","tags":"addr:housenumber:1386,addr:street:Rua Dumit Antônio,name:pt:Lenna Melo Cabelo,phone:981396522,shop:beauty","lat":-22.673633,"lng":-47.6932939},{"id":"4480935689","name":"Espaço D'ellas","tags":"addr:housenumber:92,addr:street:Rua Benedito Lourenço da Conceição,name:pt:Espaço D'ellas,phone:34151213,shop:beauty","lat":-22.6736818,"lng":-47.6964969},{"id":"4625352697","name":"Salão de beleza Vera","tags":"addr:housenumber:309,addr:street:Rua João Stella,name:pt:Salão de beleza cacheados,shop:beauty","lat":-22.6742846,"lng":-47.6940577},{"id":"6384893481","name":"FarmaVip","tags":"addr:street:Rua Brigadeiro Eduardo Gomes,addr:suburb:Vila Sonia,amenity:pharmacy,dispensing:yes,healthcare:pharmacy","lat":-22.6711429,"lng":-47.6935198},{"id":"8930809627","name":"Academia ao Ar Livre “Manoel Gonçalves da Cruz”","tags":"leisure:fitness_centre","lat":-22.6750846,"lng":-47.6968932}]