[{"id":"4809017443","name":"Drogaria Popular","tags":"amenity:pharmacy","lat":-22.851293,"lng":-47.1923485},{"id":"4809017444","name":"Agropesca Avenida","tags":"shop:pet","lat":-22.8512337,"lng":-47.1924478},{"id":"4809017445","name":"Ao Criador","tags":"shop:pet","lat":-22.8494911,"lng":-47.1918362},{"id":"4809017447","name":"Drogarias FarMais","tags":"amenity:pharmacy","lat":-22.8498693,"lng":-47.1918577},{"id":"4809017453","name":"Farmácia Super Popular","tags":"amenity:pharmacy","lat":-22.8509371,"lng":-47.1918791},{"id":"4814577297","name":"S.O.S. Estética","tags":"beauty:nails,shop:beauty","lat":-22.8493747,"lng":-47.1934749},{"id":"4826191972","name":"Dalva Studio de Beleza","tags":"beauty:nails,shop:beauty","lat":-22.8497203,"lng":-47.1917852},{"id":"4827574082","name":"24 horas","tags":"amenity:atm","lat":-22.8478626,"lng":-47.1913228},{"id":"5302753413","tags":"shop:pet","lat":-22.8511365,"lng":-47.1918892}]