[{"id":"2897919488","name":"Caixa Econômica Federal","tags":"amenity:bank,brand:Caixa Econômica Federal,brand:wikidata:Q835283,brand:wikipedia:pt:Caixa Econômica Federal","lat":-22.8393461,"lng":-47.1608457},{"id":"2901506733","name":"Supermercado Antoniele","tags":"addr:city:Sumaré,addr:street:Avenida Emílio Bosco,shop:supermarket","lat":-22.8395939,"lng":-47.1601346},{"id":"2901506736","name":"Banco Itaú","tags":"amenity:bank","lat":-22.8391787,"lng":-47.1605691},{"id":"2901506744","name":"Paróquia Bom Jesus - Padre Lázaro Martins","tags":"addr:city:Sumaré,addr:street:Avenida Emílio Bosco,building:church","lat":-22.837782,"lng":-47.1618726},{"id":"2912864482","name":"Drogaria Parque Cidade","tags":"addr:city:Campinas,addr:street:Av. Dr. Armando de Ottaviano,shop:chemist","lat":-22.8393923,"lng":-47.1560275},{"id":"2912864487","name":"Supermercado Matão","tags":"shop:supermarket","lat":-22.835719,"lng":-47.1593132},{"id":"2912864490","name":"Academia Bem Estar","tags":"leisure:fitness_centre","lat":-22.8358747,"lng":-47.1632292},{"id":"3117035971","name":"Droga Exxa","tags":"addr:city:Sumaré,addr:street:Avenida Emílio Bosco,amenity:pharmacy,healthcare:pharmacy","lat":-22.8394631,"lng":-47.1603799}]