[{"id":"1603737957","name":"Itaú","tags":"addr:city:Campinas,addr:street:Avenida Senador Saraiva,amenity:bank,atm:yes,brand:Itaú Unibanco,brand:wikidata:Q1424293,brand:wikipedia:pt:Itaú Unibanco,operator:Itaú - Unibanco","lat":-22.9065554,"lng":-47.0638157},{"id":"1603760236","name":"Santander","tags":"amenity:bank,atm:yes,brand:Santander,brand:wikidata:Q5835668,brand:wikipedia:en:Santander Bank","lat":-22.9067457,"lng":-47.0586504},{"id":"1631931506","name":"Santander","tags":"amenity:bank,atm:yes,brand:Santander,brand:wikidata:Q5835668,brand:wikipedia:en:Santander Bank","lat":-22.9071677,"lng":-47.0584438},{"id":"1688934611","name":"Caixa Econômica Federal","tags":"amenity:bank,atm:yes,brand:Caixa Econômica Federal,brand:wikidata:Q835283,brand:wikipedia:pt:Caixa Econômica Federal","lat":-22.9103149,"lng":-47.0559503},{"id":"3484020914","name":"Bradesco","tags":"amenity:bank,brand:Bradesco,brand:wikidata:Q806181,brand:wikipedia:en:Banco Bradesco","lat":-22.9075608,"lng":-47.0579335},{"id":"3484020915","tags":"amenity:post_office","lat":-22.9067139,"lng":-47.0590122},{"id":"4767950231","name":"Panela Véia","tags":"amenity:restaurant","lat":-22.9111658,"lng":-47.062709},{"id":"5436124372","name":"Dom Bosquinho","tags":"addr:housenumber:479,amenity:school","lat":-22.9101933,"lng":-47.0589575},{"id":"5916647585","name":"Supermercado Wandote","tags":"shop:supermarket","lat":-22.9081542,"lng":-47.0596456},{"id":"6153910500","name":"Largo do Pará","tags":"amenity:parking","lat":-22.9103167,"lng":-47.0569804},{"id":"6153910650","name":"Caixa Econômica Federal","tags":"amenity:bank,brand:Caixa Econômica Federal,brand:wikidata:Q835283,brand:wikipedia:pt:Caixa Econômica Federal","lat":-22.9107166,"lng":-47.0551208}]