[{"id":"1553133815","name":"Bradesco","tags":"amenity:bank,atm:yes,brand:Bradesco,brand:wikidata:Q806181,brand:wikipedia:en:Banco Bradesco","lat":-22.9196228,"lng":-47.109064},{"id":"1760465045","name":"Itaú","tags":"amenity:bank","lat":-22.9184529,"lng":-47.1083638},{"id":"1760465046","tags":"amenity:post_office","lat":-22.9184381,"lng":-47.1082243},{"id":"1760467302","name":"Londres Churrascaria","tags":"amenity:restaurant,cuisine:regional","lat":-22.9185554,"lng":-47.1085867},{"id":"1760490095","name":"Droga Marques","tags":"amenity:pharmacy,healthcare:pharmacy","lat":-22.918527,"lng":-47.1089726},{"id":"2012313397","name":"Casa de Frango AKI","tags":"amenity:restaurant,cuisine:regional,takeaway:only","lat":-22.9193188,"lng":-47.1031206},{"id":"2012313400","name":"Medfarma","tags":"amenity:pharmacy,healthcare:pharmacy","lat":-22.9196498,"lng":-47.1040642},{"id":"2012313401","name":"Camafeu's","tags":"amenity:restaurant,cuisine:regional","lat":-22.9198549,"lng":-47.1039064},{"id":"2012313403","name":"Colégio João e Marcela","tags":"addr:city:Campinas,addr:housenumber:847,addr:postcode:13060-072,addr:street:Rua Jornalista Ernesto Napoli,addr:suburb:Jardim Paulicéia,amenity:school","lat":-22.9193707,"lng":-47.1034671},{"id":"2012320400","name":"Restaurante UAI - Comida Mineira","tags":"amenity:restaurant,cuisine:regional","lat":-22.9179946,"lng":-47.1075972},{"id":"5059119424","name":"Caixa Econômica Federal","tags":"amenity:bank,name:pt:Caixa Econômica Federal","lat":-22.9187015,"lng":-47.1089031},{"id":"5066986023","name":"Eco Center Pet","tags":"addr:city:Campinas,addr:housenumber:713,addr:postcode:13060-080,addr:street:Rua Oswaldo Oscar Barthelson,addr:suburb:Jardim Paulicéia,shop:pet","lat":-22.9183244,"lng":-47.1062756},{"id":"5066986123","name":"2° Delegacia Seccional Polícia Cívil","tags":"addr:city:Campinas,addr:postcode:13060-080,addr:street:Rua Oswaldo Oscar Barthelson,addr:suburb:Jardim Paulicéia,amenity:police","lat":-22.9184048,"lng":-47.1065805},{"id":"5894283287","tags":"amenity:bar","lat":-22.9210979,"lng":-47.1081178},{"id":"9681507377","name":"2ª Delegacia de Defesa da Mulher de Campinas","tags":"addr:city:Campinas,addr:housenumber:590,addr:postcode:13060-090,addr:street:Rua Ferdinando Panatonni,addr:suburb:Jardim Paulicéia,amenity:police,opening_hours:24/7","lat":-22.9188026,"lng":-47.1062753},{"id":"9681507401","name":"Hype Store","tags":"addr:city:Campinas,addr:housenumber:815,addr:postcode:13060-090,addr:street:Rua Ferdinando Panatonni,addr:suburb:Jardim Paulicéia,beauty:eyelash;eyebrow;hair_removal,shop:beauty","lat":-22.9198522,"lng":-47.1082241},{"id":"9718166159","name":"Mercado Pauliceia","tags":"addr:city:Campinas,addr:street:Rua Luis Liberman,addr:suburb:Jardim Paulicéia,shop:convenience","lat":-22.9186645,"lng":-47.1032621},{"id":"9718166160","name":"Pettys","tags":"addr:city:Campinas,addr:street:Rua Ernesto Carlos Reimann,addr:suburb:Jardim Paulicéia,amenity:restaurant,cuisine:pizza","lat":-22.9195266,"lng":-47.1041183},{"id":"9718166161","name":"Mercado do Zé","tags":"addr:city:Campinas,addr:street:Rua Conselheiro Martim Francisco,addr:suburb:Jardim Campos Elíseos,shop:convenience","lat":-22.9205808,"lng":-47.101177}]