[{"id":"1774080481","name":"Kushi","tags":"shop:supermarket","lat":-22.8783036,"lng":-46.9664752},{"id":"2637625372","name":"Banco do Brasil","tags":"amenity:bank,atm:yes","lat":-22.8783572,"lng":-46.9662915},{"id":"3611196766","name":"Bradesco","tags":"amenity:bank,atm:yes","lat":-22.8787605,"lng":-46.9650464},{"id":"3611196776","name":"Fogão Mineiro","tags":"amenity:restaurant","lat":-22.8784343,"lng":-46.9580695},{"id":"3611196779","name":"Malagueta","tags":"amenity:restaurant","lat":-22.8787564,"lng":-46.956001},{"id":"4362220292","name":"Skinão","tags":"amenity:bar","lat":-22.878942,"lng":-46.9651384}]