[{"id":"5046306123","name":"Pague Menos","tags":"addr:housenumber:860,addr:street:Avenida Mirandópolis,name:pt:Supermercados Paguemenos,opening_hours:Mo-Su 08:00-22:00,phone:(19) 3729-6070,shop:supermarket,website:https://www.supermercadospaguemenos.com.br/","lat":-22.9299279,"lng":-47.0938478},{"id":"5053436223","name":"Fisk","tags":"amenity:school,name:pt:Fisk","lat":-22.9313326,"lng":-47.0875742},{"id":"5053546521","name":"Restaurante do Alemão","tags":"amenity:restaurant,name:pt:Restaurante do Alemão","lat":-22.93075,"lng":-47.0912867},{"id":"5053554021","name":"Dia","tags":"brand:Dia,brand:wikidata:Q925132,brand:wikipedia:es:Supermercados DIA,name:pt:Dia%,shop:supermarket","lat":-22.9302438,"lng":-47.0962734},{"id":"5066973423","name":"Bradesco","tags":"amenity:bank,atm:yes,brand:Bradesco,brand:wikidata:Q806181,brand:wikipedia:en:Banco Bradesco,drive_through:no,name:pt:Bradesco","lat":-22.9324663,"lng":-47.089488},{"id":"5066986121","name":"Itaú","tags":"amenity:bank,atm:yes,brand:Itaú Unibanco,brand:wikidata:Q1424293,brand:wikipedia:pt:Itaú Unibanco,drive_through:no,name:pt:Itaú","lat":-22.9330973,"lng":-47.0913894},{"id":"5066986122","name":"Itaú","tags":"amenity:bank,brand:Itaú Unibanco,brand:wikidata:Q1424293,brand:wikipedia:pt:Itaú Unibanco","lat":-22.9309801,"lng":-47.0876635},{"id":"5097957927","name":"E.E. Consuelo Freire Brandão","tags":"addr:housenumber:128,addr:postcode:13050-482,addr:street:Rua Artur Leite de Barros Júnior,amenity:school,name:pt:E.E. Prof. Consuelo Freire Brandão,phone:19 32275811,website:http://www.educacao.sp.gov.br/cgrh/escolas/consuelo-freire-brandao-professora/","lat":-22.9317324,"lng":-47.0909388},{"id":"5906891087","name":"Igreja Batista Amoreiras","tags":"amenity:school","lat":-22.9314886,"lng":-47.0896809},{"id":"5906925285","name":"Serv Shop","tags":"amenity:nightclub,name:pt:Serv Chop","lat":-22.930647,"lng":-47.0892341},{"id":"5908141486","name":"Kaiaque","tags":"amenity:bar","lat":-22.9304376,"lng":-47.0899069},{"id":"5911459786","name":"Bar do Ponto","tags":"amenity:bar","lat":-22.9307811,"lng":-47.0931843},{"id":"5921045385","name":"Supermercado Shimozono","tags":"addr:housenumber:203,addr:postcode:13060-871,addr:street:Rua Silvio Rizzardo - Jardim Londres,phone:19 3227 6133,shop:supermarket","lat":-22.9289329,"lng":-47.0978716},{"id":"5922490787","tags":"amenity:bar","lat":-22.9290378,"lng":-47.097569},{"id":"5955387385","name":"Espaço Soberano Salão de Beleza","tags":"addr:street:Rua Martinópolis,phone:19 3201 8944,shop:beauty","lat":-22.9308383,"lng":-47.0892944},{"id":"7159476586","name":"Querência","tags":"addr:housenumber:676,addr:street:Avenida Senador Antônio Lacerda Franco,amenity:restaurant,name:pt:Restaurante Querência Do Sul,opening_hours:Mo-Sa 10:30-15:00,phone:019 3268 5069","lat":-22.9339268,"lng":-47.0898849}]