[{"id":"1042064618","name":"Monte Bello","tags":"addr:city:Campinas,addr:street:Avenida Júlio de Mesquita,addr:suburb:Cambuí,amenity:restaurant,cuisine:pizza","lat":-22.8987228,"lng":-47.055343},{"id":"1589705342","name":"House of Languages","tags":"addr:housenumber:2109,addr:street:Avenida Francisco Glicério,amenity:school","lat":-22.8973787,"lng":-47.0648639},{"id":"1589705343","name":"Chin Brasil Delivery","tags":"addr:housenumber:2125,addr:street:Avenida Francisco Glicério,amenity:restaurant,cuisine:chinese,delivery:yes,takeaway:yes","lat":-22.8973243,"lng":-47.0649336},{"id":"1594736158","name":"Restaurante Marinare","tags":"amenity:restaurant,cuisine:regional","lat":-22.8970143,"lng":-47.0650644},{"id":"1607028855","name":"Marcante Pizza","tags":"addr:housenumber:21,addr:street:Rua Barão Geraldo de Resende,amenity:restaurant,cuisine:pizza,delivery:yes,opening_hours:Mo-Th 18:04-22:56; Fr,Sa 18:07-23:53; Su 18:02-22:58,takeaway:yes","lat":-22.8983645,"lng":-47.0649892},{"id":"1607085669","name":"Banco do Brasil","tags":"amenity:bank,atm:yes,brand:Banco do Brasil,brand:wikidata:Q610817,brand:wikipedia:en:Banco do Brasil","lat":-22.9008348,"lng":-47.0618845},{"id":"1607085670","name":"Dia","tags":"brand:Dia,brand:wikidata:Q925132,brand:wikipedia:es:Supermercados DIA,shop:supermarket,website:https://www.dia.com.br","lat":-22.9006162,"lng":-47.0630991},{"id":"1609517654","name":"Farma Futura","tags":"addr:city:Campinas,amenity:pharmacy,healthcare:pharmacy","lat":-22.9004735,"lng":-47.0637489},{"id":"1616184094","name":"Park Estacionamento","tags":"access:private,addr:street:Rua Delfino Cintra,amenity:parking,fee:yes,parking:carports","lat":-22.9002562,"lng":-47.0652512},{"id":"1622921619","name":"ACC Guanabara","tags":"amenity:post_office","lat":-22.8962964,"lng":-47.0641311},{"id":"1622921836","name":"Barão do Sabor","tags":"amenity:restaurant,cuisine:pizza","lat":-22.8963829,"lng":-47.0638041},{"id":"1622921841","name":"Mataroboi","tags":"amenity:restaurant,cuisine:barbecue,diet:vegetarian:yes","lat":-22.896475,"lng":-47.0638903},{"id":"1637936859","name":"Shell","tags":"amenity:fuel,brand:Shell,brand:wikidata:Q154950,brand:wikipedia:en:Royal Dutch Shell,shop:convenience","lat":-22.8964985,"lng":-47.0619433},{"id":"1647858357","name":"Biblioteca Pública Municipal Prof. Ernesto Manoel Zink","tags":"addr:city:Campinas,addr:housenumber:1633,addr:postcode:13010-142,addr:street:Avenida Benjamin Constant,addr:suburb:Centro,alt_name:Biblioteca Prof. Ernesto Manoel Zink,amenity:library,internet_access:wlan,opening_hours:Mo-Fr 09:00-17:00","lat":-22.9008803,"lng":-47.0567023},{"id":"1647858359","name":"Museu de Arte Contemporânea de Campinas","tags":"alt_name:MACC,tourism:museum,wikidata:Q3329579,wikipedia:pt:Museu de Arte Contemporânea de Campinas","lat":-22.9009745,"lng":-47.0569185},{"id":"1670799880","name":"Shell","tags":"amenity:fuel,brand:Shell,brand:wikidata:Q110716465,brand:wikipedia:en:Royal Dutch Shell,shop:convenience","lat":-22.9005841,"lng":-47.0584075},{"id":"1670800259","name":"Bradesco","tags":"amenity:bank,branch:Prime,brand:Bradesco,brand:wikidata:Q806181,brand:wikipedia:en:Banco Bradesco","lat":-22.8991197,"lng":-47.0550976},{"id":"1670800277","name":"Caixa Econômica Federal","tags":"amenity:bank,atm:yes,brand:Caixa Econômica Federal,brand:wikidata:Q835283,brand:wikipedia:pt:Caixa Econômica Federal","lat":-22.8997131,"lng":-47.0546454},{"id":"1670800279","name":"Itaú","tags":"amenity:bank,atm:yes,brand:Itaú Unibanco,brand:wikidata:Q1424293,brand:wikipedia:pt:Itaú Unibanco","lat":-22.9000237,"lng":-47.0545049},{"id":"3611196781","name":"Extra","tags":"brand:Extra,brand:wikidata:Q5422131,brand:wikipedia:pt:Extra (rede varejista),shop:supermarket,website:https://www.extra.com.br/","lat":-22.8999876,"lng":-47.0581751},{"id":"3901953706","tags":"amenity:restaurant,cuisine:regional","lat":-22.8969245,"lng":-47.0629691},{"id":"3901953707","name":"Amadeus","tags":"amenity:restaurant,cuisine:regional","lat":-22.8956769,"lng":-47.0632378},{"id":"3901953708","tags":"amenity:restaurant,cuisine:regional","lat":-22.8959746,"lng":-47.0621812},{"id":"3901953709","name":"Paparico Dog","tags":"amenity:restaurant,cuisine:regional;sandwich,delivery:yes,takeaway:yes","lat":-22.8986036,"lng":-47.0645689},{"id":"4205522891","name":"Brunelli","tags":"addr:city:Campinas,addr:housenumber:1057,addr:street:Avenida Júlio de Mesquita,addr:suburb:Cambuí,amenity:restaurant,cuisine:italian,delivery:yes,phone:+551933259500,smoking:no,takeaway:yes","lat":-22.8966968,"lng":-47.0568606},{"id":"4205522897","name":"Droga Raia","tags":"addr:city:Campinas,addr:street:Avenida Júlio de Mesquita,addr:suburb:Cambuí,amenity:pharmacy,brand:Droga Raia,brand:wikidata:Q10357101,brand:wikipedia:pt:RaiaDrogasil,healthcare:pharmacy","lat":-22.8981552,"lng":-47.0560044},{"id":"4205522898","name":"Drogaria São Paulo","tags":"addr:city:Campinas,addr:housenumber:797,addr:street:Avenida Júlio de Mesquita,addr:suburb:Cambuí,amenity:pharmacy,brand:Drogaria São Paulo,brand:wikidata:Q5308184,brand:wikipedia:en:Grupo DPSP,healthcare:pharmacy","lat":-22.8987027,"lng":-47.0556658},{"id":"4205522902","name":"Morie Sachie","tags":"addr:city:Campinas,addr:housenumber:813,addr:street:Avenida Júlio de Mesquita,addr:suburb:Cambuí,amenity:restaurant,cuisine:japanese","lat":-22.8984385,"lng":-47.055811},{"id":"4205522904","name":"Itaú","tags":"addr:city:Campinas,addr:street:Avenida Júlio de Mesquita,addr:suburb:Cambuí,amenity:bank,atm:yes,brand:Itaú Unibanco,brand:wikidata:Q1424293,brand:wikipedia:pt:Itaú Unibanco","lat":-22.8964455,"lng":-47.0570337},{"id":"4205522908","name":"Onodera","tags":"addr:city:Campinas,addr:housenumber:939,addr:street:Avenida Júlio de Mesquita,addr:suburb:Cambuí,shop:beauty","lat":-22.8976442,"lng":-47.05632},{"id":"4205522909","name":"Pague Menos","tags":"addr:city:Campinas,addr:housenumber:741,addr:street:Avenida Júlio de Mesquita,addr:suburb:Cambuí,amenity:pharmacy,brand:Pague Menos,brand:wikidata:Q7124466,brand:wikipedia:pt:Pague Menos,healthcare:pharmacy","lat":-22.899109,"lng":-47.055379},{"id":"4549160279","name":"Bate Papo","tags":"addr:city:Campinas,addr:housenumber:26,addr:street:Rua Irmãos Bierrembach,addr:suburb:Cambuí,amenity:restaurant","lat":-22.8959158,"lng":-47.0583626},{"id":"4549175805","name":"Mascote e Cia","tags":"addr:city:Campinas,addr:housenumber:42,addr:street:Rua Irmãos Bierrembach,addr:suburb:Cambuí,shop:pet","lat":-22.8959379,"lng":-47.0581099},{"id":"4549175812","name":"Papa Tutti","tags":"amenity:restaurant","lat":-22.8956542,"lng":-47.0588304},{"id":"4566874108","name":"Bate Papo","tags":"amenity:parking","lat":-22.8962921,"lng":-47.0586361},{"id":"4566874109","name":"Itaú","tags":"amenity:bank,atm:yes,brand:Itaú Unibanco,brand:wikidata:Q1424293,brand:wikipedia:pt:Itaú Unibanco","lat":-22.8985545,"lng":-47.0587771},{"id":"4566874111","name":"Café Cultura","tags":"addr:housenumber:243,addr:street:Rua Quatorze de Dezembro,amenity:cafe","lat":-22.8989866,"lng":-47.0588714},{"id":"4566874113","tags":"amenity:parking","lat":-22.8996338,"lng":-47.0589915},{"id":"4566874116","name":"Forte Park","tags":"addr:housenumber:1221,addr:street:Rua Marechal Deodoro,amenity:parking","lat":-22.9001893,"lng":-47.0600002},{"id":"4566874125","name":"Nutrir","tags":"amenity:restaurant,diet:vegetarian:yes","lat":-22.9007881,"lng":-47.0595187},{"id":"4566874129","name":"Sebo e Lojão","tags":"addr:housenumber:1265,addr:street:Rua Barreto Leme,shop:books","lat":-22.9006998,"lng":-47.0593207},{"id":"4566874130","tags":"amenity:parking","lat":-22.9006233,"lng":-47.0591862},{"id":"4587811461","name":"APÔ","tags":"addr:city:Campinas,addr:street:Rua Alferes Paula Nogueira,addr:suburb:Cambuí,amenity:nightclub,club:fan","lat":-22.8956039,"lng":-47.0570828},{"id":"4587811466","name":"San Diego Fitness","tags":"addr:city:Campinas,addr:housenumber:483,addr:street:Rua Quatorze de Dezembro,addr:suburb:Cambuí,leisure:fitness_centre","lat":-22.8979726,"lng":-47.0567414},{"id":"4587811474","name":"Spice","tags":"addr:street:Rua Doutor Guilherme da Silva,amenity:restaurant","lat":-22.8960835,"lng":-47.0549609},{"id":"4589621377","name":"Creps","tags":"addr:housenumber:60,addr:street:Avenida Coronel Silva Teles,amenity:restaurant","lat":-22.8957452,"lng":-47.0564156},{"id":"4589621760","name":"Makis Place","tags":"addr:housenumber:54,addr:street:Avenida Coronel Silva Teles,amenity:restaurant","lat":-22.8957917,"lng":-47.0565117},{"id":"4589621771","name":"Yakisoba Factory","tags":"addr:housenumber:103,addr:street:Avenida Coronel Silva Teles,amenity:restaurant","lat":-22.8955397,"lng":-47.0561676},{"id":"4589623289","name":"La Pasta Gialla","tags":"addr:housenumber:75c,addr:street:Avenida Coronel Silva Teles,amenity:restaurant,cuisine:italian,email:labellacucina75@gmail.com,internet_access:wlan,name:en:La Bella Cucina,name:pt:La Bella Cucina,opening_hours:Mo-Su 12:00-22:30,operator:Rubens,phone:1932941414,website:http://Facebook.com/labellacucina","lat":-22.8956561,"lng":-47.056443},{"id":"4589623290","name":"Pizzame","tags":"amenity:restaurant","lat":-22.8956983,"lng":-47.056332},{"id":"4589623291","name":"Droga Brasil","tags":"addr:housenumber:89,addr:street:Avenida Coronel Silva Teles,amenity:pharmacy,healthcare:pharmacy","lat":-22.8956172,"lng":-47.0563607},{"id":"4589623298","name":"Santander","tags":"addr:housenumber:112,addr:street:Avenida Coronel Silva Teles,amenity:bank,brand:Santander,brand:wikidata:Q5835668,brand:wikipedia:en:Santander Bank","lat":-22.8955898,"lng":-47.0561058},{"id":"5973389786","name":"Mercado Dia %","tags":"shop:supermarket,website:https://www.dia.com.br/","lat":-22.8957125,"lng":-47.0600385},{"id":"6153910836","name":"Itaú","tags":"amenity:bank,branch:Personalitte,brand:Itaú Unibanco,brand:wikidata:Q1424293,brand:wikipedia:pt:Itaú Unibanco","lat":-22.899909,"lng":-47.0545609},{"id":"7108024477","name":"Dona Fiica","tags":"amenity:restaurant,opening_hours:Mo-Sa 11:00-15:00","lat":-22.8986342,"lng":-47.054831}]