[{"id":"4602690373","name":"Drogaria São Paulo","tags":"amenity:pharmacy,brand:Drogaria São Paulo,brand:wikidata:Q5308184,brand:wikipedia:en:Grupo DPSP,healthcare:pharmacy","lat":-23.1285003,"lng":-46.5538327},{"id":"4602690377","name":"Haru Natsu","tags":"amenity:restaurant,cuisine:japanese","lat":-23.1312263,"lng":-46.5543357},{"id":"4616761627","tags":"amenity:car_wash","lat":-23.1306986,"lng":-46.5542979},{"id":"4983765686","tags":"amenity:restaurant","lat":-23.129789,"lng":-46.5541927},{"id":"4983765689","name":"Romano Restaurante","tags":"amenity:restaurant,cuisine:italian","lat":-23.1310557,"lng":-46.5543269},{"id":"4983765690","name":"Moranga Flor","tags":"amenity:restaurant","lat":-23.1316247,"lng":-46.5543713},{"id":"7426727248","name":"Tico's Pizzaria","tags":"amenity:restaurant,cuisine:pizza","lat":-23.1276904,"lng":-46.5539527}]