[{"id":"3915584235","name":"CIME Cebolinha","tags":"amenity:school","lat":-22.7009746,"lng":-46.7555167},{"id":"3915584238","name":"Colégio Integrado","tags":"amenity:school","lat":-22.7004466,"lng":-46.7556233},{"id":"3915584239","name":"Floresta AC","tags":"leisure:sports_centre","lat":-22.7015243,"lng":-46.7572245},{"id":"3915584240","name":"SEPI Núcleo Educacional","tags":"addr:housenumber:565,addr:street:Rua Deputado Narciso Pieroni,leisure:sports_centre","lat":-22.7005399,"lng":-46.7563026},{"id":"7553055017","name":"Unidos Supermercado","tags":"payment:cash:yes,payment:credit_cards:yes,payment:debit_cards:yes,shop:supermarket","lat":-22.6995861,"lng":-46.7567407}]