[{"id":"5746148081","tags":"amenity:car_wash","lat":-23.5407651,"lng":-46.2322501},{"id":"5746148082","name":"Seleta","tags":"shop:convenience","lat":-23.5410233,"lng":-46.2324941},{"id":"7759793872","name":"Mercado Vila Jundiaí","tags":"addr:city:Mogi das Cruzes,addr:postcode:08745-340,addr:street:Rua Capitão Amado,addr:suburb:Vila Jundiaí,opening_hours:Mo-Su 09:00-23:00,shop:supermarket","lat":-23.5434479,"lng":-46.2370368},{"id":"7878859536","name":"Salão Vizinha do Meio","tags":"addr:city:Mogi das Cruzes,addr:housenumber:41,addr:postcode:087445-560,addr:street:Rua Adelaide Bertolozo Moro,addr:suburb:Vila Jundiaí,beauty:nails;cosmetics;hair,opening_hours:Mo-Su 10:00-20:00,opening_hours:covid19:Mo-Fr 08:00-12:00,payment:cash:yes,shop:beauty","lat":-23.5414858,"lng":-46.2389624},{"id":"7878859542","tags":"addr:city:Mogi das Cruzes,addr:postcode:08744-000,addr:street:Avenida Francisco Ferreira Lopes,addr:suburb:Vila Jundiaí,amenity:restaurant","lat":-23.5420926,"lng":-46.2380423}]