[{"id":"3544495848","name":"Drograria São Paulo","tags":"amenity:pharmacy","lat":-23.2297187,"lng":-45.880338},{"id":"3684294774","name":"Banco do Brasil","tags":"addr:street:Avenida Andrômeda,amenity:bank,brand:Banco do Brasil,brand:wikidata:Q610817,brand:wikipedia:en:Banco do Brasil","lat":-23.2280053,"lng":-45.884094},{"id":"3684294775","name":"Santander","tags":"amenity:bank","lat":-23.2288113,"lng":-45.8840055},{"id":"4300759352","name":"Sallute","tags":"amenity:restaurant","lat":-23.2283554,"lng":-45.8845973},{"id":"6139407733","name":"Baltazar","tags":"addr:city:São José dos Campos,addr:housenumber:1499,addr:postcode:12230-000,addr:street:Avenida Andrômeda,addr:suburb:Jardim Satélite,amenity:bar","lat":-23.2255708,"lng":-45.8851826}]