[{"id":"1914658920","name":"Farma Conde","tags":"addr:housenumber:1215,addr:street:Avenida Andrômeda,amenity:pharmacy,contact:phone:+55 12 3933 4441,dispensing:yes,healthcare:pharmacy,phone:+55 12 3322 8744","lat":-23.2240909,"lng":-45.8866005},{"id":"1914658924","name":"Banco do Brasil","tags":"addr:street:Avenida Andrômeda,amenity:bank,atm:yes,brand:Banco do Brasil,brand:wikidata:Q610817,brand:wikipedia:en:Banco do Brasil","lat":-23.2221719,"lng":-45.8885528},{"id":"1914658927","name":"Drogaria São Paulo","tags":"addr:street:Avenida Andrômeda,amenity:pharmacy,brand:Drogaria São Paulo,brand:wikidata:Q5308184,brand:wikipedia:en:Grupo DPSP,dispensing:yes,drive_through:no,healthcare:pharmacy,opening_hours:24/7","lat":-23.2242486,"lng":-45.886402},{"id":"1914658941","tags":"shop:convenience","lat":-23.2233268,"lng":-45.8870806},{"id":"2288651903","name":"Santander","tags":"amenity:bank,brand:Santander,brand:wikidata:Q5835668,brand:wikipedia:en:Santander Bank","lat":-23.2238415,"lng":-45.8868465},{"id":"6389719587","tags":"amenity:car_wash","lat":-23.223197,"lng":-45.8867891},{"id":"7729273595","name":"Itaú","tags":"amenity:bank,brand:Itaú Unibanco,brand:wikidata:Q1424293,brand:wikipedia:pt:Itaú Unibanco","lat":-23.222675,"lng":-45.888109}]