[{"id":"9057378958","name":"Restaurante Serrano","tags":"amenity:restaurant,contact:whatsapp:+55 12 99636 8394,cuisine:brazilian,level:0,phone:+55 12 2170 9930","lat":-23.2213554,"lng":-45.9109535},{"id":"9064148691","tags":"shop:beauty","lat":-23.2214465,"lng":-45.9103914},{"id":"9319088017","name":"Atacadão","tags":"addr:housenumber:5601,addr:postcode:12230-002,addr:street:Avenida Deputado Benedito Matarazzo,contact:facebook:Atacadaosa.Oficial,contact:instagram:atacadaosa.oficial,contact:twitter:atacadao_sa,opening_hours:Mo-Sa 07:00-22:00; Su 08:00-18:00,shop:supermarket,website:https://www.atacadao.com.br/","lat":-23.224732,"lng":-45.9072006},{"id":"9893902139","name":"Estacionamento","tags":"amenity:parking","lat":-23.2246044,"lng":-45.9070495},{"id":"10053802556","name":"O Cortês","tags":"amenity:restaurant,contact:facebook:http://www.facebook.com/ocortesbr,cuisine:brazilian,delivery:yes,email:ocortesbr@gmail.com,outdoor_seating:yes,takeaway:yes","lat":-23.2210428,"lng":-45.9052341},{"id":"10053802561","name":"Monte Chivo","tags":"amenity:restaurant,contact:facebook:https://www.facebook.com/montechivosjc,contact:instagram:https://www.instagram.com/montechivo,contact:whatsapp:+55 12 99635 2896,cuisine:uruguayan,level:0,opening_hours:Mo-Tu off; We-Fr 18:00-23:00; Sa 12:00-23:00; Su 12:00-17:00,phone:+55 12 3207 8555,website:https://montechivo.com.br","lat":-23.2202716,"lng":-45.9057572}]