[{"id":"9057378958","name":"Restaurante Serrano","tags":"amenity:restaurant,contact:whatsapp:+55 12 99636 8394,cuisine:brazilian,level:0,phone:+55 12 2170 9930","lat":-23.2213554,"lng":-45.9109535},{"id":"9064148691","tags":"shop:beauty","lat":-23.2214465,"lng":-45.9103914},{"id":"9319088017","name":"Atacadão","tags":"addr:housenumber:5601,addr:postcode:12230-002,addr:street:Avenida Deputado Benedito Matarazzo,contact:facebook:Atacadaosa.Oficial,contact:instagram:atacadaosa.oficial,contact:twitter:atacadao_sa,opening_hours:Mo-Sa 07:00-22:00; Su 08:00-18:00,shop:supermarket,website:https://www.atacadao.com.br/","lat":-23.224732,"lng":-45.9072006},{"id":"9893902139","name":"Estacionamento","tags":"amenity:parking","lat":-23.2246044,"lng":-45.9070495},{"id":"10053802556","name":"O Cortês","tags":"amenity:restaurant,contact:facebook:http://www.facebook.com/ocortesbr,cuisine:brazilian,delivery:yes,email:ocortesbr@gmail.com,outdoor_seating:yes,takeaway:yes","lat":-23.2210428,"lng":-45.9052341},{"id":"10053802561","name":"Monte Chivo","tags":"amenity:restaurant,contact:facebook:https://www.facebook.com/montechivosjc,contact:instagram:https://www.instagram.com/montechivo,contact:whatsapp:+55 12 99635 2896,cuisine:uruguayan,level:0,opening_hours:Mo-Tu off; We-Fr 18:00-23:00; Sa 12:00-23:00; Su 12:00-17:00,phone:+55 12 3207 8555,website:https://montechivo.com.br","lat":-23.2202716,"lng":-45.9057572},{"id":"10056132120","name":"Pitaya","tags":"amenity:restaurant,contact:instagram:https://www.instagram.com/pitayahealthy/,cuisine:regional,delivery:yes,level:0,takeaway:only,website:https://pitayahealthyfoodsp.goomer.app","lat":-23.2207016,"lng":-45.905214},{"id":"10056132121","name":"Vet Mundi","tags":"amenity:veterinary,contact:facebook:https://www.facebook.com/clinicavetmundi,contact:instagram:https://www.instagram.com/clinicavetmundi/,contact:whatsapp:+55 12 98158 6961,email:contato@vetmundi.com.br,level:0,phone:+55 12 3346 0523,shop:pet,website:https://vetmundi.com.br/","lat":-23.2206613,"lng":-45.9052055},{"id":"10058608435","name":"Acquazero","tags":"amenity:car_wash,contact:facebook:https://www.facebook.com/acquazerobr/,contact:instagram:https://www.instagram.com/acquazerobr/,contact:youtube:https://www.youtube.com/channel/UCUCo9SNv2nEpSQ-ZkozO-0g,level:0,website:https://acquazero.com/","lat":-23.2205557,"lng":-45.9063173},{"id":"10058608436","name":"Velocity","tags":"contact:facebook:https://www.facebook.com/studiovelocityoficial,contact:instagram:https://www.instagram.com/studio_velocity/,contact:twitter:https://twitter.com/studiovelocity,email:gerencia-saojosedoscampos@studiovelocity.com.br,leisure:fitness_centre,level:0,phone:+55 12 99706 8258,website:https://studiovelocity.com.br/","lat":-23.2205066,"lng":-45.9063081},{"id":"10058608437","name":"The B-Burgers","tags":"amenity:restaurant,contact:instagram:https://www.instagram.com/thebburgersbrasil/,cuisine:burger,level:0,opening_hours:Mo-Fr 11:00-23:00; Fr 11:00-24:00; Sa-Su 17:00-24:00,operator:The B-Burgers,phone:+55 12 99628 4269","lat":-23.2204157,"lng":-45.906291}]