[{"id":"1950091877","name":"Antoninho da Rocha Marmo","tags":"amenity:hospital","lat":-23.2050602,"lng":-45.8874044},{"id":"4768537268","tags":"amenity:pharmacy,dispensing:yes,healthcare:pharmacy","lat":-23.2032318,"lng":-45.8840458},{"id":"5415063180","name":"COCTA","tags":"leisure:sports_centre","lat":-23.2032897,"lng":-45.8798202},{"id":"6187375258","name":"Ema Hort Frut Mercearia","tags":"addr:city:São José dos Campos,addr:housenumber:14,addr:postcode:12245-471,addr:street:Praça dos Servidores Públicos Municipais,addr:suburb:Vila Betânia,shop:convenience","lat":-23.2060639,"lng":-45.8882133},{"id":"7526853272","tags":"shop:convenience","lat":-23.2046424,"lng":-45.8884529},{"id":"7526853273","name":"LavaMania","tags":"amenity:car_wash","lat":-23.2046818,"lng":-45.888477},{"id":"7526872837","name":"Lattetude","tags":"addr:city:São José dos Campos,addr:housenumber:1419,addr:street:Avenida Engenheiro Francisco José Longo,amenity:cafe","lat":-23.2055399,"lng":-45.8878182},{"id":"7732458155","name":"café do Posto","tags":"addr:street:Rua das Acácias,amenity:cafe","lat":-23.2084986,"lng":-45.8846734},{"id":"8982724838","tags":"amenity:parking","lat":-23.2041586,"lng":-45.885364}]