[{"id":"5175589362","name":"Igreja Adventista do Sétimo Dia Movimento de Reforma","tags":"amenity:place_of_worship,building:church,denomination:seventh_day_adventist,religion:christian","lat":-23.2317932,"lng":-45.9174952},{"id":"8754510617","tags":"amenity:atm,currency:BRL:yes,opening_hours:Mo-Su 06:00-22:00,operator:Banco 24h.","lat":-23.234152,"lng":-45.9164502},{"id":"8839972417","name":"8º Distrito Policial","tags":"addr:city:São José dos Campos,addr:postcode:12240000,addr:street:Avenida Doutor João Batista Soares de Queiroz Júnior,amenity:police,opening_hours:24/7,phone:1239319314,wheelchair:limited","lat":-23.230928,"lng":-45.9157285},{"id":"8851394042","name":"Drogaria São Paulo","tags":"amenity:pharmacy,brand:Drogaria São Paulo,brand:wikidata:Q5308184,brand:wikipedia:en:Grupo DPSP,dispensing:yes,healthcare:pharmacy","lat":-23.2309375,"lng":-45.9198706},{"id":"9935368630","name":"Estacionamento","tags":"amenity:parking","lat":-23.2339592,"lng":-45.9164929}]