[{"id":"1645048490","name":"Capital da Vila","tags":"addr:street:Avenida Anchieta,amenity:bar","lat":-23.1928989,"lng":-45.8977192},{"id":"1645053169","name":"Guten Bier","tags":"amenity:bar","lat":-23.1924396,"lng":-45.8944758},{"id":"1645053614","name":"Fran's Café","tags":"addr:city:São José dos Campos,addr:housenumber:175,addr:postcode:12242-280,addr:street:Avenida Anchieta,addr:suburb:Jardim Nova América,amenity:cafe,brand:Fran's Café,brand:website:http://www.franscafe.com.br,brand:wikidata:Q62075645,cuisine:coffee_shop,internet_access:wlan,takeaway:yes","lat":-23.1928464,"lng":-45.8953368},{"id":"1645059621","name":"Santander","tags":"amenity:bank,atm:no,brand:Santander,brand:wikidata:Q5835668,brand:wikipedia:en:Santander Bank","lat":-23.1967614,"lng":-45.8982497},{"id":"1645061292","name":"Itaú Personalité","tags":"amenity:bank,atm:no,brand:Itaú Unibanco,brand:wikidata:Q1424293,brand:wikipedia:pt:Itaú Unibanco","lat":-23.1928657,"lng":-45.894178},{"id":"1645068944","name":"Haruf","tags":"addr:street:Avenida São João,amenity:cafe,cuisine:kebab,website:https://shoppingesplanada.com.br/","lat":-23.1969291,"lng":-45.8984214},{"id":"1645073750","name":"Shell","tags":"amenity:car_wash,operator:Shell,self_service:no","lat":-23.1974912,"lng":-45.8990544},{"id":"1645080013","name":"Disk Bebidas","tags":"amenity:bar","lat":-23.1973616,"lng":-45.895551},{"id":"2057128598","name":"Drogaria São Paulo","tags":"amenity:pharmacy,brand:Drogaria São Paulo,brand:wikidata:Q5308184,brand:wikipedia:en:Grupo DPSP,healthcare:pharmacy,name:en:São Paulo Drugstore","lat":-23.1964119,"lng":-45.8910106},{"id":"2844185441","name":"Oishii","tags":"amenity:restaurant,cuisine:japanese,smoking:outside","lat":-23.1942388,"lng":-45.8922446},{"id":"3130608823","name":"Banco Safra","tags":"amenity:bank","lat":-23.1939423,"lng":-45.8929628},{"id":"3213556543","name":"Lotus","tags":"amenity:restaurant,cuisine:chinese,diet:vegetarian:yes","lat":-23.19358,"lng":-45.8907238},{"id":"4098094101","name":"Correios","tags":"amenity:post_office,brand:Correios,brand:wikidata:Q3375004,brand:wikipedia:en:Correios","lat":-23.1933465,"lng":-45.894159},{"id":"6422141559","name":"Nibs Juice Bar","tags":"addr:city:São José dos Campos,addr:housenumber:305,addr:postcode:12243-750,addr:street:Rua Engenheiro Prudente Meireles de Moraes,addr:suburb:Vila Adyana,amenity:bar,contact:email:contato@nibsjuicebar.com.br,contact:facebook:https://www.facebook.com/nibsjuicebar/,contact:phone:+55 12 3901-8183,diet:gluten_free:yes,diet:lactose_free:yes,diet:vegan:yes,diet:vegetarian:yes,opening_hours:Tu-Fr 10:00-22:00; Sa-Su 09:00-20:00,website:http://www.nibsjuicebar.com.br/","lat":-23.1971438,"lng":-45.8962649},{"id":"7472476057","name":"Shopping Esplanada","tags":"addr:city:São José dos Campos,addr:housenumber:644,addr:postcode:12242-840,addr:street:Avenida São João,addr:suburb:Jardim Esplanada,opening_hours:Mo-Fr 10:00-19:00,opening_hours:covid19:off,operator:Shopping Esplanada,payment:credit_cards:yes,shop:mall","lat":-23.1969492,"lng":-45.8985664},{"id":"8851569767","name":"Well Donuts","tags":"addr:city:São José dos Campos,addr:housenumber:232,addr:postcode:1224-610,addr:street:Avenida Paulo Becker,addr:suburb:Vila Adyana,amenity:cafe,internet_access:yes,internet_access:fee:no,opening_hours:covid19:open,outdoor_seating:yes,phone:+55 12 39426198,website:https://www.welldonuts.com.br","lat":-23.1951318,"lng":-45.8932249}]