[{"id":"5394222710","name":"EMEF professora Mariana Teixeira Cornélio","tags":"addr:city:São José dos Campos,addr:housenumber:222,addr:postcode:12212-700,addr:street:Rua Benedito Pereira Lima,addr:suburb:Jardim Telespark,amenity:school,operator:Prefeitura","lat":-23.1595911,"lng":-45.909646},{"id":"5394261624","name":"EMEI Maria da Glória Mariano Santos","tags":"amenity:school,operator:prefeitura","lat":-23.1600267,"lng":-45.9080679},{"id":"5394261626","name":"Praça Cesar Traballi","tags":"leisure:park","lat":-23.1603275,"lng":-45.9075075},{"id":"5394322291","tags":"amenity:childcare,operator:prefeitura","lat":-23.1606416,"lng":-45.9108361},{"id":"10207407435","tags":"amenity:parking,operator:Estacionamento Rosalina","lat":-23.159962,"lng":-45.9051377},{"id":"10207450521","tags":"amenity:parking,operator:Estacionamento Rosalina","lat":-23.1599133,"lng":-45.9053823}]