[{"id":"2021682504","name":"Pizzaria Augustos","tags":"addr:city:São José dos Campos,addr:housenumber:622,addr:postcode:12215-000,addr:street:Avenida Brasil,addr:suburb:Monte Castelo,amenity:restaurant,cuisine:pizza,website:http://www.pizzariaaugustos.com.br","lat":-23.1847855,"lng":-45.8743791},{"id":"2310483286","name":"Marata Conveniência","tags":"shop:supermarket","lat":-23.1856811,"lng":-45.8735159},{"id":"2454649702","name":"Giga Pizza","tags":"amenity:restaurant,cuisine:pizza","lat":-23.1844634,"lng":-45.8753768},{"id":"10087299635","name":"Mix Clean","tags":"phone:+55 12 98821 0007,shop:chemist","lat":-23.1823694,"lng":-45.8736688},{"id":"10087299636","name":"Eskina Brasil","tags":"amenity:restaurant,phone:+55 12 99707 8174","lat":-23.1822557,"lng":-45.8736467},{"id":"10087299664","name":"By Allan","tags":"shop:beauty","lat":-23.182902,"lng":-45.8737682},{"id":"10087299670","name":"Agropecuária São Judas Tadeu","tags":"shop:pet","lat":-23.1844954,"lng":-45.8741108}]