[{"id":"9160609710","name":"Rappi 10","tags":"addr:street:Avenida Santa Cruz do Areão,amenity:restaurant,cuisine:pizza","lat":-23.0017437,"lng":-45.5600722},{"id":"9160865703","name":"Casa de Ração Empório Real","tags":"phone:+55 12 99240 7612,shop:pet","lat":-23.003294,"lng":-45.5585249},{"id":"9160874929","name":"Neves Rações","tags":"addr:housenumber:705,addr:street:Avenida Santa Cruz do Areão,phone:+55 12 3624 3714,shop:pet","lat":-23.0023688,"lng":-45.5597044},{"id":"9177330022","name":"Drogaria Califórnia","tags":"addr:street:Avenida Francisco Barreto Leme,addr:suburb:Jardim Califórnia,amenity:pharmacy,contact:mobile:+55 12 99108 1269,delivery:yes,dispensing:yes,drive_through:no,healthcare:pharmacy,phone:+55 12 3633 7124","lat":-23.0041892,"lng":-45.5502187},{"id":"9177334060","name":"Arte & Estilo Salão de Beleza","tags":"addr:street:Avenida Francisco Barreto Leme,addr:suburb:Jardim Califórnia,phone:+55 12 3622 7950,shop:beauty","lat":-23.0038157,"lng":-45.5505547},{"id":"9178117069","name":"Pizzaria e Esfiharia la Vecchia","tags":"addr:street:Avenida Francisco Barreto Leme,amenity:restaurant,contact:mobile:+55 12 99110 6780,contact:phone:+55 12 3411 8485,cuisine:pizza,delivery:yes,phone:+55 12 3674 1940","lat":-23.0000028,"lng":-45.5500411}]