[{"id":"8888112620","name":"Amicão Pet Shop","tags":"addr:housenumber:456,addr:postcode:12070380,addr:street:Avenida Monsenhor Antônio do Nascimento Castro,name:en:Estimação rações,name:pt:Estimação rações,opening_hours:Mo-Fr 09:00-18:30; Sa 09:00-14:00,phone:12988227784,shop:pet,wheelchair:no","lat":-23.0187808,"lng":-45.545125},{"id":"8944633817","name":"Shell Select","tags":"brand:Shell Select,brand:wikidata:Q154950,brand:wikipedia:en:Royal Dutch Shell,opening_hours:PH,Mo-Su 08:00-18:00+,shop:convenience,wheelchair:yes","lat":-23.0214671,"lng":-45.5409561},{"id":"9106267143","name":"Banco24Horas","tags":"amenity:atm,brand:Banco24Horas,brand:wikidata:Q4854069,brand:wikipedia:pt:Banco24Horas,currency:BRL:yes,drive_through:no,operator:Banco 24 horas.","lat":-23.0214797,"lng":-45.5409939},{"id":"9106291640","name":"Drogaria São José","tags":"addr:street:Avenida Brigadeiro José Vicente de Faria Lima,addr:suburb:Vila São José,amenity:pharmacy,dispensing:yes,healthcare:pharmacy,opening_hours:PH,Mo-Su 09:00-18:00+,phone:+55 12 3426 4873","lat":-23.0216052,"lng":-45.5411946},{"id":"9286820719","name":"Mercearia da Nega","tags":"addr:housenumber:44,addr:postcode:12070-380,addr:street:Rua Claro José da Motta,opening_hours:24/7,shop:convenience,wheelchair:yes","lat":-23.0190229,"lng":-45.5447533},{"id":"9709570588","name":"Aula particular","tags":"addr:housenumber:550,amenity:school,description:Aulas particulares (1° ao 9 ano).,phone:12996107031,website:prof.sandroguimaraes@gmail.com","lat":-23.0181751,"lng":-45.5445935},{"id":"9874282641","name":"Divina unha feita","tags":"addr:housenumber:36,addr:street:Claro José da Motta,description:Salão de unhas,phone:12991456733,shop:beauty","lat":-23.0190079,"lng":-45.5448442},{"id":"9874806803","name":"BR Mania","tags":"shop:convenience","lat":-23.0167276,"lng":-45.5434646},{"id":"10314908014","name":"Panificadora Ana Emília","tags":"addr:housenumber:665,craft:bakery,phone:12996355653","lat":-23.0218187,"lng":-45.5422272}]