[{"id":"1312125364","name":"Pollo Brasero","tags":"amenity:restaurant,cuisine:chicken","lat":-10.9439013,"lng":-69.5771944},{"id":"1312125410","name":"Serpost","tags":"amenity:post_office,brand:Serpost,brand:wikidata:Q19521863,brand:wikipedia:en:Servicios Postales del Perú,operator:Serpost","lat":-10.9454548,"lng":-69.5776587},{"id":"1312125461","name":"Banco de La Nación","tags":"addr:city:Iñapari,amenity:bank,atm:yes","lat":-10.9445564,"lng":-69.577158},{"id":"1312125470","name":"La Brasa Tropical","tags":"amenity:restaurant","lat":-10.9440038,"lng":-69.5764819},{"id":"5489729530","name":"Institución Educativa Iñapari","tags":"addr:district:Iñapari,addr:full:Avenida Leon Velarde S/n,addr:province:Tahuamanu,addr:subdistrict:Iñapari,amenity:school,isced:level:2","lat":-10.9474,"lng":-69.5774}]