[{"id":"1887756765","name":"Comercial Santos","tags":"addr:city:Puerto Quijarro,addr:housename:Comercial Santos,addr:housenumber:4,addr:neighbourhood:Barrio Fatima,addr:street:Calle Guatemala,opening_hours:Mo-Su 07:00-21:00,payment:cash:yes,payment:visa:yes,phone:+591-71058229,shop:supermarket,website:https://santoscomercial.negocio.site/","lat":-19.0040126,"lng":-57.713084},{"id":"4504608192","tags":"shop:convenience","lat":-19.0040304,"lng":-57.7180327},{"id":"7894897431","name":"Puerto Quijarro","tags":"addr:street:Avenida Luis Salazar de la Vega,network:FO,operator:Ferroviaria Oriental S.A.,public_transport:station,railway:station,website:https://www.fo.com.bo","lat":-19.0028068,"lng":-57.7141415},{"id":"9961789820","name":"29 de septiembre","tags":"amenity:pharmacy","lat":-19.004677,"lng":-57.7127456},{"id":"9961796420","name":"Santa Maria","tags":"amenity:pharmacy","lat":-19.0052345,"lng":-57.7137951},{"id":"9961796619","name":"7 de gosto","tags":"amenity:pharmacy","lat":-19.0057367,"lng":-57.7138417},{"id":"9961801317","name":"Garcia","tags":"amenity:pharmacy","lat":-19.0063324,"lng":-57.7134484}]