[{"id":"5518626737","name":"Rodoviária","tags":"amenity:bus_station","lat":-16.2565045,"lng":-56.6242079},{"id":"6018580597","name":"Drogaria Marques","tags":"amenity:pharmacy,healthcare:pharmacy","lat":-16.2549665,"lng":-56.6269767},{"id":"6018581792","name":"AgroPet","tags":"phone:+55 65 3345 2114,shop:pet","lat":-16.2579985,"lng":-56.6277781},{"id":"6325903474","name":"Drogaria União","tags":"amenity:pharmacy","lat":-16.2564914,"lng":-56.6251016},{"id":"9959282306","name":"Marechal Rondon","tags":"amenity:school","lat":-16.2568179,"lng":-56.6238271}]