[{"id":"2087143508","name":"Posto Ipiranga","tags":"addr:street:Rua Coronel José Soares Marcondes,shop:convenience","lat":-22.0083093,"lng":-51.5531422},{"id":"2087394830","name":"Supermercados Ulliam","tags":"addr:street:Rua Coronel José Soares Marcondes,shop:supermarket","lat":-22.0088999,"lng":-51.5528485},{"id":"2087483655","name":"Posto Guarucaia","tags":"amenity:car_wash,automated:no,self_service:no","lat":-22.0080221,"lng":-51.5531837},{"id":"2087483659","name":"Posto do Zé","tags":"amenity:car_wash","lat":-22.0078604,"lng":-51.5548574},{"id":"2087483674","tags":"leisure:sports_centre,sport:basketball","lat":-22.0081887,"lng":-51.5585213},{"id":"2087483677","name":"Posto do centro","tags":"amenity:car_wash","lat":-22.0096086,"lng":-51.55519}]