[{"id":"10271455809","name":"Comanella","tags":"addr:housenumber:7-58,addr:street:Alameda Doutor Octávio Pinheiro Brisola,amenity:restaurant,cuisine:pizza","lat":-22.334165,"lng":-49.0614772},{"id":"10276653509","name":"Helo Silveira Universitária","tags":"addr:housenumber:6-49,addr:street:Rua Antônio Garcia,internet_access:wlan,phone:(14) 3214-3213;(14) 99814-3213,shop:beauty","lat":-22.3323429,"lng":-49.0634014},{"id":"10276653609","name":"Estacionamento da Helo","tags":"amenity:parking","lat":-22.3323546,"lng":-49.0634733},{"id":"10276669709","name":"Drogasil","tags":"addr:street:Alameda Doutor Octávio Pinheiro Brisola,internet_access:wlan,shop:chemist","lat":-22.3315691,"lng":-49.0635519},{"id":"10276669710","name":"Molhin de Filé","tags":"addr:street:Rua Maria José,amenity:restaurant,cuisine:barbecue;brazilian;grill;sausage,internet_access:wlan","lat":-22.331294,"lng":-49.0631764},{"id":"10276669809","name":"Estacionamento da Drogasil","tags":"amenity:parking","lat":-22.3316035,"lng":-49.0636645}]