[{"id":"8454493226","name":"Skinão Lanches","tags":"addr:city:São Carlos,addr:housenumber:675,addr:postcode:13563-210,addr:street:Rua Professor Orlando Perez,addr:suburb:São Carlos III,amenity:restaurant,cuisine:pizza;regional;sandwich,opening_hours:08:00-22:00,opening_hours:covid19:08:00–22:00,phone:(16) 3374-4100","lat":-21.9921553,"lng":-47.927313},{"id":"8454493227","name":"Zero Grau","tags":"addr:city:São Carlos,addr:housenumber:130,addr:postcode:13563-210,addr:street:Rua Mario Pisani,addr:suburb:São Carlos III,amenity:restaurant,cuisine:ice_cream,opening_hours:11:00-23:20,opening_hours:covid19:11:00–23:20,phone:(16) 3415-0098","lat":-21.991589,"lng":-47.9260789},{"id":"8454493228","name":"Feirão Tio João III","tags":"addr:city:São Carlos,addr:housenumber:575,addr:postcode:13563-210,addr:street:Rua Professor Orlando Perez,addr:suburb:São Carlos III,opening_hours:Mo-Sa 08:00-18:00,shop:supermarket","lat":-21.9917272,"lng":-47.9265178},{"id":"8454493229","name":"Mercado Bandeirantes","tags":"addr:street:Rua Mario Pisani,opening_hours:Mo-Sa 08:00-18:00,opening_hours:covid19:open,shop:supermarket","lat":-21.991812,"lng":-47.9259354},{"id":"8454493230","name":"Novilho D'ouro Casa de Carnes","tags":"addr:city:São Carlos,addr:housenumber:101,addr:postcode:13563-270,addr:street:Rua Mario Pisani,addr:suburb:São Carlos III,opening_hours:Mo-Fr 08:00-17:00,opening_hours:covid19:open,phone:(16) 3372-9121,shop:supermarket","lat":-21.9919245,"lng":-47.926068},{"id":"8454493231","name":"Praça Marielle Franco","tags":"addr:city:São Carlos,addr:housenumber:s/n,addr:street:Rua João Petrucelli,addr:suburb:São Carlos III,leisure:park","lat":-21.9927321,"lng":-47.926117}]