[{"id":"986181657","name":"Cantos e Contos","tags":"addr:housenumber:2211,addr:street:Rua Major José Inácio,amenity:restaurant","lat":-22.0167764,"lng":-47.8888248},{"id":"1673778137","name":"Vila Verde","tags":"amenity:restaurant","lat":-22.0177162,"lng":-47.887595},{"id":"1688171562","name":"Banco do Brasil","tags":"amenity:bank,atm:yes,branch:Agência Fórum de São Carlos,brand:Banco do Brasil,brand:wikidata:Q610817,brand:wikipedia:en:Banco do Brasil","lat":-22.0215695,"lng":-47.8853522},{"id":"2381334142","name":"Chaminé","tags":"historic:monument,tourism:attraction","lat":-22.0220528,"lng":-47.8830643},{"id":"2703223929","name":"Supermercado Lumara","tags":"shop:supermarket","lat":-22.0208539,"lng":-47.8810693},{"id":"2712676419","name":"Santander","tags":"amenity:bank,atm:yes,brand:Santander,brand:wikidata:Q5835668,brand:wikipedia:en:Santander Bank","lat":-22.0167947,"lng":-47.8889876},{"id":"2712774553","name":"Caixa Econômica Federal","tags":"amenity:bank,atm:yes,branch:Agência São Carlos,brand:Caixa Econômica Federal,brand:wikidata:Q835283,brand:wikipedia:pt:Caixa Econômica Federal","lat":-22.0179317,"lng":-47.8891818},{"id":"6779440599","name":"Chef Alex","tags":"amenity:restaurant","lat":-22.0177772,"lng":-47.8816563},{"id":"8421819367","name":"Livraria Machado de Assis","tags":"addr:city:São Carlos,addr:street:Rua Conde do Pinhal,shop:books","lat":-22.0177077,"lng":-47.8893363}]