[{"id":"492135525","name":"Quase Dois Lanches","tags":"amenity:restaurant","lat":-22.0081739,"lng":-47.8906929},{"id":"492752680","name":"Kallas","tags":"amenity:restaurant","lat":-22.0084675,"lng":-47.8906807},{"id":"493041386","tags":"amenity:cafe","lat":-22.0088482,"lng":-47.8907399},{"id":"493041519","name":"Top Açaí","tags":"amenity:restaurant,wheelchair:no","lat":-22.0084962,"lng":-47.890012},{"id":"494231259","name":"Colégio Caaso","tags":"amenity:school","lat":-22.0062543,"lng":-47.8956914},{"id":"497397615","name":"Santander","tags":"amenity:bank,atm:yes,branch:PAB,brand:Santander,brand:wikidata:Q5835668,brand:wikipedia:en:Santander Bank","lat":-22.0076888,"lng":-47.897091},{"id":"499609661","tags":"amenity:pharmacy,healthcare:pharmacy","lat":-22.0105795,"lng":-47.889978},{"id":"499610734","tags":"amenity:restaurant","lat":-22.0056832,"lng":-47.8900606},{"id":"830676720","name":"Planeta Kids","tags":"amenity:school","lat":-22.0094849,"lng":-47.8998603},{"id":"1014333276","name":"Magistral","tags":"amenity:pharmacy,dispensing:no,healthcare:pharmacy","lat":-22.0103457,"lng":-47.890232},{"id":"1674844160","name":"Santa Teresa","tags":"amenity:bar,wheelchair:limited","lat":-22.0107643,"lng":-47.8937057},{"id":"1696030865","tags":"amenity:car_wash","lat":-22.0086224,"lng":-47.9000414},{"id":"1696032561","tags":"shop:convenience","lat":-22.0073442,"lng":-47.8994674},{"id":"1696032564","tags":"amenity:restaurant","lat":-22.0080478,"lng":-47.8990676},{"id":"5038187621","name":"Komilão Lanches","tags":"addr:city:São Carlos,addr:housenumber:61,addr:postcode:13561-120,addr:street:Rua Dona Maria Jacinta,amenity:restaurant,capacity:20,cuisine:burger,description:Lanche do Amadeu,opening_hours:Mo-Fr 18:00-22:30,phone:+55 16 3307-5984,smoking:outside,takeaway:yes","lat":-22.0088153,"lng":-47.8986753},{"id":"6083735185","name":"Biblioteca IFSC","tags":"amenity:library","lat":-22.0092158,"lng":-47.8972673},{"id":"6403144479","name":"Cafezeras","tags":"amenity:cafe","lat":-22.0062571,"lng":-47.8948603},{"id":"6403355471","name":"Koi","tags":"amenity:restaurant,cuisine:japanese","lat":-22.0107879,"lng":-47.8928808},{"id":"7230479112","name":"Banco do Brasil","tags":"amenity:bank,atm:yes,brand:Banco do Brasil,brand:wikidata:Q610817,brand:wikipedia:en:Banco do Brasil,description:PAE","lat":-22.006899,"lng":-47.896235}]