[{"id":"3495963000","name":"Cantinho Brasileiro","tags":"amenity:restaurant","lat":-21.1395446,"lng":-47.9912583},{"id":"3495963004","name":"Galetos","tags":"amenity:restaurant","lat":-21.1383606,"lng":-47.9955412},{"id":"3716215122","name":"IROS Instituto Radiológico de Sertãozinho","tags":"amenity:pharmacy,emergency:no,healthcare:pharmacy","lat":-21.138891,"lng":-47.9936601},{"id":"3719213433","name":"FarmaVip","tags":"amenity:pharmacy,dispensing:yes,healthcare:pharmacy","lat":-21.1390079,"lng":-47.9953033},{"id":"3719226837","name":"Bar do Pedrão","tags":"amenity:bar","lat":-21.1412142,"lng":-47.9912963},{"id":"3719226838","name":"Dona Esfiha","tags":"amenity:restaurant","lat":-21.1415944,"lng":-47.9895797},{"id":"3719297986","name":"Banco Itaú","tags":"amenity:bank","lat":-21.1383352,"lng":-47.991272},{"id":"3719297987","name":"Santander","tags":"amenity:bank,brand:Santander,brand:wikidata:Q5835668,brand:wikipedia:en:Santander Bank","lat":-21.1382751,"lng":-47.9897244},{"id":"3719297988","name":"Banco Itaú","tags":"amenity:bank","lat":-21.1386654,"lng":-47.9892121},{"id":"3719297989","name":"Supermercados Gricki","tags":"shop:supermarket","lat":-21.1377623,"lng":-47.989137},{"id":"3719377130","name":"Rakki Makis e Sushis","tags":"amenity:restaurant,cuisine:japanese","lat":-21.1393878,"lng":-47.9898161},{"id":"3719451252","name":"EMEI Leonardo Sponchiado","tags":"amenity:school","lat":-21.1414884,"lng":-47.9919535},{"id":"3719451253","name":"EE Bruno Pieroni","tags":"amenity:school","lat":-21.1427796,"lng":-47.9899341},{"id":"3733860323","name":"Biblioteca Municipal","tags":"amenity:library","lat":-21.138666,"lng":-47.9908798},{"id":"4251315210","name":"Crepe Mania","tags":"amenity:restaurant","lat":-21.1419048,"lng":-47.9957538},{"id":"8908308889","name":"Nana Lopes - Cabelo e Maquiagem / Studio Fro","tags":"addr:city:Sertãozinho,addr:housenumber:1174,addr:postcode:14160750,addr:street:Rua Expedicionário Lellis,addr:suburb:Centro,beauty:nails;cosmetics;hair,opening_hours:Mo-Fr 09:00-17:00,phone:+55 16 3042-4902,shop:beauty,website:https://www.facebook.com/Studio-Fr%C3%B4-489466044429685/?ref=page_internal","lat":-21.1409139,"lng":-47.9887884}]