[{"id":"3495962998","name":"Banco do Brasil","tags":"amenity:bank,brand:Banco do Brasil,brand:wikidata:Q610817,brand:wikipedia:en:Banco do Brasil","lat":-21.1459077,"lng":-47.9846211},{"id":"3495963002","name":"Colégio Culturart","tags":"amenity:school","lat":-21.144626,"lng":-47.9842656},{"id":"3719237200","name":"Nona Therezza Cucina","tags":"amenity:restaurant","lat":-21.1441759,"lng":-47.9880669},{"id":"3719237202","name":"Saborella Restaurante","tags":"amenity:restaurant","lat":-21.1443507,"lng":-47.9878524},{"id":"3719237204","name":"Roda da Picanha","tags":"amenity:restaurant,cuisine:steak_house","lat":-21.1437904,"lng":-47.9877826},{"id":"3719244750","name":"Faculdades Anhanguera","tags":"amenity:university","lat":-21.1448611,"lng":-47.987155},{"id":"3719244751","name":"Zanzibar","tags":"amenity:nightclub","lat":-21.1448711,"lng":-47.9863021},{"id":"3719244754","name":"Restaurante Casarão","tags":"amenity:restaurant","lat":-21.1445559,"lng":-47.98686},{"id":"3719247860","name":"Camilos Restaurante","tags":"amenity:restaurant","lat":-21.1451515,"lng":-47.9834643},{"id":"3719408659","name":"Costellaria","tags":"amenity:restaurant","lat":-21.1440509,"lng":-47.9865274},{"id":"4251305168","name":"Espetáculo da Pizza","tags":"amenity:restaurant,cuisine:pizza","lat":-21.1467029,"lng":-47.9843866},{"id":"4251322514","name":"Mr. Chopp","tags":"amenity:bar","lat":-21.1455521,"lng":-47.9860657},{"id":"6621616846","name":"Nijuangi Japanese Food","tags":"addr:city:Sertãozinho,addr:housenumber:427,addr:postcode:14160-800,addr:street:Rua Antônio Seron,addr:suburb:Centro,air_conditioning:yes,amenity:restaurant,cuisine:japanese;sushi,delivery:yes,phone:+55 16 3524-8930,takeaway:yes","lat":-21.1453864,"lng":-47.9844045}]