[{"id":"2265416635","name":"Itaú","tags":"amenity:bank,brand:Itaú Unibanco,brand:wikidata:Q1424293,brand:wikipedia:pt:Itaú Unibanco","lat":-21.1832435,"lng":-47.8134564},{"id":"2266311107","name":"Bradesco","tags":"amenity:bank,brand:Bradesco,brand:wikidata:Q806181,brand:wikipedia:en:Banco Bradesco","lat":-21.1823267,"lng":-47.8155504},{"id":"2390075502","name":"¡ Viva México !","tags":"addr:housenumber:1541,addr:street:Rua Comandante Marcondes Salgado,amenity:restaurant,website:http://www.vivamexico.com.br/","lat":-21.1859376,"lng":-47.812873},{"id":"2394549294","name":"Savegnago","tags":"shop:supermarket","lat":-21.1851293,"lng":-47.8198484},{"id":"3016787854","name":"Paladar & Requinte","tags":"addr:housenumber:1444,addr:street:Rua Visconde de Inhaúma,amenity:restaurant","lat":-21.1832612,"lng":-47.8147932},{"id":"3087554492","name":"Caixa Econômica Federal","tags":"amenity:bank,brand:Caixa Econômica Federal,brand:wikidata:Q835283,brand:wikipedia:pt:Caixa Econômica Federal","lat":-21.182933,"lng":-47.8137523},{"id":"3761478143","name":"Ron Qial","tags":"addr:housenumber:1466,addr:street:Rua Comandante Marcondes Salgado,amenity:restaurant,cuisine:chinese,diet:vegetarian:only","lat":-21.1852079,"lng":-47.8127098},{"id":"3994389447","name":"Mirante","tags":"amenity:restaurant","lat":-21.1828918,"lng":-47.8174573}]