[{"id":"9816080204","name":"Mercearia do Felino","tags":"addr:city:Cajobi,addr:housenumber:880,addr:postcode:15410000,addr:street:Rua João Rímoli Neto,addr:suburb:centro,operator:Marli Camargo,shop:convenience","lat":-20.8790475,"lng":-48.8035202},{"id":"9816080206","name":"Praça dos estudantes","tags":"addr:city:Cajobi,addr:postcode:15410-000,addr:street:Rua Ilídio Lopes de Oliveira,addr:suburb:Centro,leisure:park","lat":-20.8779999,"lng":-48.8077205},{"id":"9816080208","name":"Farma Gatti","tags":"addr:city:Cajobi,addr:housenumber:469,addr:postcode:15410-000,addr:street:Rua Olga Bernardes Zamperlini,addr:suburb:Centro,amenity:pharmacy,dispensing:yes,drive_through:yes,healthcare:pharmacy","lat":-20.8782856,"lng":-48.8083294},{"id":"9816080212","name":"Drogaria Santa Rita de Cassia","tags":"addr:city:Cajobi,addr:postcode:15410-000,addr:street:Rua Olga Bernardes Zamperlini,addr:suburb:Centro,amenity:pharmacy,dispensing:yes,healthcare:pharmacy","lat":-20.876589,"lng":-48.8082891},{"id":"9816080213","name":"Isabela Faria estética","tags":"addr:city:Cajobi,addr:housenumber:583,addr:postcode:15410-000,addr:street:Rua Olga Bernardes Zamperlini,addr:suburb:Centro,beauty:nails,shop:beauty","lat":-20.8761128,"lng":-48.8080477},{"id":"9853653998","name":"Emporio Sabor da Terra","tags":"addr:city:Cajobi,addr:postcode:15410-000,addr:street:Rua Capitão Lázaro Vaz de Lima,addr:suburb:Centro,shop:convenience","lat":-20.8781494,"lng":-48.809133}]