[{"id":"2945010477","name":"Supermercado Iquegami","tags":"shop:supermarket","lat":-20.7401532,"lng":-48.9062173},{"id":"2945010478","name":"Unidade de Pronto Atendimento","tags":"amenity:hospital,emergency:yes,short_name:UPA","lat":-20.7396762,"lng":-48.9063715},{"id":"2947956846","name":"Zanotte","tags":"shop:supermarket","lat":-20.7404555,"lng":-48.9077213},{"id":"2947956847","name":"Padaria & Cafeteria","tags":"amenity:cafe,cuisine:regional","lat":-20.7403852,"lng":-48.9074316},{"id":"3208051118","name":"Farmácia Nossa Senhora Aparecida","tags":"amenity:pharmacy","lat":-20.7402651,"lng":-48.9093436},{"id":"3208051119","name":"Drogaria Total","tags":"amenity:pharmacy","lat":-20.7379724,"lng":-48.9103897},{"id":"3340799330","name":"Zéz","tags":"amenity:cafe","lat":-20.7369844,"lng":-48.9105508},{"id":"3340799331","tags":"amenity:cafe","lat":-20.7371349,"lng":-48.9105052},{"id":"7787476490","name":"Rodoviária Paschoal Lamana","tags":"addr:city:Olímpia,addr:state:SP,amenity:bus_station,public_transport:station","lat":-20.7383765,"lng":-48.9109024}]