[{"id":"5207506624","name":"Farmácia Nacional","tags":"amenity:pharmacy,healthcare:pharmacy","lat":-19.7527492,"lng":-47.9229048},{"id":"5208432823","name":"Sicoob","tags":"amenity:bank","lat":-19.7505726,"lng":-47.930243},{"id":"5209444724","name":"Sicoob","tags":"amenity:bank,brand:Sicoob,brand:wikidata:Q28679754","lat":-19.7510996,"lng":-47.9287009},{"id":"5209444821","name":"Drogaria Xavier","tags":"amenity:pharmacy,healthcare:pharmacy","lat":-19.7508076,"lng":-47.9286221},{"id":"5211326421","name":"Mr. Lee","tags":"amenity:restaurant,cuisine:japanese","lat":-19.7482043,"lng":-47.9224815},{"id":"5211345721","name":"Drogasil","tags":"amenity:pharmacy,brand:Drogasil,brand:wikidata:Q5308185,healthcare:pharmacy,opening_hours:24/7,wheelchair:yes","lat":-19.7528147,"lng":-47.9224547},{"id":"5212516967","tags":"shop:pet","lat":-19.7512436,"lng":-47.9316058},{"id":"5212516968","name":"Mercadão","tags":"shop:convenience","lat":-19.7505416,"lng":-47.9321827},{"id":"5212813248","name":"Supermercado Tropical","tags":"shop:supermarket","lat":-19.7506356,"lng":-47.9321502},{"id":"5212857754","name":"Cozinha D'Oro","tags":"amenity:restaurant","lat":-19.7508674,"lng":-47.9315655},{"id":"5212857755","name":"Armazém","tags":"shop:convenience","lat":-19.7507622,"lng":-47.9321852}]