[{"id":"4279229601","name":"Escola de futebol - 9 de Julho","tags":"addr:street:Rua Seis JA,tourism:attraction","lat":-22.3796387,"lng":-47.552491},{"id":"4279229602","name":"Bar e sauna - 9 de Julho","tags":"addr:street:Rua Cinco JA,amenity:bar","lat":-22.3794117,"lng":-47.5536048},{"id":"4279239498","name":"Floridiana Tênis Clube","tags":"addr:street:Avenida Um Jf,leisure:fitness_centre","lat":-22.3830333,"lng":-47.5594306},{"id":"4282131590","name":"Bar do Eugênio","tags":"addr:street:Rua Nove JA,amenity:bar","lat":-22.3801871,"lng":-47.5498647},{"id":"4282182690","name":"Bar do Irmão","tags":"addr:street:Avenida Sessenta e Oito A,amenity:bar","lat":-22.3792675,"lng":-47.550616},{"id":"4282183089","name":"Bar do Baiano","tags":"addr:street:Avenida Sessenta e Oito A,amenity:bar","lat":-22.3792116,"lng":-47.5507638}]