[{"id":"4279227905","name":"SESI","tags":"addr:street:Avenida M Vinte e Nove,amenity:school","lat":-22.3778206,"lng":-47.559006},{"id":"4279229600","name":"Supermercado Furkim","tags":"addr:street:Avenida Setenta e Seis A,shop:supermarket","lat":-22.3763477,"lng":-47.5518252},{"id":"4279239791","name":"Bar do Vô","tags":"addr:street:Rua Quatro JA,amenity:bar","lat":-22.3785895,"lng":-47.5543985},{"id":"4279260889","name":"E.E José Cardoso","tags":"addr:street:Rua Nove C,amenity:school","lat":-22.3789601,"lng":-47.5490067},{"id":"4280954102","name":"Bar plano C","tags":"addr:street:Rua Quatro C,amenity:bar","lat":-22.3770659,"lng":-47.5520853},{"id":"4280954803","name":"Casa de pássaros Arco-Íris","tags":"addr:street:Rua Quatro C,shop:pet","lat":-22.377258,"lng":-47.5521663},{"id":"4280979089","name":"Loja de queijos e doces mineiros","tags":"addr:street:Rua Três C,shop:supermarket","lat":-22.3769165,"lng":-47.5520182},{"id":"4293610690","name":"Fair Play - Jogos de mesa, cartas, rpg","tags":"addr:street:Avenida Sessenta e Oito A,tourism:attraction","lat":-22.3781189,"lng":-47.5543222}]