[{"id":"1850347036","name":"Celtra","tags":"leisure:sports_centre","lat":-22.0593303,"lng":-46.9721407},{"id":"5256835247","name":"Agência dos Correios de Aguaí","tags":"amenity:post_office","lat":-22.058747,"lng":-46.9747563},{"id":"5372698695","name":"Centro Despostivo de Aguaí","tags":"leisure:sports_centre","lat":-22.059516,"lng":-46.9752955},{"id":"5372698700","name":"Guarda Municipal de Aguaí","tags":"amenity:police","lat":-22.0587822,"lng":-46.9759513},{"id":"5373654343","name":"Escola Estadual de Ensino Médio Egle Luporini Costa","tags":"amenity:school","lat":-22.0595087,"lng":-46.9761047},{"id":"5373654344","name":"Polícia Militar","tags":"amenity:police","lat":-22.0595045,"lng":-46.977187},{"id":"5373654347","name":"Supermercado Marino Loja Construindo","tags":"shop:supermarket","lat":-22.0585877,"lng":-46.9774756},{"id":"5373654349","name":"Dia %","tags":"shop:supermarket","lat":-22.0573714,"lng":-46.9763262},{"id":"5379065476","name":"Academia de Dança","tags":"leisure:fitness_centre","lat":-22.0598628,"lng":-46.9725677},{"id":"5379065477","tags":"leisure:fitness_centre,sport:yoga","lat":-22.0599608,"lng":-46.9725759},{"id":"5387908221","name":"Banco do Brasil","tags":"amenity:bank","lat":-22.0573276,"lng":-46.977413},{"id":"6230438300","name":"Praça Leonardo Guaranha","tags":"leisure:park","lat":-22.059372,"lng":-46.9705597},{"id":"6230438332","name":"Praça Leonardo Guaranha","tags":"leisure:park","lat":-22.059085,"lng":-46.97065}]