[{"id":"2266402964","name":"Tenda Árabe","tags":"addr:housenumber:325,addr:street:Rua Guimarães Passos,amenity:restaurant","lat":-21.1881499,"lng":-47.8009639},{"id":"2345137916","name":"Bradesco","tags":"amenity:bank,brand:Bradesco,brand:wikidata:Q806181,brand:wikipedia:en:Banco Bradesco","lat":-21.1904486,"lng":-47.8010241},{"id":"2453594814","name":"Classe A","tags":"addr:housenumber:1959,addr:street:Avenida Nove de Julho,amenity:restaurant,phone:+55 16 3610-6873,website:http://www.restauranteclassea.com.br/","lat":-21.1918919,"lng":-47.8014223},{"id":"2460761669","name":"Coisa Boa","tags":"amenity:restaurant","lat":-21.1910002,"lng":-47.8010594},{"id":"5346978251","name":"Parada Paulista","tags":"amenity:restaurant","lat":-21.1882232,"lng":-47.795417},{"id":"5346978259","name":"Donna","tags":"addr:housenumber:130,addr:street:Avenida Doutor Plínio de Castro Prado,amenity:restaurant","lat":-21.188452,"lng":-47.7966508}]