[{"id":"2467922120","name":"Mini Rodoviária","tags":"amenity:bus_station,public_transport:station","lat":-21.1853407,"lng":-47.7876594},{"id":"3050929565","name":"Escola Pequeno Construtor","tags":"amenity:school","lat":-21.1842705,"lng":-47.7847382},{"id":"4382855506","name":"Colégio Anchieta","tags":"amenity:school","lat":-21.1839841,"lng":-47.7882475},{"id":"4554228892","name":"Cascata","tags":"addr:street:Avenida 13 de Maio,amenity:restaurant,cuisine:pizza,name:en:Cascata,name:pt:Cascata","lat":-21.1837785,"lng":-47.7861799},{"id":"5346975894","name":"Shogá","tags":"amenity:restaurant,cuisine:japanese","lat":-21.185002,"lng":-47.7895068}]