[{"id":"2330168478","name":"Sicoob","tags":"amenity:bank,brand:Sicoob,brand:wikidata:Q28679754,brand:wikipedia:pt:Sistema de Cooperativas de Crédito do Brasil","lat":-22.1218952,"lng":-45.1314856},{"id":"2330168612","name":"Igreja Matriz","tags":"amenity:place_of_worship,building:church,religion:christian","lat":-22.1229312,"lng":-45.1315091},{"id":"2330180029","name":"Polícia Militar","tags":"amenity:police","lat":-22.1219991,"lng":-45.1283644},{"id":"2330183008","name":"Supermercado Ouro Verde","tags":"shop:supermarket","lat":-22.121733,"lng":-45.1315864},{"id":"2531539957","tags":"amenity:pharmacy,healthcare:pharmacy","lat":-22.1223072,"lng":-45.1315321},{"id":"10614350618","tags":"amenity:pharmacy,healthcare:pharmacy","lat":-22.1211675,"lng":-45.1314314},{"id":"10617252874","tags":"shop:supermarket","lat":-22.1245562,"lng":-45.1302245},{"id":"10617252879","tags":"leisure:fitness_centre","lat":-22.1237007,"lng":-45.131316},{"id":"10617252880","tags":"amenity:restaurant,cuisine:pizza","lat":-22.1236731,"lng":-45.1311967}]