[{"id":"4151411589","name":"correios","tags":"amenity:post_office","lat":-21.8519344,"lng":-45.2965684},{"id":"4206051673","name":"Biblioteca Pública","tags":"amenity:library","lat":-21.853293,"lng":-45.2937649},{"id":"5005304467","name":"Bradesco","tags":"amenity:atm","lat":-21.8551808,"lng":-45.2941449},{"id":"5005304468","name":"Supermercado Pierrot","tags":"shop:supermarket","lat":-21.855139,"lng":-45.2944282},{"id":"5005304470","name":"Delegacia de polícia","tags":"amenity:police","lat":-21.8550974,"lng":-45.2949194},{"id":"5005323443","name":"Drograria Nossa Senhora Aparecida","tags":"amenity:pharmacy","lat":-21.8519084,"lng":-45.2943589}]