[{"id":"2284228058","name":"Credicoonai 3210","tags":"addr:housename:Branco Credicoonai,addr:postcode:14670000,addr:street:Rua Espirito Santo,amenity:bank,atm:no","lat":-20.730569,"lng":-47.7515146},{"id":"2284229394","name":"Bradesco","tags":"addr:postcode:1470000,addr:street:Rua Espirito Santo,amenity:bank,atm:yes","lat":-20.7304038,"lng":-47.7515945},{"id":"2284239460","name":"Empresa Brasileira de Correios e Telégrafos","tags":"amenity:post_office,description:Agência,operator:ECT,short_name:Correios,website:http://www.correios.com.br","lat":-20.7297665,"lng":-47.7529331},{"id":"2284268964","tags":"amenity:bus_station,building:public","lat":-20.7311412,"lng":-47.75447},{"id":"2284275325","tags":"amenity:car_wash","lat":-20.730632,"lng":-47.7536975},{"id":"2284285986","name":"Farmacia Santa Rita","tags":"amenity:pharmacy","lat":-20.7299718,"lng":-47.7510897},{"id":"2284285990","tags":"amenity:pharmacy","lat":-20.7304163,"lng":-47.7517985},{"id":"2284285994","tags":"amenity:pharmacy","lat":-20.7305743,"lng":-47.7521177},{"id":"2290972831","name":"Bookafe","tags":"addr:postcode:14670-000,addr:street:Rua Espirito Santo,shop:books","lat":-20.7304144,"lng":-47.7514689},{"id":"2290973805","name":"Supermercado São Francisco","tags":"addr:postcode:14670000,addr:street:Praça Eloy Lima,shop:supermarket","lat":-20.7303869,"lng":-47.7504588},{"id":"2494922167","name":"Restaurante e Quitandas da Vani","tags":"addr:city:Nuporanga,addr:housenumber:sn,addr:postcode:14670000,addr:street:Rua Espírito Santo,amenity:restaurant,capacity:20,cuisine:brazilian;caseira;quitandas,delivery:yes,takeaway:yes","lat":-20.7304447,"lng":-47.7546236},{"id":"2494933541","tags":"amenity:cafe","lat":-20.7304336,"lng":-47.7527048},{"id":"2494933618","tags":"shop:supermarket","lat":-20.7304361,"lng":-47.7532386},{"id":"2495131139","tags":"amenity:library","lat":-20.730713,"lng":-47.7492638},{"id":"9782457864","name":"Supermercado Maiszena","tags":"shop:supermarket","lat":-20.7290169,"lng":-47.7535533}]