[{"id":"6413312891","name":"Banco do Brasil","tags":"amenity:bank,brand:Banco do Brasil,brand:wikidata:Q610817,brand:wikipedia:en:Banco do Brasil","lat":-18.1351193,"lng":-48.0854286},{"id":"6413312892","name":"Hospital e Maternidade de Goiandira","tags":"amenity:hospital,healthcare:hospital","lat":-18.1349629,"lng":-48.0847591},{"id":"6413312893","name":"Escola Municipal Santa Maria Goretti","tags":"amenity:school","lat":-18.1359558,"lng":-48.0844348},{"id":"6413312929","name":"Biblioteca Municipal","tags":"amenity:library","lat":-18.135166,"lng":-48.0858999},{"id":"6413312930","name":"Supermercado Goiandira","tags":"shop:supermarket","lat":-18.1359586,"lng":-48.084729},{"id":"6413312933","name":"Central Lanches e Restaurante","tags":"amenity:restaurant","lat":-18.1369723,"lng":-48.0868331},{"id":"6413312935","tags":"shop:supermarket","lat":-18.1372629,"lng":-48.0866641},{"id":"6417251284","name":"Supermercado São Jorge","tags":"shop:supermarket","lat":-18.1344773,"lng":-48.0862518},{"id":"6417251385","tags":"shop:supermarket","lat":-18.1359881,"lng":-48.0854721},{"id":"6417251386","tags":"amenity:bank","lat":-18.1367196,"lng":-48.0857658},{"id":"6417251387","name":"Farmácia São Judas Tadeu","tags":"amenity:pharmacy,dispensing:yes,healthcare:pharmacy","lat":-18.1363564,"lng":-48.0857309},{"id":"6417251442","tags":"amenity:pharmacy,dispensing:yes,healthcare:pharmacy","lat":-18.1357364,"lng":-48.0862553},{"id":"6417251445","tags":"amenity:pharmacy,dispensing:yes,healthcare:pharmacy","lat":-18.1350206,"lng":-48.0845271},{"id":"8490834675","tags":"leisure:fitness_centre","lat":-18.1359845,"lng":-48.0857177}]