[{"id":"4939636788","name":"Diner Box","tags":"amenity:restaurant,cuisine:burger","lat":-18.5820904,"lng":-46.5160108},{"id":"4939636790","name":"Kimono","tags":"amenity:restaurant,cuisine:sushi;japanese","lat":-18.5818786,"lng":-46.5159942},{"id":"4942585127","name":"Kumon","tags":"amenity:school","lat":-18.5803655,"lng":-46.5149645},{"id":"4942585128","name":"CCAA Inglês","tags":"amenity:school","lat":-18.5801409,"lng":-46.5149695},{"id":"4951298914","name":"CNA Inglês","tags":"amenity:school","lat":-18.5819603,"lng":-46.515556}]