[{"id":"4939077779","name":"Supermercado Popular","tags":"shop:supermarket","lat":-18.5747237,"lng":-46.5090159},{"id":"4939077780","name":"Farmácia Universitária","tags":"amenity:pharmacy,healthcare:pharmacy,operator:UNIPAM","lat":-18.5748874,"lng":-46.5128102},{"id":"4939211222","name":"IndiGO","tags":"amenity:school","lat":-18.5773575,"lng":-46.5101411},{"id":"4939211227","name":"Academia Universitaria","tags":"leisure:fitness_centre,sport:exercise","lat":-18.5739331,"lng":-46.51401},{"id":"4939211229","name":"Caldo de Minas","tags":"amenity:restaurant","lat":-18.5769956,"lng":-46.5149792},{"id":"4939211230","name":"Studio Fit","tags":"leisure:fitness_centre","lat":-18.5772905,"lng":-46.5147262},{"id":"4939211231","name":"Amelinha","tags":"amenity:restaurant","lat":-18.5743601,"lng":-46.5133882},{"id":"4939211232","name":"Biblioteca Central da Unipam","tags":"amenity:library,operator:UNIPAM","lat":-18.575494,"lng":-46.5129388},{"id":"4942519454","name":"Premium Bar","tags":"amenity:bar,outdoor_seating:yes","lat":-18.5776161,"lng":-46.5100086}]