[{"id":"7343485161","name":"Garfo","tags":"amenity:restaurant","lat":-15.6052904,"lng":-56.0813693},{"id":"7343485163","name":"Não Acredito que é Pizza Caseira","tags":"amenity:restaurant,cuisine:pizza","lat":-15.6049745,"lng":-56.0806699},{"id":"7343485164","name":"Prime Spetos","tags":"amenity:restaurant","lat":-15.6047993,"lng":-56.0804999},{"id":"7343485189","name":"Cris Melo SPA","tags":"beauty:nails,shop:beauty","lat":-15.6021115,"lng":-56.0800658},{"id":"7343485195","name":"Mercearia Novo Lar","tags":"shop:convenience","lat":-15.6013777,"lng":-56.0832211}]