[{"id":"1514529372","name":"Banco do Brasil","tags":"amenity:bank,atm:yes","lat":-16.4793186,"lng":-54.6169276},{"id":"5924411570","name":"Centrofarma","tags":"amenity:pharmacy,dispensing:yes,healthcare:pharmacy","lat":-16.4782688,"lng":-54.6163509},{"id":"5924411571","name":"Banco do Brasil Estilo","tags":"amenity:bank","lat":-16.4769301,"lng":-54.6149842},{"id":"5925259875","name":"Ditado Popular","tags":"amenity:bar","lat":-16.4787853,"lng":-54.6163189},{"id":"5925324291","name":"Drogasil","tags":"amenity:pharmacy,dispensing:yes,healthcare:pharmacy","lat":-16.478404,"lng":-54.6166756},{"id":"5926744795","name":"Correios","tags":"amenity:post_office","lat":-16.4780972,"lng":-54.6185114},{"id":"5927493828","name":"Lion Gelo","tags":"shop:convenience","lat":-16.4766158,"lng":-54.6145894},{"id":"5927493829","name":"Pantanal Grelhados","tags":"amenity:restaurant","lat":-16.477712,"lng":-54.6158387},{"id":"5927493830","name":"Espetisco","tags":"amenity:restaurant","lat":-16.4745019,"lng":-54.622043}]