[{"id":"5457306526","tags":"amenity:restaurant,name:en:Restaurante Popular - Buffet 13R$","lat":-15.4599352,"lng":-55.748025},{"id":"6008685587","name":"Supermercado Rios","tags":"shop:supermarket","lat":-15.460724,"lng":-55.7482906},{"id":"6008685588","name":"Distribuidora de Bebidas São José","tags":"payment:cash:yes,payment:debit_cards:yes,shop:convenience","lat":-15.4609163,"lng":-55.7478849},{"id":"6008685590","name":"Margherita Pizzeria Massas","tags":"amenity:restaurant,cuisine:pizza","lat":-15.4603582,"lng":-55.7473708},{"id":"6008685591","name":"Prime","tags":"shop:pet","lat":-15.4596865,"lng":-55.7471782},{"id":"6008685592","tags":"shop:convenience","lat":-15.4588724,"lng":-55.7468478},{"id":"6008686085","name":"Oishi","tags":"addr:housenumber:922,amenity:restaurant,cuisine:asian,opening_hours:Mo-Su 17:00-23:00,phone:+55 65 99247 4549","lat":-15.4603066,"lng":-55.7473545},{"id":"6009874486","name":"Drogaria Frei Osvaldo","tags":"amenity:pharmacy,healthcare:pharmacy","lat":-15.4586905,"lng":-55.7479581}]