[{"id":"2825544724","name":"Cristo Redentor","tags":"historic:monument,tourism:attraction","lat":-15.8721519,"lng":-52.2600038},{"id":"2832883339","name":"Escadaria do Cristo - Nível Superior","tags":"tourism:attraction","lat":-15.8722085,"lng":-52.2598354},{"id":"2834837783","name":"Cachoeira Pé da Serra","tags":"tourism:attraction,waterway:waterfall","lat":-15.8719639,"lng":-52.2534262},{"id":"2834837785","name":"Cachoeira da Usina","tags":"tourism:attraction,waterway:waterfall","lat":-15.8706339,"lng":-52.2527516},{"id":"5370985281","name":"Sitio Arqueologico Abrigo da Serra da Estrela Azul","tags":"historic:archaeological_site,site_type:settlement,tourism:attraction","lat":-15.8722374,"lng":-52.2569955},{"id":"5797241853","tags":"tourism:attraction","lat":-15.8722526,"lng":-52.2533089}]