[{"id":"6996870249","tags":"shop:beauty","lat":-15.8830521,"lng":-52.3133609},{"id":"6996870250","tags":"shop:beauty","lat":-15.8830303,"lng":-52.3134589},{"id":"6996870251","name":"Studio Gessica Figueiredo Nail Desing","tags":"addr:city:Barra do Garças,addr:housenumber:115,addr:postcode:78600-000,addr:street:Rua da Prata,addr:suburb:Jardim Nova Barra,amenity:cafe,internet_access:yes","lat":-15.8830193,"lng":-52.313436},{"id":"6996870252","tags":"shop:beauty","lat":-15.8830324,"lng":-52.3134498},{"id":"6996870253","name":"Studio Gessica Figueiredo Nail Desing","tags":"addr:city:Barra do Garças,addr:housenumber:115,addr:postcode:78600000,addr:street:Rua da Prata,addr:suburb:Jardim Nova Barra,beauty:nails,opening_hours:Mo-Su 09:00-18:00,operator:Gessica Figueiredo,payment:cards:yes,payment:cash:yes,payment:debit_cards:yes,payment:maestro:yes,payment:mastercard:yes,payment:visa:yes,shop:beauty","lat":-15.8830327,"lng":-52.3134577},{"id":"6996870254","tags":"shop:beauty","lat":-15.8830288,"lng":-52.3134496},{"id":"6996870255","tags":"shop:beauty","lat":-15.8830217,"lng":-52.3134509},{"id":"6996870257","tags":"shop:beauty","lat":-15.8830116,"lng":-52.3134451},{"id":"6996870258","name":"Studio Gessica Figueiredo Nail Desing","tags":"addr:city:Barra do Garças,addr:housenumber:115,addr:postcode:78600-000,addr:street:Rua da Prata,addr:suburb:Jardim Nova Barra,air_conditioning:yes,beauty:nails,internet_access:yes,operator:Gessica Figueiredo,payment:cards:yes,payment:cash:yes,shop:beauty","lat":-15.8830143,"lng":-52.3134526}]