[{"id":"2547381548","name":"Drogaria Santa Marta","tags":"amenity:pharmacy,healthcare:pharmacy","lat":-16.7079581,"lng":-49.284382},{"id":"2547381681","name":"Itaú","tags":"amenity:bank,brand:Itaú Unibanco,brand:wikidata:Q1424293,brand:wikipedia:pt:Itaú Unibanco","lat":-16.707882,"lng":-49.2819609},{"id":"2547381682","name":"Caixa Econômica Federal","tags":"amenity:bank,brand:Caixa Econômica Federal,brand:wikidata:Q835283,brand:wikipedia:pt:Caixa Econômica Federal","lat":-16.7081304,"lng":-49.2830871},{"id":"4632085897","tags":"leisure:fitness_centre","lat":-16.7087712,"lng":-49.2749107},{"id":"5433395821","name":"Escola Interamerica","tags":"amenity:school","lat":-16.709959,"lng":-49.2766119},{"id":"5635040741","name":"Banco do Brasil","tags":"amenity:bank,brand:Banco do Brasil,brand:wikidata:Q610817,brand:wikipedia:en:Banco do Brasil","lat":-16.7088425,"lng":-49.2826471}]