[{"id":"2526862649","name":"Bradesco","tags":"amenity:bank,brand:Bradesco,brand:wikidata:Q806181,brand:wikipedia:en:Banco Bradesco","lat":-16.706771,"lng":-49.2638569},{"id":"2526862657","name":"Itaú","tags":"amenity:bank,brand:Itaú Unibanco,brand:wikidata:Q1424293,brand:wikipedia:pt:Itaú Unibanco","lat":-16.7069042,"lng":-49.263858},{"id":"2526862665","name":"Droga Raia","tags":"amenity:pharmacy,brand:Droga Raia,brand:wikidata:Q10357101,brand:wikipedia:pt:RaiaDrogasil,healthcare:pharmacy,operator:Santa Marta","lat":-16.7086018,"lng":-49.2641754},{"id":"2526862666","name":"Drogasil","tags":"amenity:pharmacy,brand:Drogasil,brand:wikidata:Q5308185,brand:wikipedia:pt:Drogasil,healthcare:pharmacy,operator:Drogasil,wheelchair:yes","lat":-16.7086131,"lng":-49.2637051},{"id":"2592685741","name":"Caballo Restaurante","tags":"amenity:restaurant","lat":-16.7074848,"lng":-49.2712118},{"id":"2592685742","name":"Choperia Pinguim","tags":"amenity:bar","lat":-16.7066136,"lng":-49.272163},{"id":"2592685744","name":"Colégio Mega","tags":"amenity:school","lat":-16.7073404,"lng":-49.2703404},{"id":"2592685745","name":"Cultura Inglesa","tags":"amenity:school","lat":-16.7071479,"lng":-49.2707059},{"id":"2592685748","name":"Faculdade Araguaia","tags":"amenity:university","lat":-16.7071496,"lng":-49.270129},{"id":"2592685754","name":"Instituto Carlos André","tags":"amenity:school","lat":-16.705738,"lng":-49.2730423},{"id":"2592685756","name":"Olimpo","tags":"amenity:school","lat":-16.7060779,"lng":-49.272879},{"id":"2592685762","name":"Santa Marta","tags":"amenity:pharmacy,healthcare:pharmacy","lat":-16.7081094,"lng":-49.2637342},{"id":"2592685764","name":"Uptime","tags":"amenity:school","lat":-16.7070716,"lng":-49.2706609},{"id":"2594280401","name":"Drogasil","tags":"amenity:pharmacy,brand:Drogasil,brand:wikidata:Q5308185,brand:wikipedia:pt:Drogasil,healthcare:pharmacy,wheelchair:yes","lat":-16.7080644,"lng":-49.2728126},{"id":"2594280417","name":"Madero Burger & Grill","tags":"amenity:restaurant,cuisine:steak_house;burger","lat":-16.7077706,"lng":-49.272826},{"id":"2594280450","name":"Toshca Arabian","tags":"amenity:restaurant","lat":-16.7077299,"lng":-49.2729693},{"id":"4705909713","name":"Boulangerie de France","tags":"amenity:cafe,cuisine:french","lat":-16.7091084,"lng":-49.2726851},{"id":"5236172426","name":"Restaurante China","tags":"amenity:restaurant","lat":-16.7091479,"lng":-49.2670436},{"id":"5635045949","name":"Scada Cafe","tags":"amenity:cafe","lat":-16.7080324,"lng":-49.2730099},{"id":"6658363340","name":"Pet & Cia","tags":"addr:city:Goiânia,addr:housenumber:574,addr:postcode:74230-010,addr:street:Av. T-15,addr:suburb:Setor Bueno,payment:bitcoin:yes,shop:pet","lat":-16.7100009,"lng":-49.2720255},{"id":"7293232914","name":"Bioplastia Brasil GO","tags":"addr:city:Goiânia,addr:housenumber:930,addr:postcode:74215-020,addr:street:Rua T 55,addr:suburb:Setor Bueno,amenity:hospital,healthcare:hospital,healthcare:speciality:Bioplastia;Harmonização_Facial;Glúteos;Nariz;Laser_CO2_Fracionado,operator:Bioplastia Brasil GO,operator:type:private","lat":-16.7054672,"lng":-49.2713279}]