[{"id":"7945317617","name":"Assembleia de Deus Min. Fama","tags":"addr:street:Rua Mariana Jacob de Menezes,amenity:place_of_worship,building:church,denomination:pentecostal,phone:+55 62 3210-7744,religion:christian,service_times:Su 18:00-20:00,website:http://www.ministeriofama.org/portal/index.php,wheelchair:yes","lat":-16.6197758,"lng":-49.2916298},{"id":"7945329228","name":"Empório São Jorge","tags":"addr:street:Francisco Bontempo,opening_hours:Mo-Sa 07:00-21:00; Su 08:00-14:00,phone:+55 62 3210-7171,shop:supermarket","lat":-16.6221561,"lng":-49.2854614},{"id":"7945336703","name":"Caixa Econômica Federal","tags":"addr:street:Avenida Genésio de Lima Brito,amenity:bank,brand:Caixa Econômica Federal,level:0,opening_hours:Mo-Fr 08:00-13:00,operator:Caixa Econômica Federal,phone:+55 62 3621-9350,website:www.caixa.gov.br,wheelchair:yes","lat":-16.6188795,"lng":-49.2899526},{"id":"7946163201","name":"Drogaria Santa Marta","tags":"addr:street:Francisco Bontempo,amenity:pharmacy,healthcare:pharmacy,website:https://www.drogariasantamarta.com.br/","lat":-16.6221972,"lng":-49.2846704},{"id":"7946190698","name":"Drogaria Vitta","tags":"addr:housenumber:342,addr:street:Avenida Genésio de Lima Brito,amenity:pharmacy,opening_hours:Mo-Su 07:00-21:00,phone:+55 62 3999-5031,website:www.drogariavitta.com.br,wheelchair:yes","lat":-16.6212107,"lng":-49.2862952},{"id":"7946402727","name":"Assembleia de Deus Min. Vila Nova","tags":"amenity:place_of_worship,building:church,denomination:pentecostal,phone:+55 62 3261-4425,religion:christian,service_times:Su 18:00,website:mvn.org.br,wheelchair:limited","lat":-16.62117,"lng":-49.28639},{"id":"7946433349","name":"Escola Lua de Cristal","tags":"amenity:school,email:luadecristaescola@gmail.com,isced:level:1;2,operator:type:private,phone:+55 62 3210-7806,website:https://www.escolaluadecristal.com.br/,wheelchair:yes","lat":-16.62047,"lng":-49.28654},{"id":"7951188663","name":"Academia Thor Fitness","tags":"addr:street:Avenida Genésio de Lima Brito,leisure:fitness_centre,opening_hours:Mo-Sa 06:00-23:00,phone:+55 62 3924-1566","lat":-16.621131,"lng":-49.2864902}]