[{"id":"2547381546","name":"Droga Raia","tags":"addr:housenumber:820,addr:street:Avenida T-7,amenity:pharmacy,brand:Droga Raia,brand:wikidata:Q10357101,brand:wikipedia:pt:RaiaDrogasil,healthcare:pharmacy,opening_hours:24/7","lat":-16.692203,"lng":-49.2788394},{"id":"2547381552","name":"Drogasil","tags":"amenity:pharmacy,brand:Drogasil,brand:wikidata:Q5308185,brand:wikipedia:pt:Drogasil,healthcare:pharmacy,wheelchair:yes","lat":-16.6890893,"lng":-49.274603},{"id":"2547381647","name":"Banco do Brasil","tags":"amenity:bank,brand:Banco do Brasil,brand:wikidata:Q610817,brand:wikipedia:en:Banco do Brasil","lat":-16.6914809,"lng":-49.2771076},{"id":"2547381673","name":"Santander","tags":"amenity:bank,brand:Santander,brand:wikidata:Q5835668,brand:wikipedia:en:Santander Bank","lat":-16.6929635,"lng":-49.2791339},{"id":"8011421953","name":"Loterias CAIXA","tags":"amenity:bank","lat":-16.6888865,"lng":-49.2742097},{"id":"4431832489","name":"Instituto Ortopédico de Goiânia - IOG","tags":"addr:city:Goiânia,addr:housenumber:819,addr:postcode:74210-030,addr:street:T-27,amenity:hospital,healthcare:hospital,phone:+55 62 3252 5000,website:https://www.iognet.com.br/","lat":-16.693497,"lng":-49.273961}]