[{"id":"2527222650","name":"Bradesco","tags":"amenity:bank,brand:Bradesco,brand:wikidata:Q806181,brand:wikipedia:en:Banco Bradesco","lat":-16.697814,"lng":-49.2646361},{"id":"2527222654","tags":"amenity:bank","lat":-16.6983486,"lng":-49.2646012},{"id":"2527345029","name":"Itaú","tags":"amenity:bank,brand:Itaú Unibanco,brand:wikidata:Q1424293,brand:wikipedia:pt:Itaú Unibanco","lat":-16.6958333,"lng":-49.2692561},{"id":"2594280404","name":"Escola Internacional de Goiânia","tags":"amenity:school","lat":-16.6952162,"lng":-49.2661456},{"id":"3005005542","name":"ÓRION BUSINESS & HEALTH COMPLEX","tags":"shop:mall","lat":-16.6969365,"lng":-49.2697038},{"id":"4870750121","name":"Restaurante Vegetariano Shèng Yé","tags":"addr:street:Avenida Mutirão,amenity:restaurant,diet:vegetarian:only,name:pt:Restaurante Vegetariano Shèng Yé,opening_hours:Mo-Su 11:00-15:00","lat":-16.6949187,"lng":-49.2716578},{"id":"7951313575","name":"UNIALFA - Unidade Bueno","tags":"addr:housenumber:2600,addr:street:Avenida Mutirão,amenity:school,isced:level:5,operator:type:private,phone:+55 62 3520-9400,website:https://www.unialfa.com.br/,wheelchair:yes","lat":-16.6985858,"lng":-49.2692054},{"id":"8051270692","name":"STUDIO BEAUTY MIX","tags":"addr:city:Goiânia,addr:housenumber:2553, PAV.01, LOJA 50,addr:postcode:74150340,addr:street:Avenida Mutirão,addr:suburb:SETOR MARISTA,air_conditioning:yes,beauty:nails;cosmetics;spa;hair;skin_care;waxing;hair_removal;BARBERSHOP,image:https://www.instagram.com/studiobeauty_mix/,opening_hours:SEGUNDA A SABADO - DAS 9H AS 21H.,shop:beauty,website:https://www.instagram.com/studiobeauty_mix/,wheelchair:yes","lat":-16.6968584,"lng":-49.2700148},{"id":"9936265817","name":"Cão Véio","tags":"amenity:restaurant,name:en:Cão Véio Burger","lat":-16.6987368,"lng":-49.2652557}]