[{"id":"2547381545","name":"Drogaria Santa Marta","tags":"amenity:pharmacy","lat":-16.6716123,"lng":-49.2919809},{"id":"2547381568","tags":"amenity:bank","lat":-16.6684758,"lng":-49.2923435},{"id":"2547381571","tags":"amenity:bank","lat":-16.6692122,"lng":-49.290091},{"id":"2547381578","tags":"amenity:bank","lat":-16.6704469,"lng":-49.2864518},{"id":"2547381583","tags":"amenity:bank","lat":-16.671283,"lng":-49.2928319},{"id":"4831322906","name":"AC Campinas","tags":"addr:city:Goiânia,addr:housenumber:8728,addr:street:Avenida Anhanguera,addr:suburb:Setor Campinas,amenity:post_office,postal_code:74501970","lat":-16.6717088,"lng":-49.2911676},{"id":"5043730321","name":"Hospital Santa Rosa","tags":"addr:housenumber:681,addr:postcode:74525-060,addr:street:Rua Rio Verde,amenity:hospital,name:en:Santa Rosa Hospital,name:pt:Hospital Santa Rosa,opening_hours:24/7,phone:+55 (62) 4008-5533","lat":-16.6714587,"lng":-49.2918884},{"id":"10109962278","name":"Cei Lar Espirita Canuto de Oliveira","tags":"amenity:school","lat":-16.6680941,"lng":-49.2893316},{"id":"10109962279","name":"Escola Estação do Saber","tags":"amenity:school","lat":-16.6689885,"lng":-49.2896629},{"id":"10109965648","name":"Fundação Museu Ornitológico","tags":"tourism:museum","lat":-16.6692068,"lng":-49.2881772},{"id":"10109968457","name":"Caixa Econômica Federal","tags":"amenity:bank,brand:Caixa Econômica Federal,brand:wikidata:Q835283","lat":-16.668874,"lng":-49.2910282},{"id":"10109972399","name":"Escola Evangelica Sheikinah","tags":"amenity:school","lat":-16.6676774,"lng":-49.288065},{"id":"10110228534","name":"Biblioteca Municipal Cora Coralina","tags":"amenity:library","lat":-16.6676093,"lng":-49.2947222},{"id":"10111737725","name":"5ª Delegacia Distrital","tags":"amenity:police","lat":-16.6690047,"lng":-49.2943649}]