[{"id":"3004973901","name":"Supermercado Leve","tags":"shop:supermarket","lat":-16.6703398,"lng":-49.2418324},{"id":"3004973902","name":"Hyper Morita","tags":"shop:supermarket","lat":-16.6701776,"lng":-49.2410671},{"id":"3004990148","name":"Abruzzo","tags":"amenity:restaurant,cuisine:italian","lat":-16.6670993,"lng":-49.2448938},{"id":"6370982554","name":"Banco Bradesco","tags":"addr:street:5ª Avenida,amenity:bank,atm:yes","lat":-16.6662667,"lng":-49.2451805},{"id":"6844846894","name":"IEG","tags":"addr:city:Goiânia,addr:street:Avenida Anhanguera,amenity:school,operator:Governo de Goiás","lat":-16.6695622,"lng":-49.2428451},{"id":"7813892067","name":"Universitária","tags":"addr:city:Goiânia,addr:state:GO,amenity:bus_station,description:Estação de BRT,public_transport:platform","lat":-16.670556,"lng":-49.243158},{"id":"10111990030","name":"Instituto de Artes Veiga Vale IEG","tags":"amenity:university","lat":-16.6692975,"lng":-49.2436074}]