[{"id":"2934842124","name":"Caixa Econômica Federal","tags":"amenity:bank","lat":-16.4079863,"lng":-49.2217669},{"id":"2934842125","name":"AC Nerópolis","tags":"addr:city:Nerópolis,addr:housenumber:1400,addr:postcode:75469-970,addr:street:Avenida Juscelino Kubitschek,addr:suburb:Setor Central,amenity:post_office,opening_hours:Mo-Fr 08:00-16:00","lat":-16.4080164,"lng":-49.2199669},{"id":"4642415892","name":"Colegio Estadual Dr Negreiros","tags":"amenity:school,name:pt:Colegio Estadual Dr Negreiros","lat":-16.4073708,"lng":-49.2204639},{"id":"4642420791","tags":"amenity:bar","lat":-16.4028994,"lng":-49.2240062},{"id":"4642420998","name":"Sao Francisco de assis","tags":"amenity:school,name:pt:Sao Francisco de assis","lat":-16.4027494,"lng":-49.2235941},{"id":"6396649997","name":"Banco do Brasil","tags":"amenity:bank,brand:Banco do Brasil,brand:wikidata:Q610817,brand:wikipedia:en:Banco do Brasil","lat":-16.4075027,"lng":-49.218859}]