[{"id":"6883358515","name":"Colégio municipal Monteiro Lobato","tags":"amenity:school","lat":-16.0858612,"lng":-48.0625198},{"id":"6883358517","name":"supermercado bezerra","tags":"operator:Daniel,payment:cards:yes,payment:debit_cards:yes,payment:mastercard:yes,payment:visa:yes,shop:supermarket","lat":-16.0864521,"lng":-48.0626549},{"id":"6883358525","name":"Supermercado Real","tags":"shop:supermarket","lat":-16.0849077,"lng":-48.0646324},{"id":"6883358537","name":"Drogaria Oliveira","tags":"amenity:pharmacy,dispensing:yes,healthcare:pharmacy","lat":-16.0843966,"lng":-48.0637664},{"id":"6893160715","name":"Posto 24 horas lunabel","tags":"amenity:hospital,healthcare:hospital","lat":-16.0883115,"lng":-48.0618371},{"id":"6893240966","name":"Salão do Arlen","tags":"shop:beauty","lat":-16.0874957,"lng":-48.0651071}]