[{"id":"2579649273","name":"Bar do Maradona","tags":"amenity:bar","lat":-16.0254898,"lng":-48.0764847},{"id":"2579649452","name":"Divipan","tags":"amenity:restaurant,phone:+55 61 3201 7493","lat":-16.026886,"lng":-48.0771751},{"id":"2579649474","name":"Drogaria Marcos Farma","tags":"amenity:pharmacy,dispensing:no","lat":-16.0284672,"lng":-48.081295},{"id":"2579649490","name":"Drogaria São Sebastião","tags":"amenity:pharmacy,dispensing:no","lat":-16.0255318,"lng":-48.0764198},{"id":"2579649724","name":"Hause Beer","tags":"amenity:bar,phone:+55 61 3041 6772","lat":-16.02753,"lng":-48.0810697},{"id":"2579649787","name":"Jerson Bar","tags":"amenity:bar","lat":-16.0281048,"lng":-48.0818329},{"id":"2579649872","name":"Mercadinho Santo Expedito","tags":"shop:supermarket","lat":-16.0263314,"lng":-48.0782822},{"id":"2579649918","name":"Olho D Água","tags":"shop:supermarket","lat":-16.0283801,"lng":-48.081914},{"id":"2579650010","name":"Praça 2 Setor Sul Gama","tags":"leisure:park","lat":-16.0255394,"lng":-48.0768814},{"id":"2579650037","name":"Recanto Mineiro","tags":"amenity:bar","lat":-16.0287209,"lng":-48.0816193},{"id":"2579650361","name":"Supermercado Alicerce","tags":"shop:supermarket","lat":-16.028162,"lng":-48.0818939},{"id":"2579650382","name":"Supermercado da Casa","tags":"shop:supermarket","lat":-16.0284756,"lng":-48.0814757},{"id":"2579650596","tags":"leisure:stadium","lat":-16.0256367,"lng":-48.0798187}]