[{"id":"1327039403","tags":"amenity:school","lat":-15.8766722,"lng":-48.0807326},{"id":"2587337999","name":"Armarinho e Papelaria- Laços e Fitas","tags":"amenity:library,phone:+55 61 3458  5608","lat":-15.8757087,"lng":-48.0805878},{"id":"2587338130","name":"BRB","tags":"addr:city:Samambaia,amenity:bank,phone:+55 61 3458 6696","lat":-15.876455,"lng":-48.0806598},{"id":"2587338189","name":"Restaurante e Lanchonete Aconchego","tags":"amenity:restaurant","lat":-15.8759529,"lng":-48.0813956},{"id":"2587338197","name":"Schincariol- Destribuidora de Bebidas Rio Preto","tags":"amenity:bar","lat":-15.8762318,"lng":-48.08569},{"id":"6456394265","name":"Lotérica","tags":"amenity:bank,atm:no,operator:Caixa","lat":-15.8770431,"lng":-48.0854519},{"id":"6466535789","name":"Centro comunitário","tags":"leisure:park","lat":-15.8765345,"lng":-48.0822423},{"id":"6466556244","name":"Farmacity","tags":"amenity:pharmacy,brand:Farmacity,brand:wikidata:Q5856076,brand:wikipedia:es:Farmacity,dispensing:yes,healthcare:pharmacy,operator:Drogaria Sampaio","lat":-15.8763534,"lng":-48.0804508},{"id":"6466556246","name":"Pizzaria Brasil 21","tags":"amenity:restaurant,cuisine:pizza;burger","lat":-15.8763122,"lng":-48.0801228},{"id":"6970030016","name":"FK Pizzaria","tags":"amenity:restaurant,cuisine:pizza","lat":-15.8771582,"lng":-48.0764382},{"id":"8454962143","name":"Bluefit","tags":"leisure:fitness_centre","lat":-15.8760383,"lng":-48.0815476},{"id":"9021435703","name":"Evolve Samambaia Q 302","tags":"addr:city:Samambaia,addr:postcode:72300-647,addr:street:Quadra 302 Conjunto 9,addr:suburb:Samambaia Sul,leisure:fitness_centre,name:pt:Evolve Samambaia,sport:fitness,website:https://www.academiaevolve.com.br/samambaia-df","lat":-15.8781981,"lng":-48.0869142}]