[{"id":"4428667375","name":"Taypá Sabores Del Perú","tags":"addr:city:Lago Sul,addr:street:SHIS QI 17 - Edifício Fashion Park,addr:suburb:Lago Sul,amenity:restaurant,cuisine:peruvian,phone:+55 61 3248 0403","lat":-15.8605302,"lng":-47.8724118},{"id":"4428667376","name":"Americanas Express - Blockbuster","tags":"addr:city:Lago Sul,addr:street:SHIS QI 17 - Edifício Fashion Park,addr:suburb:Lago Sul,opening_hours:08:30-22:30,operator:Lojas Americanas,shop:convenience","lat":-15.8603948,"lng":-47.8722654},{"id":"4428667377","name":"Pizza César","tags":"addr:city:Lago Sul,addr:street:SHIS QI 17 - Edifício Fashion Park,addr:suburb:Lago Sul,amenity:restaurant,cuisine:pizza,opening_hours:16:00-23:30,phone:+55 61 3364 0191","lat":-15.8606601,"lng":-47.8724722},{"id":"4428667378","name":"Tokio","tags":"addr:city:Lago Sul,addr:street:SHIS QI 17 - Edifício Fashion Park,addr:suburb:Lago Sul,amenity:restaurant,cuisine:japanese,phone:+55 61 3248 2009,takeaway:yes","lat":-15.8605844,"lng":-47.8724767},{"id":"4428667379","name":"Correios","tags":"addr:city:Lago Sul,addr:street:SHIS QI 17 - Edifício Fashion Park,addr:suburb:Lago Sul,amenity:post_office,opening_hours:09:00-17:00,operator:Correios","lat":-15.8604602,"lng":-47.8723406},{"id":"4428668721","tags":"leisure:sports_centre,opening_hours:24/7","lat":-15.8602926,"lng":-47.8716313}]