[{"id":"2348619954","name":"Amsterdam","tags":"amenity:bar","lat":-15.8380944,"lng":-48.0323218},{"id":"2709744111","name":"Polícia Militar PCS 094","tags":"amenity:police","lat":-15.8375546,"lng":-48.0381362},{"id":"3081146723","tags":"amenity:parking","lat":-15.8391191,"lng":-48.0341977},{"id":"4260301891","name":"Restaurante e Bar Manatí","tags":"amenity:restaurant,website:facebook.com/restaurantemanati","lat":-15.8369102,"lng":-48.0411911},{"id":"4978410821","name":"Ramallah hookah lounge","tags":"amenity:bar,name:pt:Ramallar hookah lounge","lat":-15.8379127,"lng":-48.0327477},{"id":"5061215049","name":"Drogafuji","tags":"amenity:pharmacy","lat":-15.8394694,"lng":-48.0383085},{"id":"5984262759","name":"Drogaria Fuji","tags":"amenity:pharmacy","lat":-15.8374424,"lng":-48.0327377},{"id":"7148911139","name":"Big Box","tags":"shop:supermarket","lat":-15.8372479,"lng":-48.032444},{"id":"9131022752","name":"Colégio Ideal","tags":"amenity:school,isced:level:2,operator:type:private","lat":-15.8404764,"lng":-48.0374038}]