[{"id":"6517698304","name":"Bradesco Prime","tags":"addr:city:Brasília,addr:suburb:Taguatinga - DF,air_conditioning:yes,amenity:bank,atm:yes,level:2,wheelchair:yes","lat":-15.833433,"lng":-48.0549961},{"id":"6638640007","name":"Correios","tags":"addr:city:Brasília,addr:street:C7,addr:suburb:Taguatinga - DF,amenity:post_office,brand:Correios,brand:wikidata:Q3375004,brand:wikipedia:en:Correios,internet_access:no,website:http://www.correios.com.br/,wheelchair:yes","lat":-15.8316686,"lng":-48.0554967},{"id":"6975422975","name":"Centro de Ensino Médio EIT","tags":"amenity:school","lat":-15.8325716,"lng":-48.0591008},{"id":"9553294179","name":"Pró Vida","tags":"addr:city:Brasília,addr:housenumber:01/02,addr:street:Avenida Central Loja 2A/2B,addr:suburb:Taguatinga - DF,amenity:pharmacy,dispensing:yes,drive_through:no,healthcare:pharmacy,opening_hours:covid19:same,wheelchair:limited","lat":-15.8334923,"lng":-48.0554198},{"id":"9553294180","name":"Santa Marta","tags":"addr:city:Brasília,addr:housenumber:Lt 5,addr:street:Avenida Central,addr:suburb:Taguatinga - DF,amenity:pharmacy,dispensing:yes,healthcare:pharmacy,opening_hours:covid19:same,wheelchair:limited","lat":-15.8336073,"lng":-48.0556664},{"id":"9553294181","name":"Drogasil","tags":"addr:city:Brasília,addr:street:Avenida Central,addr:suburb:Taguatinga - DF,amenity:pharmacy,brand:Drogasil,dispensing:yes,healthcare:pharmacy,not:brand:wikidata:Q5308185,wheelchair:limited","lat":-15.8336318,"lng":-48.0557561},{"id":"9712804563","name":"Levin","tags":"addr:city:Brasília,addr:street:Avenida Comercial Sul,addr:suburb:Taguatinga - DF,amenity:restaurant,cuisine:regional,wheelchair:yes","lat":-15.8355117,"lng":-48.056679},{"id":"9712804565","name":"Drogaria Rosário","tags":"addr:city:Brasília,addr:street:Avenida Comercial Sul,addr:suburb:Taguatinga - DF,amenity:pharmacy,dispensing:yes,healthcare:pharmacy","lat":-15.834881,"lng":-48.056805},{"id":"9712804566","name":"Drogaria Fátima","tags":"addr:city:Brasília,addr:street:Avenida Comercial Sul,addr:suburb:Taguatinga - DF,amenity:pharmacy,dispensing:yes,healthcare:pharmacy","lat":-15.8349865,"lng":-48.0567784},{"id":"9752167374","name":"Drogaria Popular do Trabalhador","tags":"addr:city:Brasília,addr:housenumber:Lote 9 Loja 2,addr:postcode:72015-010,addr:street:Avenida Comercial Sul / QSA 1,addr:suburb:Taguatinga Sul - DF,amenity:pharmacy,dispensing:yes,healthcare:pharmacy","lat":-15.8354991,"lng":-48.0562025}]