[{"id":"2294768802","name":"Agência de Correios Ceilândia Centro","tags":"addr:city:Ceilândia,addr:postcode:72225971,amenity:post_office","lat":-15.8209774,"lng":-48.1136796},{"id":"2294769893","name":"Supermercado Tatico","tags":"addr:city:Ceilânda,shop:supermarket","lat":-15.8211817,"lng":-48.1139169},{"id":"2580042953","name":"BRB","tags":"addr:place:Ceilândia Centro,amenity:bank","lat":-15.8229703,"lng":-48.11392},{"id":"2580042960","name":"Banco do Brasil","tags":"amenity:bank,brand:Banco do Brasil,brand:wikidata:Q610817,brand:wikipedia:en:Banco do Brasil","lat":-15.8208559,"lng":-48.1121566},{"id":"2580042963","name":"Barriga Cheia","tags":"amenity:restaurant","lat":-15.8228797,"lng":-48.1138304},{"id":"2580042976","name":"Bradesco","tags":"amenity:bank,brand:Bradesco,brand:wikidata:Q806181,brand:wikipedia:en:Banco Bradesco","lat":-15.8210395,"lng":-48.1107635},{"id":"2580042979","name":"Bradesco","tags":"amenity:bank","lat":-15.8235729,"lng":-48.1166538},{"id":"2580043033","name":"Caixa Econômica Federal","tags":"addr:place:Ceilândia Centro,amenity:bank,brand:Caixa Econômica Federal,brand:wikidata:Q835283,brand:wikipedia:pt:Caixa Econômica Federal","lat":-15.8227961,"lng":-48.1137695},{"id":"2580043719","name":"Nostra Pizza","tags":"addr:place:Ceilândia,amenity:restaurant,cuisine:pizza,phone:+55 61 3471 1500","lat":-15.820481,"lng":-48.1097397},{"id":"2580043722","name":"Nucleo de Práticas Jurídicas da UNB de Ceilândia","tags":"amenity:school","lat":-15.8211861,"lng":-48.1133097},{"id":"2580043772","name":"Policia Militar - PCS 105","tags":"amenity:police","lat":-15.822159,"lng":-48.1125361},{"id":"8534361748","name":"Ceilândia Centro","tags":"operator:Metrô-DF,public_transport:station,railway:station,station:subway,subway:yes,wikidata:Q10275639,wikipedia:en:Ceilândia Centro station","lat":-15.8222783,"lng":-48.11191}]