[{"id":"1721481352","name":"Escola Aplicação","tags":"amenity:school,phone:+55 61 3361 0813","lat":-15.7876428,"lng":-47.9367737},{"id":"2435206553","tags":"shop:supermarket","lat":-15.7913059,"lng":-47.9358798},{"id":"2702878523","name":"Drogaria Brasil","tags":"amenity:pharmacy,dispensing:yes,healthcare:pharmacy","lat":-15.7910326,"lng":-47.9361294},{"id":"2716265661","name":"Polícia Militar - PCS 032","tags":"amenity:police,phone:+55 61 3910 1032","lat":-15.7913814,"lng":-47.9378078},{"id":"2732090501","name":"Caixa econômica","tags":"addr:street:CLSW 504,amenity:bank","lat":-15.7914582,"lng":-47.9354615},{"id":"5144122722","name":"Drogaria Popular","tags":"amenity:pharmacy,healthcare:pharmacy","lat":-15.7876511,"lng":-47.9404129},{"id":"7482814057","name":"Bar da Portela","tags":"amenity:bar,brewery:no,opening_hours:Mo-Su 10:00-23:59,opening_hours:covid19:off","lat":-15.7910912,"lng":-47.9358362}]