[{"id":"1532860297","name":"Banco24Horas","tags":"amenity:atm,brand:Banco24Horas,brand:wikidata:Q4854069,brand:wikipedia:pt:Banco24Horas,operator:Banco 24Horas","lat":-15.7798716,"lng":-47.8745687},{"id":"1532860307","name":"Supren Verda","tags":"addr:street:CLN 203,amenity:restaurant,diet:vegan:only","lat":-15.7772526,"lng":-47.8779342},{"id":"1533007305","name":"Molho de Tomate","tags":"addr:street:CLN 204,amenity:restaurant,cuisine:pizza","lat":-15.7767845,"lng":-47.8779668},{"id":"1533007308","name":"Drogaria Colorado","tags":"addr:street:CLN 204,amenity:pharmacy","lat":-15.7770509,"lng":-47.8777968},{"id":"2678830159","name":"Bar do Mané Rei das Codornas","tags":"addr:street:CLN 403,amenity:bar","lat":-15.7797989,"lng":-47.87502},{"id":"2678830198","name":"Só Drinks Bar dos Botafoguenses","tags":"addr:street:CLN 403,amenity:bar","lat":-15.7798334,"lng":-47.8753981},{"id":"2691239238","name":"Algos Pizza e Bar","tags":"addr:place:Asa Norte,addr:street:CLN 403,amenity:restaurant,cuisine:pizza","lat":-15.779773,"lng":-47.875197},{"id":"2691239537","name":"Self-service Calamares","tags":"addr:place:Asa Norte,addr:street:CLN 403,amenity:restaurant,cuisine:seafood","lat":-15.7798366,"lng":-47.8757577},{"id":"2691239542","name":"Armazém do livro","tags":"addr:place:Asa Norte,addr:street:CLN 402,cuisine:steak_grill,shop:books","lat":-15.7802223,"lng":-47.8759199},{"id":"3093838425","name":"Candy House","tags":"addr:street:CLN 204,amenity:cafe,wheelchair:yes","lat":-15.7770943,"lng":-47.878313},{"id":"3222516879","name":"Drogaria Renata","tags":"amenity:pharmacy,healthcare:pharmacy","lat":-15.7798379,"lng":-47.8755113},{"id":"3222518081","name":"Forninho Mineiro","tags":"amenity:restaurant","lat":-15.7801718,"lng":-47.874984},{"id":"3489909451","tags":"amenity:library","lat":-15.7770455,"lng":-47.8736019},{"id":"3489909453","tags":"tourism:museum","lat":-15.7770474,"lng":-47.873648},{"id":"3665207479","name":"Drogasil","tags":"amenity:pharmacy,opening_hours:Mo-Su 08:00-22:00","lat":-15.7768131,"lng":-47.8783276},{"id":"3665209626","name":"Vasco Neto","tags":"leisure:sports_centre","lat":-15.7767084,"lng":-47.8781635},{"id":"4486870691","name":"Pimenta de Cheiro","tags":"amenity:restaurant,name:pt:Pimenta de Cheiro","lat":-15.7765875,"lng":-47.8777892},{"id":"4640501865","name":"Cantucci Bistrô","tags":"amenity:restaurant,cuisine:mediterranean,diet:vegetarian:yes,opening_hours:Mo-Sa 12:00-23:00,website:http://cantucci.com.br","lat":-15.7796175,"lng":-47.8752157},{"id":"5460278324","name":"Reiko Sushi","tags":"amenity:restaurant","lat":-15.7801077,"lng":-47.8751995},{"id":"5460348921","name":"Drogarias Pacheco","tags":"amenity:pharmacy,healthcare:pharmacy","lat":-15.780135,"lng":-47.8754221},{"id":"5461937240","name":"Colorado","tags":"amenity:pharmacy,healthcare:pharmacy","lat":-15.7798627,"lng":-47.8761607},{"id":"5461939620","name":"Nutrivida","tags":"amenity:restaurant,phone:+55 61 3328 1404","lat":-15.7798218,"lng":-47.8759517},{"id":"5461940621","name":"Tiborna","tags":"addr:housenumber:Loja 25,amenity:bar","lat":-15.7797746,"lng":-47.8761658},{"id":"5516193375","name":"Efficace Depilação","tags":"shop:beauty","lat":-15.7797916,"lng":-47.8750951},{"id":"5516193376","name":"Chaminé","tags":"amenity:restaurant","lat":-15.7802082,"lng":-47.8766556},{"id":"5516193379","name":"Tribo de Patas","tags":"shop:pet","lat":-15.7801831,"lng":-47.8762535},{"id":"5516193380","name":"Não + Pelo","tags":"shop:beauty","lat":-15.7799,"lng":-47.8766816},{"id":"6268072912","name":"Nova América","tags":"amenity:pharmacy,healthcare:pharmacy","lat":-15.7801792,"lng":-47.8762076},{"id":"6268072918","name":"Medicare","tags":"amenity:pharmacy,healthcare:pharmacy","lat":-15.7801325,"lng":-47.8757912},{"id":"6268073254","name":"Aroma do Sul","tags":"amenity:restaurant","lat":-15.7797023,"lng":-47.8763347},{"id":"6450416026","name":"Menu Restô","tags":"amenity:restaurant","lat":-15.7803423,"lng":-47.8759175},{"id":"6450416027","name":"Pizza Swap","tags":"amenity:restaurant","lat":-15.7803331,"lng":-47.8758513},{"id":"6450416155","name":"Nossa Cozinha","tags":"amenity:restaurant","lat":-15.7803307,"lng":-47.8757382},{"id":"8022670065","name":"Caminito Parrilla Asa Norte","tags":"addr:city:Brasília,addr:postcode:70256-190,addr:street:CLN 402/403,addr:suburb:Asa Norte,amenity:restaurant,cuisine:Argentina;parrilla,phone:+556139630820,website:https://www.caminitoparrilla.com.br/","lat":-15.7798113,"lng":-47.8755818},{"id":"10689018088","name":"Origen Bar","tags":"addr:city:Brasília,addr:housenumber:37,addr:postcode:70833-530,addr:street:CLN 203 Bloco C Loja,addr:suburb:Asa Norte,amenity:bar,brewery:various","lat":-15.7772888,"lng":-47.8783154}]