[{"id":"2691204482","name":"Cooplem Idiomas","tags":"amenity:school","lat":-15.7558357,"lng":-47.8943113},{"id":"3046629992","name":"Educandário José de Alencar","tags":"amenity:school","lat":-15.7545838,"lng":-47.896793},{"id":"3051977281","name":"Amor à Torta","tags":"amenity:cafe,internet_access:no,opening_hours:Mo-Fr 07:30-19:30; Sa 08:00-18:00,wheelchair:yes","lat":-15.7567262,"lng":-47.8913837},{"id":"3051977285","name":"Cultura Inglesa","tags":"amenity:school,level:-1,training:language","lat":-15.7568857,"lng":-47.8915757},{"id":"3051977286","name":"Drogasil","tags":"amenity:pharmacy,brand:Drogasil,brand:wikidata:Q5308185,brand:wikipedia:pt:Drogasil,dispensing:yes,healthcare:pharmacy,opening_hours:Mo-Su 07:00-23:00,wheelchair:yes","lat":-15.7565415,"lng":-47.8917734},{"id":"3051977291","name":"Run Way","tags":"leisure:sports_centre","lat":-15.7577874,"lng":-47.8946931},{"id":"3054560050","name":"Delicius","tags":"amenity:restaurant","lat":-15.7575376,"lng":-47.8954683},{"id":"3080363009","name":"Pague Menos","tags":"amenity:pharmacy,brand:Pague Menos,brand:wikidata:Q7124466,brand:wikipedia:pt:Pague Menos,healthcare:pharmacy,wheelchair:yes","lat":-15.7560999,"lng":-47.8903259},{"id":"3199177013","name":"HSBC","tags":"amenity:bank,atm:yes","lat":-15.755712,"lng":-47.8932526},{"id":"3238790127","name":"Amor à Natureza","tags":"addr:postcode:70756-510,addr:street:CLN 310,amenity:restaurant,diet:vegetarian:only,opening_hours:Mo-Sa 11:00-15:30,17:00-20:00,phone:+55 61 32722055,website:http://amoranatureza.com.br/,wheelchair:yes","lat":-15.7565563,"lng":-47.8902655},{"id":"3324092861","name":"D'Vilella","tags":"amenity:cafe,internet_access:wlan,wheelchair:yes","lat":-15.756386,"lng":-47.8903219},{"id":"3324092862","name":"World Gym","tags":"leisure:sports_centre","lat":-15.7556128,"lng":-47.8930255},{"id":"3426187038","name":"Forno Benedetto","tags":"amenity:restaurant,cuisine:pizza","lat":-15.7564473,"lng":-47.8914721},{"id":"3569301599","name":"Aqua 710","tags":"addr:postcode:70750-640,leisure:sports_centre,phone:+55 61 30361096,sport:swimming,website:http://www.aqua710.com.br","lat":-15.7579764,"lng":-47.8951924},{"id":"3615530744","name":"Primata Escalada","tags":"leisure:sports_centre","lat":-15.7573109,"lng":-47.8938225},{"id":"3686855645","name":"Club Grill","tags":"amenity:restaurant","lat":-15.7564177,"lng":-47.8936362},{"id":"3801312994","name":"Brasil Central","tags":"amenity:restaurant","lat":-15.75606,"lng":-47.8908355},{"id":"3801312998","name":"HerbaMater Farmácia de Manipulação","tags":"amenity:pharmacy,dispensing:no,healthcare:pharmacy","lat":-15.7564045,"lng":-47.8913229},{"id":"3801312999","name":"Filé & Tal Express","tags":"amenity:restaurant","lat":-15.7562128,"lng":-47.8914496},{"id":"3801313006","name":"5 Estrelas","tags":"shop:beauty,wheelchair:yes","lat":-15.756753,"lng":-47.8907938},{"id":"3801313008","name":"Mariah Coiffeur","tags":"shop:beauty,wheelchair:yes","lat":-15.7566781,"lng":-47.890615},{"id":"3801328297","name":"Belíssima","tags":"shop:beauty,wheelchair:yes","lat":-15.7563436,"lng":-47.8902058},{"id":"3801328298","name":"La Belle","tags":"shop:beauty,wheelchair:yes","lat":-15.7566252,"lng":-47.8904225},{"id":"3801328302","name":"Fujini","tags":"shop:beauty,wheelchair:yes","lat":-15.7564652,"lng":-47.8906652},{"id":"3801328303","name":"Star","tags":"shop:beauty,wheelchair:yes","lat":-15.7565065,"lng":-47.8906947},{"id":"3801328306","name":"Restaurante Careca","tags":"amenity:restaurant,cuisine:chinese,wheelchair:partial","lat":-15.756844,"lng":-47.8911202},{"id":"3801328308","name":"Manjericão","tags":"amenity:restaurant,wheelchair:yes","lat":-15.7569595,"lng":-47.8914927},{"id":"3801328309","name":"Franck Rodrigues","tags":"shop:beauty,wheelchair:yes","lat":-15.7569078,"lng":-47.8917351},{"id":"3801328316","name":"Bicho Bacana","tags":"shop:pet","lat":-15.7561076,"lng":-47.8909723},{"id":"3802074756","tags":"amenity:car_wash","lat":-15.7555353,"lng":-47.8900785},{"id":"4173640139","name":"Tok Mágico","tags":"phone:+556133401716,shop:beauty,wheelchair:yes","lat":-15.7570114,"lng":-47.8917164},{"id":"4293705424","name":"Escola Teatral Confins-Artísticos","tags":"amenity:school,short_name:E.T.C.A","lat":-15.756197,"lng":-47.8941769},{"id":"4293789936","name":"Hora do Rango","tags":"amenity:restaurant","lat":-15.755735,"lng":-47.8941325},{"id":"4293790610","name":"Saborear","tags":"amenity:restaurant","lat":-15.7560658,"lng":-47.8940356},{"id":"4398009627","name":"You Move","tags":"amenity:school,training:language,website:http://www.youmove.com.br/","lat":-15.7577129,"lng":-47.8943021},{"id":"4781714279","name":"Empório Naturalle","tags":"shop:convenience","lat":-15.7564584,"lng":-47.890612},{"id":"5014529836","name":"Tai Crossfit","tags":"leisure:fitness_centre,sport:crossfit","lat":-15.758706,"lng":-47.8966543},{"id":"5357918721","name":"Cristal Fit","tags":"leisure:fitness_centre,level:2","lat":-15.7564152,"lng":-47.8917545},{"id":"5404040340","name":"Big Box","tags":"level:-1,shop:supermarket,wheelchair:yes","lat":-15.7566281,"lng":-47.8908254},{"id":"6197876464","name":"Estação 40","tags":"amenity:restaurant","lat":-15.7594327,"lng":-47.8931124},{"id":"6197905727","name":"Cantinho Mineiro","tags":"amenity:restaurant","lat":-15.7596716,"lng":-47.892802},{"id":"6197905729","name":"Speciale","tags":"amenity:restaurant","lat":-15.7594974,"lng":-47.8930905},{"id":"6403073788","name":"Same Same","tags":"amenity:restaurant","lat":-15.7552,"lng":-47.8943133},{"id":"6403073792","tags":"amenity:parking","lat":-15.7550342,"lng":-47.8944107},{"id":"10069904409","tags":"amenity:parking","lat":-15.7565821,"lng":-47.8973379},{"id":"10069904410","tags":"amenity:parking","lat":-15.7563379,"lng":-47.8975149}]