[{"id":"830609255","name":"Café Sincera","tags":"amenity:cafe,smoking:no","lat":-15.7526149,"lng":-47.8900512},{"id":"830609256","name":"Polícia Militar - PCS 060","tags":"addr:street:SQN 312,amenity:police","lat":-15.7522517,"lng":-47.8912774},{"id":"1327076074","name":"Pra Você","tags":"level:-1,opening_hours:Mo-Sa 07:00-21:00; Su 08:00-20:00,shop:supermarket,wheelchair:yes","lat":-15.7530702,"lng":-47.8902783},{"id":"1327084081","tags":"amenity:parking","lat":-15.7539481,"lng":-47.8895559},{"id":"3041667395","name":"D'Vilela Restaurante e Café","tags":"amenity:restaurant","lat":-15.7517489,"lng":-47.8951421},{"id":"3041670125","name":"Drogaria Rosário","tags":"amenity:pharmacy,dispensing:yes,healthcare:pharmacy","lat":-15.7506083,"lng":-47.8937613},{"id":"3050929539","name":"Bradesco","tags":"amenity:atm,operator:Bradesco,wheelchair:yes","lat":-15.7507318,"lng":-47.8942458},{"id":"3068177639","name":"BSB Musical","tags":"amenity:school,training:music","lat":-15.7517793,"lng":-47.8972958},{"id":"3068180533","name":"SmartFit","tags":"leisure:sports_centre","lat":-15.7517225,"lng":-47.8970824},{"id":"3093840346","name":"Caixa","tags":"amenity:atm,operator:Caixa,wheelchair:yes","lat":-15.7507833,"lng":-47.8942256},{"id":"3100449800","name":"Skapino","tags":"amenity:restaurant","lat":-15.7494576,"lng":-47.8959689},{"id":"3113918738","name":"Carne de Sol 712","tags":"amenity:restaurant,cuisine:regional,outdoor_seating:yes,phone:+55 61 32723135","lat":-15.7529545,"lng":-47.8947868},{"id":"3114667627","tags":"amenity:atm,operator:Banco 24 Horas,wheelchair:yes","lat":-15.750577,"lng":-47.8943262},{"id":"3139340375","name":"Carrefour Bairro","tags":"entrance:main,shop:supermarket","lat":-15.7506016,"lng":-47.8942624},{"id":"3200842311","name":"Drogaria Rosário","tags":"amenity:pharmacy,dispensing:yes,healthcare:pharmacy","lat":-15.750226,"lng":-47.8924945},{"id":"3200842312","name":"Armazém do Silveira","tags":"amenity:restaurant","lat":-15.750277,"lng":-47.8926628},{"id":"3200842313","name":"La Fornicella","tags":"amenity:restaurant,cuisine:pizza","lat":-15.750439,"lng":-47.8926383},{"id":"3451223465","name":"Concreto Coffee Crew","tags":"addr:street:CLN 111,amenity:cafe,cuisine:coffee_shop,internet_access:yes,internet_access:fee:no,opening_hours:Mo-Sa 13:00-20:00,outdoor_seating:yes,website:https://www.instagram.com/concretocoffee/","lat":-15.7530174,"lng":-47.889783},{"id":"3451247096","name":"Academia Vasco Neto","tags":"leisure:sports_centre","lat":-15.7529363,"lng":-47.8894343},{"id":"3640980250","name":"Bellator","tags":"addr:street:CLN 111,amenity:restaurant","lat":-15.7529899,"lng":-47.8896976},{"id":"3640980251","tags":"amenity:atm,drive_through:no,level:-1,operator:Banco 24 Horas,wheelchair:yes","lat":-15.7531172,"lng":-47.8902637},{"id":"4026913854","name":"Lagash Mediterranée","tags":"amenity:restaurant,cuisine:mediterranean","lat":-15.7525826,"lng":-47.8899981},{"id":"4026913857","name":"Drogaria Rosário","tags":"amenity:pharmacy,dispensing:yes,healthcare:pharmacy","lat":-15.75272,"lng":-47.8894381},{"id":"4384322460","name":"Podión","tags":"amenity:school","lat":-15.7541389,"lng":-47.8969986},{"id":"4384323638","name":"Gracie Barra","tags":"leisure:sports_centre","lat":-15.7517033,"lng":-47.8969903},{"id":"4513686889","name":"Curso de Italiano Dante Alighieri","tags":"amenity:school,name:pt:Curso de Italiano Dante Alighieri","lat":-15.7524959,"lng":-47.894924},{"id":"4555500044","name":"Empório Cultural","tags":"amenity:school,training:arts,website:http://emporiocultural.net.br","lat":-15.7513644,"lng":-47.8959442},{"id":"4591337312","name":"Rei do Pão de Queijo","tags":"amenity:cafe","lat":-15.7501975,"lng":-47.8933428},{"id":"4591337315","name":"Iaga Arte Café","tags":"amenity:cafe","lat":-15.7499358,"lng":-47.8931995},{"id":"4591337319","tags":"amenity:restaurant","lat":-15.7502837,"lng":-47.8920987},{"id":"4741355027","name":"Tempero de Minas","tags":"amenity:restaurant,name:pt:Tempero de Minas","lat":-15.7524107,"lng":-47.8900908},{"id":"4798737856","name":"Drogasil","tags":"amenity:pharmacy,brand:Drogasil,brand:wikidata:Q5308185,brand:wikipedia:pt:Drogasil,dispensing:yes,healthcare:pharmacy,wheelchair:yes","lat":-15.7503372,"lng":-47.892876},{"id":"5079812932","name":"Fogão Goiano","tags":"amenity:restaurant,cuisine:regional","lat":-15.7512221,"lng":-47.895525},{"id":"5302146840","name":"Slim Esthetic Center","tags":"beauty:nails,shop:beauty","lat":-15.7527446,"lng":-47.8948229},{"id":"5470850733","name":"Sincera","tags":"amenity:cafe","lat":-15.7526191,"lng":-47.8900604},{"id":"5470850737","name":"Blume Esmalteria","tags":"shop:beauty","lat":-15.7530313,"lng":-47.8898813},{"id":"5486741223","name":"Bellavia Supermercados","tags":"shop:supermarket","lat":-15.7500759,"lng":-47.894827},{"id":"5486747824","name":"Drogasil","tags":"amenity:pharmacy,brand:Drogasil,brand:wikidata:Q5308185,brand:wikipedia:pt:Drogasil,dispensing:yes,healthcare:pharmacy,wheelchair:yes","lat":-15.7527612,"lng":-47.8895795},{"id":"7949383205","name":"Amarelinha","tags":"addr:city:Brasília,addr:street:SCRN 712/713, bloco E,amenity:cafe","lat":-15.7518287,"lng":-47.8975325},{"id":"10284945321","name":"Restaurante Beer Club","tags":"amenity:restaurant","lat":-15.7500257,"lng":-47.8957019}]