[{"id":"984930827","name":"5ª DP Polícia Civil SBN","tags":"amenity:police","lat":-15.7884065,"lng":-47.8786165},{"id":"1327038282","tags":"amenity:parking","lat":-15.7893732,"lng":-47.8859701},{"id":"1327038606","tags":"access:yes,amenity:parking","lat":-15.7885912,"lng":-47.8867846},{"id":"2507505846","tags":"access:private,amenity:parking,layer:-1,parking:underground","lat":-15.7887526,"lng":-47.882914},{"id":"2678830184","name":"La Ursa","tags":"amenity:bar,shop:vacant","lat":-15.7883227,"lng":-47.8788346},{"id":"2678864228","name":"Banco do Brasil","tags":"addr:place:Asa Norte,addr:street:Shopping Conjunto Nacional,amenity:bank,atm:yes,brand:Banco do Brasil,brand:wikidata:Q610817,brand:wikipedia:en:Banco do Brasil,level:2,operator:Banco do Brasil,wheelchair:yes","lat":-15.7907609,"lng":-47.8830925},{"id":"2678864233","name":"Caixa Econômica Federal","tags":"addr:place:Asa Norte,addr:street:Shopping Conjunto Nacional,amenity:bank,atm:yes,brand:Caixa Econômica Federal,brand:wikidata:Q835283,brand:wikipedia:pt:Caixa Econômica Federal,wheelchair:yes","lat":-15.791745,"lng":-47.883434},{"id":"2691239431","name":"Espeto de Ouro","tags":"amenity:restaurant,cuisine:barbecue","lat":-15.789495,"lng":-47.886877},{"id":"3033844852","name":"Banco do Brasil","tags":"amenity:atm,brand:Banco do Brasil,brand:wikidata:Q610817,brand:wikipedia:en:Banco do Brasil,operator:Banco do Brasil,operator:wikidata:Q610817,operator:wikipedia:en:Banco do Brasil","lat":-15.7905249,"lng":-47.8865549},{"id":"3874996105","name":"Bradesco","tags":"amenity:bank,atm:yes,brand:Bradesco,brand:wikidata:Q806181,brand:wikipedia:en:Banco Bradesco,wheelchair:yes","lat":-15.7877785,"lng":-47.882538},{"id":"3958863453","name":"Art Café","tags":"amenity:cafe","lat":-15.7877449,"lng":-47.8826614},{"id":"3958864744","name":"Grã-finos","tags":"amenity:restaurant","lat":-15.7877036,"lng":-47.8827338},{"id":"3976168198","name":"Banco de Brasília","tags":"amenity:bank,atm:yes,brand:BRB,brand:wikidata:Q4854119,brand:wikipedia:pt:Banco de Brasília,opening_hours:Mo-Fr 11:00-16:00,wheelchair:yes","lat":-15.7884793,"lng":-47.8827789},{"id":"4081269533","name":"Chateau Brasil","tags":"amenity:cafe","lat":-15.790137,"lng":-47.8849886},{"id":"4081269534","name":"Tribally","tags":"amenity:restaurant","lat":-15.7901856,"lng":-47.88469},{"id":"4081269535","name":"Deli Conveniências","tags":"shop:convenience","lat":-15.7900358,"lng":-47.8849872},{"id":"4081323888","name":"Brasil Vexado","tags":"amenity:restaurant,cuisine:regional,level:0","lat":-15.7907387,"lng":-47.8832682},{"id":"4081333090","name":"Leitura","tags":"alt_name:Livraria Leitura,brand:Leitura,brand:wikidata:Q6176628,brand:wikipedia:pt:Leitura (livraria),shop:books","lat":-15.7917926,"lng":-47.8833119},{"id":"4097119595","tags":"amenity:post_office,operator:Correios,operator:wikidata:Q3375004,operator:wikipedia:en:Correios","lat":-15.7890404,"lng":-47.8832009},{"id":"4099692223","name":"Fatti a Mano","tags":"amenity:restaurant,cuisine:italian","lat":-15.7880104,"lng":-47.8892797},{"id":"4185561281","name":"Caixa Seguradora","tags":"amenity:bank,website:https://www.caixaseguradora.com.br/","lat":-15.7896831,"lng":-47.8845735},{"id":"4791543801","name":"China Construction Bank","tags":"amenity:bank,atm:no,brand:China Construction Bank,brand:wikidata:Q26299,brand:wikipedia:en:China Construction Bank,short_name:CCB","lat":-15.7892587,"lng":-47.8833161},{"id":"4908141129","name":"Gaudi Café","tags":"amenity:cafe,level:2","lat":-15.7906235,"lng":-47.8831845},{"id":"4908141130","name":"Sushi Loko","tags":"amenity:restaurant,cuisine:sushi","lat":-15.7906519,"lng":-47.8832033},{"id":"5416977721","name":"Melbourne Café & Co.","tags":"addr:street:SHN Quadra 1,amenity:cafe,opening_hours:Mo-Fr 08:15-17:30,outdoor_seating:yes,website:http://www.olamelbourne.com.br/","lat":-15.7902403,"lng":-47.8846678},{"id":"5461938950","name":"Bluefit","tags":"leisure:fitness_centre","lat":-15.7877211,"lng":-47.8833139},{"id":"5461940192","name":"Caparriz","tags":"amenity:restaurant","lat":-15.787951,"lng":-47.8833838},{"id":"5461940657","name":"Caixa Econômica Federal","tags":"amenity:bank,brand:Caixa Econômica Federal,brand:wikidata:Q835283,brand:wikipedia:pt:Caixa Econômica Federal","lat":-15.7884221,"lng":-47.8843495},{"id":"6124006703","name":"Metropolitan Mix","tags":"shop:mall","lat":-15.7891689,"lng":-47.886357},{"id":"6792658324","name":"Cantina Mineira","tags":"amenity:restaurant,cuisine:brazilian,level:1,wheelchair:no","lat":-15.7907299,"lng":-47.8858233},{"id":"7010145917","name":"Teatro Nacional","tags":"tourism:attraction","lat":-15.7920848,"lng":-47.8811454},{"id":"9577464680","name":"Starbucks","tags":"amenity:cafe,brand:Starbucks,brand:wikidata:Q37158,brand:wikipedia:en:Starbucks,cuisine:coffee_shop,official_name:Starbucks Coffee,takeaway:yes","lat":-15.79097,"lng":-47.8829693}]