[{"id":"1785424960","name":"Drogaria Rosário","tags":"amenity:pharmacy,dispensing:yes,healthcare:pharmacy","lat":-15.7400346,"lng":-47.893659},{"id":"1935601498","name":"Sagres Restaurante","tags":"alt_name:Cozinha portuguesa,amenity:restaurant,cuisine:portuguese","lat":-15.738296,"lng":-47.8975038},{"id":"2678830201","name":"Tranquilo","tags":"addr:street:CLN 216,amenity:bar","lat":-15.7387053,"lng":-47.8896001},{"id":"2691239500","name":"Nosso Mar","tags":"addr:place:Asa Norte,addr:street:Cln 115,amenity:restaurant,cuisine:seafood","lat":-15.740302,"lng":-47.893398},{"id":"2705908453","name":"Sabor Vital","tags":"addr:street:SCLN 316 Bloco A,amenity:restaurant,diet:vegan:yes,diet:vegetarian:only,opening_hours:Mo-Sa 11:30-15:00,website:http://saborvital.com/","lat":-15.7379226,"lng":-47.8960791},{"id":"3055081898","name":"Salada Cultural","tags":"amenity:restaurant","lat":-15.7388101,"lng":-47.8994993},{"id":"3223541615","name":"Banco do Brasil","tags":"amenity:bank,atm:yes,brand:Banco do Brasil,brand:wikidata:Q610817,brand:wikipedia:en:Banco do Brasil,description:Agência 2727,wheelchair:yes","lat":-15.738012,"lng":-47.8970101},{"id":"3226293515","name":"Gleice Coiffeur","tags":"addr:city:Brasília,addr:housenumber:Loja 10,addr:street:SCLN 116  Bloco D,addr:suburb:Plano Piloto,phone:+55 3347-5789,shop:beauty","lat":-15.7402334,"lng":-47.8943135},{"id":"3334254946","name":"Florisa Café","tags":"amenity:cafe,opening_hours:Mo-Sa 08:00-21:00,phone:+55 61 32028882","lat":-15.7403494,"lng":-47.8929929},{"id":"3438437051","name":"Bendito Benedito","tags":"amenity:restaurant","lat":-15.7405059,"lng":-47.8935116},{"id":"3438437239","name":"Espaço 115","tags":"leisure:sports_centre","lat":-15.7406001,"lng":-47.8937496},{"id":"3438438006","name":"Cantinho Mineiro","tags":"addr:city:Brasília,addr:street:SCLN 316  Bloco D,addr:suburb:Plano Piloto - Asa Norte,air_conditioning:no,amenity:restaurant,bar:no,cuisine:regional,outdoor_seating:yes,payment:cash:yes,payment:coins:yes,payment:credit_cards:yes,payment:debit_cards:yes,phone:+55 61 3036-2914","lat":-15.7382321,"lng":-47.8973132},{"id":"3438438007","name":"Kabana's","tags":"amenity:restaurant","lat":-15.7406081,"lng":-47.8938734},{"id":"3900688549","name":"Santa Grelha","tags":"amenity:restaurant","lat":-15.7432051,"lng":-47.8979176},{"id":"3958104485","name":"O Grego","tags":"amenity:restaurant,cuisine:mediterranean;greek","lat":-15.7388195,"lng":-47.8895027},{"id":"4228651805","name":"Brito's Restaurante","tags":"amenity:restaurant","lat":-15.7393276,"lng":-47.8930524},{"id":"4385405448","name":"Academia Espaço 115","tags":"leisure:sports_centre","lat":-15.740422,"lng":-47.8937208},{"id":"4414460890","name":"Montmartre","tags":"addr:housenumber:Bloco A Lj 82,addr:postcode:70875510,addr:street:CLN 215/216,amenity:restaurant,cuisine:brazilian;french,email:montmartre.restaurante@gmail.com,internet_access:wlan","lat":-15.7388718,"lng":-47.8896715},{"id":"4931098841","name":"Nadarte","tags":"leisure:sports_centre,sport:swimming","lat":-15.7389715,"lng":-47.8999012},{"id":"5856741812","name":"Antonieta","tags":"addr:street:CLRN 716,amenity:cafe,internet_access:yes,internet_access:fee:no,outdoor_seating:yes,shop:tea,smoking:no,website:https://www.instagram.com/antonietacafe","lat":-15.7398592,"lng":-47.8994946},{"id":"5856750259","name":"Salve Café Maravilha","tags":"addr:city:Brasília,addr:housenumber:Loja 46,addr:street:SCLN 116  Bloco B,addr:suburb:Plano Piloto,amenity:cafe,opening_hours:Mo-Fr 14:00-20:30; Sa 14:300-20:30; Su 09:30-12:30,payment:cash:yes,payment:credit_cards:yes,payment:debit_cards:yes,website:https://www.facebook.com/salvecafemaravilha/","lat":-15.7398134,"lng":-47.89356},{"id":"6059039889","tags":"amenity:parking","lat":-15.7427218,"lng":-47.898381},{"id":"6197896220","name":"Banco do Brasil Estilo","tags":"addr:city:Brasília,addr:housenumber:Subsolo,addr:street:SHIN 116 Bloco D,addr:suburb:Plano Piloto,air_conditioning:yes,amenity:bank,atm:yes,cash_withdrawal:currency:yes,drive_through:no,level:-1,operator:Banco Do Brsil","lat":-15.7387284,"lng":-47.8978244},{"id":"6207490144","name":"Spazio Corpore Pilates","tags":"addr:street:CLN 115/116,leisure:fitness_centre,sport:pilates","lat":-15.7398735,"lng":-47.8937028},{"id":"6207490547","name":"Xodó","tags":"amenity:restaurant","lat":-15.7399317,"lng":-47.8939565},{"id":"6549505807","name":"Cobasi","tags":"shop:pet","lat":-15.7385647,"lng":-47.8985661},{"id":"6883306020","name":"Igreja Messiânica","tags":"addr:city:Brasília,addr:postcode:70774-400,addr:street:Asa Norte EQN 315/316,addr:suburb:Asa Norte,tourism:attraction","lat":-15.7407565,"lng":-47.8951473},{"id":"6883410870","name":"Drogaria Fuji","tags":"addr:city:Brasília,addr:street:CLN 116 Bloco A,addr:suburb:Asa Norte,amenity:pharmacy,dispensing:yes,drive_through:no,healthcare:pharmacy,opening_hours:07:00-22:00","lat":-15.7398961,"lng":-47.8931531},{"id":"7252566352","name":"Rede dos Cosméticos","tags":"shop:beauty","lat":-15.7405126,"lng":-47.8987537},{"id":"7252635242","name":"Sicoob","tags":"amenity:bank,brand:Sicoob,brand:wikidata:Q28679754,brand:wikipedia:pt:Sistema de Cooperativas de Crédito do Brasil","lat":-15.7396994,"lng":-47.8983268},{"id":"7252653369","name":"Farmacotécnica","tags":"addr:city:Brasília,addr:housenumber:Lojas 13, 17 e 21,addr:street:SCLN 316  Bloco F,addr:suburb:Plano Piloto - Asa Norte,amenity:pharmacy,drive_through:no,healthcare:pharmacy,level:0,opening_hours:De Segunda a Sexta  das 8:00 à 19:00; aos Sábados  das 8:00 ás 14:00,phone:+55 61 3245-7667,website:https://www.farmacotecnica.com.br,wheelchair:limited","lat":-15.7382866,"lng":-47.8980975},{"id":"7252668710","name":"Novo sabor","tags":"addr:city:Brasília,addr:housenumber:Loja 39,addr:street:SCLN 316  Bloco F,addr:suburb:Plano Piloto - Asa Norte,air_conditioning:no,amenity:restaurant,bar:no,capacity:20,cuisine:regional,delivery:yes,level:0,outdoor_seating:yes,payment:cash:yes,payment:credit_cards:yes,payment:debit_cards:yes,phone:+55 61 98624-8333,takeaway:yes","lat":-15.7385014,"lng":-47.8980357},{"id":"8223909098","name":"Marilda Café","tags":"addr:street:CLRN 716,amenity:cafe,cuisine:coffee_shop;regional,internet_access:yes,internet_access:fee:no,opening_hours:Tu-Fr 12:00-20:00; Sa-Su 09:00-20:00,outdoor_seating:yes,payment:cash:yes,payment:credit_cards:yes,phone:+55 61 2194 7902,website:https://www.instagram.com/marilda_cafe","lat":-15.7406194,"lng":-47.8992532},{"id":"8264154309","name":"Paladar","tags":"amenity:restaurant","lat":-15.7402816,"lng":-47.8991505},{"id":"8322456389","name":"Paula Coelho Pilates","tags":"addr:housenumber:Bloco E Loja 09,leisure:fitness_centre,phone:+55 61 9 9237 5219,sport:pilates","lat":-15.7432696,"lng":-47.8981621},{"id":"8322460834","name":"Aplicada","tags":"phone:+55 61 3349 0399,shop:books","lat":-15.7410204,"lng":-47.8990599},{"id":"8322484576","name":"Tempero Real","tags":"amenity:restaurant,phone:+55 61 9 9673 3382","lat":-15.741878,"lng":-47.8987827},{"id":"8322491945","name":"Duello","tags":"leisure:fitness_centre,phone:+55 61 3541 0896,sport:gymnastics","lat":-15.7415726,"lng":-47.8988917},{"id":"8322494062","name":"Depil Clean","tags":"shop:beauty","lat":-15.7402576,"lng":-47.8932307},{"id":"8322502003","name":"Nova Estação","tags":"amenity:restaurant","lat":-15.7433535,"lng":-47.8983058},{"id":"8322502017","name":"Forno de Minas","tags":"craft:bakery,phone:+55 61 3447 3423","lat":-15.7412277,"lng":-47.8988476},{"id":"9839229430","name":"Cozinha Da Dona Lulu","tags":"addr:city:Brasília,addr:housenumber:Loja 52,addr:street:SCLN 116  Bloco A,addr:suburb:Plano Piloto,amenity:restaurant,cuisine:brazilian,phone:+55 61 99675-0147","lat":-15.7396924,"lng":-47.8932123},{"id":"9839311897","name":"Arabella","tags":"addr:city:Brasília,addr:street:SCLN 116  Bloco D,addr:suburb:Plano Piloto,amenity:restaurant,cuisine:pizza","lat":-15.7400214,"lng":-47.8942466},{"id":"9927515485","name":"UNICRED","tags":"addr:city:Brasília,addr:street:SCLN 316  Bloco F,addr:suburb:Plano Piloto - Asa Norte,amenity:bank","lat":-15.7381718,"lng":-47.8977579},{"id":"9932126713","name":"BB Estilo","tags":"amenity:bank,brand:Banco do Brasil,brand:wikidata:Q610817","lat":-15.7379442,"lng":-47.8969442},{"id":"9932145882","name":"Macuxis Self Service","tags":"addr:city:Brasília,addr:housenumber:Loja 53,addr:street:SCLN 316  Bloco F,addr:suburb:Plano Piloto - Asa Norte,air_conditioning:no,amenity:restaurant,bar:no,capacity:20,cuisine:regional,delivery:no,level:0,outdoor_seating:yes,payment:cash:yes,payment:credit_cards:yes,payment:debit_cards:yes","lat":-15.7384373,"lng":-47.8978558},{"id":"10024916413","name":"CleanPet  Estética Canina e Felina","tags":"addr:city:Brasília,addr:housenumber:Loja 27,addr:street:SCLN 115  Bloco C,addr:suburb:Plano Piloto - Asa Norte,level:0,payment:cash:yes,payment:credit_cards:yes,payment:debit_cards:yes,phone:+55 61 99159-1922,second_hand:no,shop:pet,stroller:limited,wheelchair:limited","lat":-15.7405415,"lng":-47.8939095},{"id":"7923521264","name":"Acarajé do LÊ","tags":"addr:city:Brasília,addr:street:CLN 216, Bloco A,addr:suburb:Plano Piloto - Asa Norte,air_conditioning:no,amenity:restaurant,cuisine:Baiana,level:-1,phone:+55 61 98461-4474","lat":-15.7386977,"lng":-47.8897333},{"id":"10031819938","name":"Focinho Feliz","tags":"addr:city:Brasília,addr:street:SCLN 216  Bloco A,addr:suburb:Plano Piloto - Asa Norte,air_conditioning:no,level:-1,phone:+55 61 98679-2020,shop:pet","lat":-15.7386048,"lng":-47.8895697},{"id":"10137917795","name":"Dom João 2000","tags":"addr:city:Brasília,addr:housenumber:Loja 45,addr:street:SCLN 215 Bloco A,addr:suburb:Plano Piloto - Asa Norte,amenity:restaurant,cuisine:Brasileiro,phone:+55 61-3340-1947, 99208-2448","lat":-15.7393065,"lng":-47.8895128},{"id":"10197522329","name":"Oficina do Corpo","tags":"addr:city:Brasília - DF,addr:housenumber:Loja 45,addr:street:SCLN 115  Bloco A,addr:suburb:Plano Piloto - Asa Norte,beauty:Depilação, Estética Facial, Massagem,level:0,payment:cash:yes,payment:credit_cards:yes,payment:debit_cards:yes,phone:+55 61 3033-3683,shop:beauty,stroller:limited","lat":-15.7403867,"lng":-47.8930888},{"id":"3226293511","name":"Capri","tags":"addr:city:Brasília - DF,addr:street:SCLN 215  Bloco A,addr:suburb:Plano Piloto - Asa Norte,air_conditioning:no,amenity:cafe,diet:gluten_free:yes,level:0,outdoor_seating:yes","lat":-15.7391358,"lng":-47.8895599}]