[{"id":"2343876080","name":"Bar Brasília","tags":"amenity:bar","lat":-15.8088644,"lng":-47.9009593},{"id":"2691204440","name":"Centro Interescolar de Educação Física - CIEF","tags":"addr:place:Asa Sul,addr:street:SGAS 908,amenity:school","lat":-15.8063065,"lng":-47.9097482},{"id":"2691204485","name":"EAPE - Escola de Aperfeiçoamento dos Profissionais de Educação","tags":"addr:place:Asa Sul,addr:street:SGAS 907,amenity:school","lat":-15.8071066,"lng":-47.9072969},{"id":"2691204488","name":"Escola Canarinho","tags":"addr:place:Asa Sul,addr:street:SGAS 906,amenity:school","lat":-15.8054734,"lng":-47.9045441},{"id":"2691204539","name":"Escola Nossa Senhora de Fátima","tags":"addr:place:Asa Sul,addr:street:SGAS 906,amenity:school,denomination:roman_catholic,religion:christian","lat":-15.8062212,"lng":-47.9067235},{"id":"2691204570","name":"Seminário Presbiteriano de Brasília","tags":"addr:place:Asa Sul,addr:street:SGAS 906,amenity:school","lat":-15.8044872,"lng":-47.9047197},{"id":"5061140121","name":"Uptime","tags":"amenity:school,name:pt:Uptime,training:language","lat":-15.8088076,"lng":-47.9009976},{"id":"8264038792","name":"Alfredo's","tags":"amenity:restaurant,cuisine:pizza,diet:vegetarian:yes,outdoor_seating:yes,takeaway:yes","lat":-15.809092,"lng":-47.9015113},{"id":"8264120578","name":"Comedoria Sazonal","tags":"amenity:restaurant,diet:vegan:yes,diet:vegetarian:yes","lat":-15.8091594,"lng":-47.9014487},{"id":"8264187684","name":"Superquadra Bar","tags":"amenity:restaurant,cuisine:barbecue","lat":-15.8091114,"lng":-47.9014958},{"id":"8264192417","name":"Il Basilico","tags":"amenity:restaurant,cuisine:italian,diet:vegetarian:yes","lat":-15.8091338,"lng":-47.901476}]