[{"id":"768142887","name":"Livraria Universidade","tags":"shop:books","lat":-15.76495,"lng":-47.8702555},{"id":"768142895","name":"Caixa Econômica Federal","tags":"amenity:bank,atm:yes,operator:Caixa","lat":-15.7644209,"lng":-47.8683395},{"id":"1327077378","name":"Banco do Brasil","tags":"amenity:bank,atm:yes,brand:Banco do Brasil,brand:wikidata:Q610817,brand:wikipedia:en:Banco do Brasil,currency:BRL:yes,currency:USD:yes,operator:Banco do Brasil,wheelchair:yes","lat":-15.7651268,"lng":-47.8703046},{"id":"2691204555","name":"Fundação Educacional do Distrito Federal - FEDF","tags":"amenity:school","lat":-15.7645565,"lng":-47.8754778},{"id":"2691204581","name":"UnB - Emporio ambiental","tags":"addr:place:UnB,addr:street:UnB,amenity:school","lat":-15.760308,"lng":-47.873554},{"id":"2691204587","name":"Núcleo de Dança","tags":"addr:place:UnB,addr:street:UnB,amenity:school","lat":-15.7652939,"lng":-47.8717605},{"id":"3092729542","name":"Spoleto","tags":"amenity:restaurant,cuisine:italian,delivery:no","lat":-15.7606112,"lng":-47.8742873},{"id":"3092729543","name":"BR Mania","tags":"shop:convenience","lat":-15.7605892,"lng":-47.8742149},{"id":"3525964203","name":"Café das Letras","tags":"amenity:cafe,wheelchair:yes","lat":-15.7649188,"lng":-47.8701905},{"id":"3707407310","tags":"amenity:car_wash,opening_hours:Mo-Su 08:0-18:00","lat":-15.7604979,"lng":-47.8741542},{"id":"4987247327","tags":"amenity:atm,operator:Santander","lat":-15.762659,"lng":-47.8702319},{"id":"4987248423","tags":"amenity:atm,operator:Caixa","lat":-15.7626673,"lng":-47.8702772},{"id":"5424503038","name":"Departamento de Geografia","tags":"amenity:university,operator:Departamento de geografia,operator:type:public,wheelchair:limited","lat":-15.7615157,"lng":-47.8705926},{"id":"6608955269","name":"Faculdade de Arquitetura e Urbanismo","tags":"amenity:university,short_name:FAU","lat":-15.7614841,"lng":-47.8700471},{"id":"6608955270","name":"Faculdade de Comunicação","tags":"amenity:university,short_name:FAC,website:http://www.fac.unb.br","lat":-15.7608594,"lng":-47.8702348},{"id":"6608955272","name":"Jardim Shaolin","tags":"leisure:park","lat":-15.7607531,"lng":-47.8704936},{"id":"6883196697","tags":"amenity:parking,operator:Unb","lat":-15.7611244,"lng":-47.8727004},{"id":"6925312912","name":"Laboratório LAGAS","tags":"amenity:university,internet_access:yes,operator:Depoartamento de Geografia - UnB,operator:type:public,website:http://www.lagas.unb.br/en/","lat":-15.7609042,"lng":-47.8706058},{"id":"6927934971","name":"Sala de Cartografia","tags":"amenity:school,operator:Hellen","lat":-15.7607524,"lng":-47.8707816},{"id":"6928256175","name":"Praça do CAGEA","tags":"leisure:park","lat":-15.7606411,"lng":-47.8705682},{"id":"6928599309","name":"Ponto de carona icc norte","tags":"leisure:park","lat":-15.7603963,"lng":-47.871317},{"id":"6928599310","name":"sala de aula (cartografia)","tags":"amenity:school","lat":-15.7607318,"lng":-47.8708127},{"id":"6928599311","name":"auditorio IH","tags":"amenity:school","lat":-15.7609407,"lng":-47.8707493},{"id":"6969968050","name":"Sala de aula de cartografia","tags":"amenity:school","lat":-15.7607253,"lng":-47.8708233},{"id":"6991053688","name":"LAGAS ldmm","tags":"amenity:school","lat":-15.7607002,"lng":-47.8702594},{"id":"6991053690","name":"Departamento de Geografia","tags":"amenity:school","lat":-15.7610372,"lng":-47.8707349},{"id":"6991053693","name":"Sala de Aula","tags":"amenity:school,operator:lcdmm","lat":-15.7606721,"lng":-47.8708464},{"id":"7010145916","name":"UnB - Universidade de Brasília","tags":"tourism:attraction","lat":-15.7633032,"lng":-47.8702194},{"id":"8140356452","name":"Museu de Geociências","tags":"leisure:common,museum:archaeological,tourism:museum","lat":-15.7641422,"lng":-47.8686713},{"id":"9902614014","name":"Departamento de Engenharia Elétrica","tags":"amenity:university","lat":-15.7629559,"lng":-47.872432},{"id":"9902614015","name":"Salas de professores do ENE","tags":"amenity:university","lat":-15.7632795,"lng":-47.8723733},{"id":"9902614016","name":"Lab Redes - ENe","tags":"amenity:university","lat":-15.7637828,"lng":-47.8721489},{"id":"9902689417","name":"Instituto de Psicologia da UnB","tags":"amenity:university","lat":-15.7650488,"lng":-47.8674345}]