[{"id":"3770819555","name":"Drogaria Saúde","tags":"addr:street:Rua Cristóvão Colombo,amenity:pharmacy,building:yes,building:levels:1,payment:cash:yes,payment:mastercard:yes,payment:notes:yes,payment:visa:yes,payment:visa_debit:yes,payment:visa_electron:yes","lat":-15.1652779,"lng":-48.2835339},{"id":"3770821057","name":"Mercado Minas","tags":"addr:street:Avenida JK,building:yes,payment:coins:yes,payment:cryptocurrencies:no,payment:electronic_purses:no,payment:mastercard:yes,payment:notes:yes,payment:visa:yes,payment:visa_debit:yes,payment:visa_electron:yes,shop:supermarket","lat":-15.1650276,"lng":-48.2842614},{"id":"3770821303","tags":"leisure:sports_centre,sport:gymnastics","lat":-15.1663521,"lng":-48.283878},{"id":"3869975361","name":"Mercado Padre Cícero","tags":"shop:supermarket","lat":-15.1646686,"lng":-48.2842131},{"id":"3869975458","name":"Supermercado Saneli","tags":"shop:supermarket,wheelchair:yes","lat":-15.1613809,"lng":-48.2830176},{"id":"3869975560","name":"Mercadinho do Raimundinho","tags":"shop:convenience","lat":-15.1637544,"lng":-48.2839243},{"id":"3869975958","tags":"amenity:pharmacy","lat":-15.1652387,"lng":-48.2840474},{"id":"4046361112","tags":"amenity:car_wash","lat":-15.1633087,"lng":-48.2829228},{"id":"6127999840","tags":"amenity:restaurant","lat":-15.1657871,"lng":-48.2842978}]