[{"id":"2709744025","name":"Polícia Militar - 21 BPM","tags":"amenity:police","lat":-15.903091,"lng":-47.776526},{"id":"2712090078","name":"Polícia Militar - PCS 002","tags":"amenity:police,phone:+55 61 3910 1002","lat":-15.902725,"lng":-47.7695337},{"id":"3369029414","name":"BRB - Banco Regional de Brasília","tags":"amenity:bank","lat":-15.903434,"lng":-47.772186},{"id":"4405143810","name":"Banco Itaú","tags":"addr:city:São Sebastião,addr:housenumber:1951,addr:postcode:71691-083,addr:street:Avenida Comercial,addr:suburb:Centro,amenity:bank,atm:yes,description:Agência nº 4291,operator:Itaú","lat":-15.9036017,"lng":-47.771593},{"id":"4755564285","name":"pub capital","tags":"amenity:bar","lat":-15.9071256,"lng":-47.7706576},{"id":"4978619721","name":"Supermercado Santa Felicidade","tags":"addr:housenumber:2221/2231,addr:postcode:71690-000,addr:street:Avenida Comercial,name:pt:Supermercado Santa Felicidade,opening_hours:Mo-Sa 07:00-21:30; Su 08:00-12:00,shop:supermarket","lat":-15.9052428,"lng":-47.7732542},{"id":"4979625321","name":"Drogaria Rosario","tags":"addr:street:Avenida Comercial,amenity:pharmacy,name:pt:Drogaria Rosario,opening_hours:Mo-Su 07:00-22:00","lat":-15.9050975,"lng":-47.7730525},{"id":"4984049022","name":"Subway","tags":"addr:postcode:70297-400,addr:street:Q. 201 Conjunto 13,amenity:restaurant,cuisine:sandwich,opening_hours:Mo-Sa 08:00-00:00; Su 08:00-23:30","lat":-15.9052947,"lng":-47.7736469}]