[{"id":"2691204563","name":"Colégio La Salle","tags":"amenity:school","lat":-15.6513733,"lng":-47.7816368},{"id":"6456379915","name":"Uniprojeção Unidade II","tags":"amenity:university","lat":-15.6514745,"lng":-47.7820874},{"id":"6456379938","name":"Serra Shopping","tags":"shop:mall","lat":-15.6515441,"lng":-47.7903434},{"id":"6456379946","name":"Pizzaria Mania","tags":"amenity:restaurant,cuisine:pizza","lat":-15.6513328,"lng":-47.788404},{"id":"6456379951","name":"Centro Olímpico","tags":"leisure:sports_centre","lat":-15.6529244,"lng":-47.787052},{"id":"6994151178","name":"Colégio Projeção","tags":"amenity:school","lat":-15.6501951,"lng":-47.7822889},{"id":"10238971603","name":"FarmaPopular","tags":"amenity:pharmacy,healthcare:pharmacy","lat":-15.6502263,"lng":-47.786842}]