[{"id":"4351963690","tags":"amenity:bar","lat":-15.7694757,"lng":-47.7809305},{"id":"6074228666","name":"Minerim Grill","tags":"addr:city:Brasília,addr:housenumber:14,addr:postcode:71572-113,addr:street:Avenida Transversal Quadra 21 conjunto M,addr:suburb:Paranoá,amenity:restaurant,cuisine:regional,delivery:yes,phone:+55 61 3369 0960","lat":-15.7690274,"lng":-47.7811136},{"id":"6906921685","name":"Compre bem","tags":"addr:city:Brasília,addr:suburb:Paranoá,opening_hours:10:00-22:00,payment:coins:yes,payment:credit_cards:yes,payment:debit_cards:yes,shop:convenience","lat":-15.770871,"lng":-47.782021},{"id":"6906921693","name":"Shirley","tags":"payment:coins:yes,payment:credit_cards:yes,payment:debit_cards:yes,shop:convenience","lat":-15.767148,"lng":-47.7795838},{"id":"6970152620","name":"Escola Pica Pau Amarelo","tags":"amenity:school","lat":-15.7675017,"lng":-47.7808144},{"id":"6970152623","name":"Centro Educacional Carmem Sallés","tags":"amenity:school","lat":-15.7687192,"lng":-47.7852015},{"id":"9912807384","name":"Esquina 23","tags":"shop:mall","lat":-15.7667494,"lng":-47.780553}]