[{"id":"2696687881","name":"Atelier da Pizza","tags":"amenity:restaurant,cuisine:pizza,diet:vegetarian:yes","lat":-14.1337672,"lng":-47.5149983},{"id":"2696687884","name":"Banco do Brasil","tags":"amenity:bank,brand:Banco do Brasil,brand:wikidata:Q610817,brand:wikipedia:en:Banco do Brasil","lat":-14.1337632,"lng":-47.5148899},{"id":"2696687891","name":"Econóis","tags":"amenity:restaurant,diet:vegetarian:only","lat":-14.1337369,"lng":-47.5147523},{"id":"2696687894","name":"Oca Lila","tags":"amenity:restaurant,diet:vegetarian:only","lat":-14.1326066,"lng":-47.5105186},{"id":"2701999210","name":"Taj Mahal","tags":"amenity:restaurant,cuisine:pizza","lat":-14.1337887,"lng":-47.5144492},{"id":"2705018561","name":"Tapindaré","tags":"amenity:restaurant","lat":-14.1338298,"lng":-47.514177},{"id":"3050131974","name":"Sushi Astral","tags":"amenity:restaurant","lat":-14.1329251,"lng":-47.5158413},{"id":"4594321094","name":"Chapadócia","tags":"amenity:restaurant,name:pt:Chapadócia","lat":-14.1338839,"lng":-47.5138558}]