[{"id":"2696913501","name":"Cravo & Canela","tags":"addr:housenumber:1363,addr:street:Avenida Ary Valadão Filho,amenity:restaurant,diet:vegan:yes,diet:vegetarian:only,phone:+55 62 34461376","lat":-14.1337979,"lng":-47.5211732},{"id":"2696913506","name":"Espaço Govinda","tags":"amenity:cafe","lat":-14.1333868,"lng":-47.5209492},{"id":"2696913521","name":"Vila Chamego","tags":"amenity:restaurant,cuisine:pizza","lat":-14.1330183,"lng":-47.5172618},{"id":"2696913523","tags":"shop:supermarket","lat":-14.1333099,"lng":-47.5213155},{"id":"2697079659","name":"Café com Graça","tags":"amenity:cafe","lat":-14.1334235,"lng":-47.520192},{"id":"2698521398","name":"Arco Iris","tags":"amenity:cafe,shop:clothes","lat":-14.1335659,"lng":-47.5181246},{"id":"2698755422","name":"Quartel da Polícia Militar","tags":"amenity:police","lat":-14.1338111,"lng":-47.5247868},{"id":"2701667493","name":"Nativu's","tags":"amenity:restaurant","lat":-14.1332361,"lng":-47.522005},{"id":"2701999203","name":"Farmácia Paraíso","tags":"amenity:pharmacy,healthcare:pharmacy","lat":-14.1336685,"lng":-47.5161003},{"id":"2701999213","name":"Caixa Econômica Federal","tags":"amenity:atm,brand:Caixa Econômica Federal,brand:wikidata:Q835283,brand:wikipedia:pt:Caixa Econômica Federal,operator:Caixa Econômica Federal,operator:wikidata:Q835283,operator:wikipedia:pt:Caixa Econômica Federal","lat":-14.13375,"lng":-47.515893},{"id":"2705018556","name":"Escola Vila Verde","tags":"amenity:school","lat":-14.1320431,"lng":-47.5207449},{"id":"2811080076","name":"Centro de Estudos Avançados do Cerrado","tags":"addr:city:Alto Paraíso de Goiás,amenity:university,operator:UnB","lat":-14.1327089,"lng":-47.5246573},{"id":"6179658612","name":"Drogaria Rede Popular","tags":"amenity:pharmacy,healthcare:pharmacy,phone:+55623446-1900","lat":-14.133878,"lng":-47.5188977}]