[{"id":"3158650693","name":"Rodoviária de Porangatu","tags":"amenity:bus_station","lat":-13.4320522,"lng":-49.1420062},{"id":"3165849590","tags":"shop:supermarket","lat":-13.4344138,"lng":-49.1427796},{"id":"3165849591","tags":"shop:supermarket","lat":-13.433579,"lng":-49.1425382},{"id":"3165849615","name":"Estacionamento Rodoviária","tags":"amenity:parking","lat":-13.4326771,"lng":-49.1421599},{"id":"9044363609","name":"Delegacia PRF em Porangatu","tags":"addr:city:Porangatu,addr:housenumber:261,addr:street:Avenida Federal,addr:suburb:Centro,amenity:police,opening_hours:Mo-Fr 08:00-17:00,operator:Polícia Rodoviária Federal,operator:wikidata:Q1158853,operator:wikipedia:pt:Polícia Rodoviária Federal,phone:+55 62 3216 8896","lat":-13.4354111,"lng":-49.1435181}]