[{"id":"4453699138","name":"Restaurantes e lanchonete sabor caseiro","tags":"addr:city:Roda velha,amenity:restaurant","lat":-12.759447,"lng":-45.9455307},{"id":"4453699538","name":"Banco do Brasil","tags":"addr:city:Roda velha,amenity:bank","lat":-12.758082,"lng":-45.9489853},{"id":"4453700146","name":"Restaurante k'delicia","tags":"addr:city:Roda velha,amenity:restaurant","lat":-12.757618,"lng":-45.9460089},{"id":"4896737322","name":"Deivid lima do santos","tags":"addr:city:Roda velha,addr:street:avenida brasil,name:pt:Deivid lima do santos,shop:supermarket","lat":-12.7577021,"lng":-45.9465957},{"id":"4954584130","name":"Tm perreira da silva farmácia são joao","tags":"addr:city:Roda velha,addr:street:avenida Paraná,amenity:pharmacy,name:pt:Tm perreira da silva farmácia são joao","lat":-12.7584066,"lng":-45.9475368},{"id":"4954584425","name":"Sergio hammel supermercado atual","tags":"addr:city:Roda velha,addr:street:rua amazonas,name:pt:Sergio hammel supermercado atual,shop:supermarket","lat":-12.7565492,"lng":-45.9460664},{"id":"5005908822","name":"Drogavida","tags":"addr:city:Roda velha,addr:street:rua salvador,amenity:pharmacy,name:pt:Drogavida","lat":-12.757844,"lng":-45.9489584}]