[{"id":"4068265367","name":"Guarda Municipal","tags":"amenity:police","lat":-12.0816811,"lng":-45.8025213},{"id":"4092359005","name":"Super Favorito","tags":"shop:supermarket","lat":-12.0803604,"lng":-45.8109559},{"id":"4344444140","name":"Wanderly Cabeireiro & Cosmeticos","tags":"addr:housenumber:1339,addr:postcode:47850000,addr:street:Rua Sao Francisco,internet_access:wlan,opening_hours:Mo-Sa 08:00-19:00,phone:+55 77 9 9987 0154,shop:beauty","lat":-12.0798027,"lng":-45.8063476},{"id":"4821479744","name":"Vida farma","tags":"amenity:pharmacy,healthcare:pharmacy,name:pt:Vida farma","lat":-12.079951,"lng":-45.8055281},{"id":"4822872421","name":"Paulo raimundo mercado do paulo","tags":"addr:street:Rua Espírito Santo,name:pt:Paulo raimundo mercado do paulo,shop:supermarket","lat":-12.0798319,"lng":-45.8069935},{"id":"4860651821","name":"D s e mercado cerrano","tags":"addr:street:Rua Senhor do Bom Fim,name:pt:D s e mercado cerrano,shop:supermarket","lat":-12.0809684,"lng":-45.8023446},{"id":"4888519922","name":"Ideal farma","tags":"addr:street:Rua São Francisco,amenity:pharmacy,healthcare:pharmacy,name:pt:Ideal farma","lat":-12.0795589,"lng":-45.8021953}]