[{"id":"3051933207","name":"Pizzaria Skina Livre","tags":"addr:city:Coari,addr:postcode:69460-000,addr:street:Estrada do Contorno,amenity:restaurant,cuisine:pizza","lat":-4.0920981,"lng":-63.139301},{"id":"3051936056","name":"Bar Skina Livre","tags":"addr:city:Coari,addr:postcode:69460-000,addr:street:Estrada do Contorno,amenity:bar,smoking:separated","lat":-4.0921394,"lng":-63.1392058},{"id":"3051940192","name":"Armazém","tags":"addr:city:Coari,addr:postcode:69460-000,addr:street:Rua Santo Afonso,amenity:nightclub,smoking:separated","lat":-4.0921105,"lng":-63.139711},{"id":"3051956287","name":"Duxon","tags":"addr:city:Coari,addr:postcode:69460-000,addr:street:Estrada do Contorno,amenity:nightclub","lat":-4.0917924,"lng":-63.1393631},{"id":"3052141188","name":"Unidade Básica de Saúde - Espírito Santo","tags":"addr:city:Coari,addr:postcode:69460-000,addr:street:Rua Gonçalves Ledo,addr:suburb:Espírito Santo,amenity:hospital,emergency:no,healthcare:hospital","lat":-4.0891775,"lng":-63.1439498},{"id":"3052180971","name":"Supermercado Siqueira","tags":"addr:city:Coari,addr:postcode:69460-000,addr:street:Ajuricaba,addr:suburb:Espírito Santo,shop:supermarket","lat":-4.0918801,"lng":-63.1475782},{"id":"3052184856","tags":"addr:city:Coari,addr:postcode:69460-000,addr:street:Gonçalves Ledo,addr:suburb:Espírito santo,amenity:pharmacy","lat":-4.0913041,"lng":-63.1481343},{"id":"3052643105","name":"Supermercado CP","tags":"addr:city:Coari,addr:postcode:69460-000,addr:street:Rua Francisco Rocha de Carvalho,addr:suburb:Tauá-mirim,shop:supermarket","lat":-4.0879272,"lng":-63.1447292},{"id":"3052679243","name":"Unidade Básica de Saúde - Duque de Caxias","tags":"addr:city:Coari,addr:postcode:69460-000,addr:street:Santos Dumont,addr:suburb:Duque de Caxias,amenity:hospital,healthcare:hospital","lat":-4.0896554,"lng":-63.1388248},{"id":"3052709033","tags":"addr:city:Coari,addr:postcode:69460-000,addr:street:Gonçalves Ledo,addr:suburb:Centro,amenity:pharmacy","lat":-4.0873974,"lng":-63.1416801},{"id":"3283792332","tags":"addr:city:Coari,addr:postcode:69460-000,addr:street:Cinco de Setembro,addr:suburb:Centro,amenity:restaurant,capacity:30,cuisine:regional","lat":-4.0871513,"lng":-63.1415586},{"id":"3283794620","name":"Unopar","tags":"addr:city:Coari,addr:postcode:69460-000,addr:street:Gonçalves Ledo,addr:suburb:Centro,amenity:university","lat":-4.0876976,"lng":-63.1416587},{"id":"3283794731","name":"Escola Paraíso","tags":"addr:city:Coari,addr:postcode:69460-000,addr:street:Gonçalves Ledo,addr:suburb:Centro,amenity:school","lat":-4.0877291,"lng":-63.1417061},{"id":"3283809616","tags":"addr:city:Coari,addr:postcode:69460-000,addr:street:Dois de Dezembro,addr:suburb:Tauá-mirin,amenity:pharmacy","lat":-4.0873877,"lng":-63.1463771},{"id":"3283820529","tags":"addr:city:Coari,addr:postcode:69460-000,addr:street:Rua Gonçalves Ledo,addr:suburb:Espírito Santo,amenity:bar","lat":-4.090196,"lng":-63.1451578},{"id":"3283830128","name":"Loja de conveniência do Posto Magalhães","tags":"addr:city:Coari,addr:postcode:69460-000,addr:street:Rua Gonçalves Ledo,addr:suburb:Espírito Santo,shop:convenience","lat":-4.0900484,"lng":-63.1459398},{"id":"3283835934","name":"Supermercado MP","tags":"addr:city:Coari,addr:postcode:69460-000,addr:street:Rua Gonçalves Ledo,addr:suburb:Espírito Santo,shop:supermarket","lat":-4.0909702,"lng":-63.1478647},{"id":"7670914447","name":"Urucu","tags":"aeroway:aerodrome,description:Aeroporto Outros","lat":-4.089992,"lng":-63.14046},{"id":"7670914456","name":"Coari","tags":"addr:street:Estr Coari-Mamiar,aeroway:aerodrome,description:Aeroporto Outros","lat":-4.08999,"lng":-63.1405}]