[{"id":"2671774557","tags":"amenity:police","lat":-3.293618,"lng":-60.626544},{"id":"2671875997","name":"Laboratório Central","tags":"amenity:hospital","lat":-3.2916231,"lng":-60.6302964},{"id":"7890738283","name":"Escola Estadual José Seffair","tags":"addr:city:Manacapuru,addr:housenumber:S/N,addr:postcode:69400-000,addr:street:Rua Carolina Fernandes,addr:suburb:Terra Preta,amenity:school","lat":-3.294567,"lng":-60.6323041},{"id":"7894287723","name":"Escola Estadual Regina Fernandes","tags":"addr:city:Manacapuru-Am,addr:housenumber:23,addr:postcode:69400-000,addr:street:Rua Gilberto Mestrinho,addr:suburb:Liberdade,amenity:school","lat":-3.2911776,"lng":-60.6229852},{"id":"7894320937","name":"CMPM IX Jamil Seffair","tags":"addr:city:Manacapuru-AM,addr:postcode:69400-000,addr:street:Rodovia Manoel Urbano,addr:suburb:Terra Preta,amenity:school","lat":-3.291125,"lng":-60.6316247},{"id":"7894378628","name":"Escola Estadual André Vidal de Araújo","tags":"addr:city:Manacapuru-Am,addr:housenumber:2035,addr:postcode:69400-448,addr:street:Rua Gaspar Fernandes,addr:suburb:Aparecida,amenity:school","lat":-3.2937945,"lng":-60.6238533},{"id":"7897306502","name":"Restaurante Denise Restaurante","tags":"addr:city:Manacapuru,addr:postcode:69400000,addr:street:Avenida Manoel Urbano,addr:suburb:Terra Preta,amenity:restaurant","lat":-3.293135,"lng":-60.6302546},{"id":"7905368754","name":"Mercadinho Deus é Maior","tags":"addr:city:Manacapuru,addr:housenumber:884,addr:postcode:69400-000,addr:street:Rua Virgilio Barroso Alexandre,shop:supermarket","lat":-3.290836,"lng":-60.6281275},{"id":"7905417354","name":"Distribuidora e Mercadinho J.A","tags":"addr:city:Manacapuru-Am,addr:postcode:69400-000,addr:street:Rua Gaspar Fernandes,addr:suburb:Aparecida,shop:supermarket","lat":-3.2958836,"lng":-60.6237397},{"id":"7905472720","name":"Mercadinho Tradicional","tags":"addr:city:Manacapuru,addr:postcode:69400-000,addr:street:Rua Carolina Fernandes,addr:suburb:Terra Preta,shop:supermarket","lat":-3.2941065,"lng":-60.631756},{"id":"7905972483","name":"Mercadinho JG","tags":"addr:city:Manacapuru,addr:housenumber:715,addr:postcode:69400-000,addr:street:Rua Waldemar Ventura,addr:suburb:Aparecida,shop:supermarket","lat":-3.2905757,"lng":-60.6268647},{"id":"7911260335","name":"Crefisa | Polo Fam","tags":"addr:city:Manacapuru-AM,addr:housenumber:1550,addr:postcode:69400-000,addr:street:Rua Coronel Julio Ribeiro,addr:suburb:São José,amenity:bank","lat":-3.2906753,"lng":-60.6312873},{"id":"9219196502","name":"Monteiro´s conveniencia","tags":"addr:city:Manacapuru-AM,addr:housenumber:1556,addr:postcode:69400800,addr:street:Avenida Boulevard Pedro Rates de Oliveira,addr:suburb:São José,shop:convenience,wheelchair:yes","lat":-3.290751,"lng":-60.6312889}]