[{"id":"7890758723","name":"EMEF Zoraida Ribeiro Alexandre","tags":"addr:city:Manacapuru,addr:housenumber:985,addr:postcode:69400000,addr:street:Rua Waldemar Ventura,addr:suburb:São José,amenity:school","lat":-3.2880867,"lng":-60.6259117},{"id":"7894331484","name":"Coordenadoria SEDUC Manacapuru","tags":"addr:city:Manacapuru-AM,addr:housenumber:745,addr:postcode:69400-000,addr:street:Rua Ezanor Ataíde,addr:suburb:São José,amenity:school","lat":-3.2901591,"lng":-60.6305962},{"id":"7894402720","name":"EMEF Prof. Beatriz da Silva Bezerra","tags":"addr:city:Manacapuru,addr:postcode:69400000,addr:street:Rua Daniel Simões,addr:suburb:São José,amenity:school","lat":-3.2883811,"lng":-60.627612},{"id":"7894430566","name":"EMEF José da Luz","tags":"addr:city:Manacapuru-AM,addr:postcode:69400-000,addr:street:Travessa Raimundo Guimarães,addr:suburb:Liberdade,amenity:school","lat":-3.2870328,"lng":-60.6226299},{"id":"7905301484","name":"Mercadinho do Povo","tags":"addr:city:Manacapuru,addr:postcode:69400000,addr:street:Rua Waldemar Ventura,addr:suburb:São José,shop:supermarket","lat":-3.2876311,"lng":-60.6252627},{"id":"7905367378","name":"Mercadinho e Açougue Solimões","tags":"addr:city:Manacapuru,addr:postcode:69400-000,addr:street:Rua Daniel Simões,addr:suburb:São José,shop:supermarket","lat":-3.2880453,"lng":-60.6286712},{"id":"7905468264","name":"Mercadinho Maxnai","tags":"addr:city:Manacapuru,addr:postcode:69400000,addr:street:Rua Coronel Juvêncio Soriano,addr:suburb:São José,shop:supermarket","lat":-3.286629,"lng":-60.630416}]