[{"id":"6025989126","name":"Banco do Brasil","tags":"amenity:bank,brand:Banco do Brasil,brand:wikidata:Q610817,brand:wikipedia:en:Banco do Brasil","lat":-3.301251,"lng":-60.6207391},{"id":"6026231435","name":"Bradesco","tags":"amenity:bank","lat":-3.301215,"lng":-60.6203394},{"id":"7894373099","name":"Escola Estadual Nossa Senhora de Nazaré","tags":"addr:city:Manacapuru-AM,addr:housenumber:902,addr:postcode:69400-000,addr:street:Rua Quintino Bocaiuva,addr:suburb:Centro,amenity:school","lat":-3.3000486,"lng":-60.6214579},{"id":"7897134030","name":"Restaurante Canto do Roxinho","tags":"addr:city:Manacapuru,addr:housenumber:389,addr:postcode:69400000,addr:street:Rua Castro Alves,amenity:restaurant","lat":-3.2966996,"lng":-60.6177957},{"id":"7897143260","name":"Restaurante E Pizzaria 40 Sabores","tags":"addr:city:Manacapuru,addr:housenumber:1008,addr:postcode:69400000,addr:street:Rua Castro Alves,addr:suburb:Centro,amenity:restaurant","lat":-3.2964996,"lng":-60.6182301},{"id":"7897175567","name":"Stop Lanche","tags":"addr:city:Manacapuru,addr:postcode:69400-000,addr:street:Avenida Cristo Rei,amenity:restaurant","lat":-3.300822,"lng":-60.6215126},{"id":"7897215878","name":"Restaurante Almoco e Janta","tags":"addr:city:Manacapuru,addr:housenumber:1170,addr:postcode:69400000,addr:street:Avenida João XXIII,addr:suburb:Liberdade,amenity:restaurant","lat":-3.2960813,"lng":-60.6205778},{"id":"7897274380","name":"Restaurante Elina Lanche","tags":"addr:city:Manacapuru,addr:housenumber:373,addr:postcode:69400000,addr:street:Rua Luciano Galvão,addr:suburb:biribiri,amenity:restaurant","lat":-3.3010013,"lng":-60.6178446},{"id":"7905367788","name":"Banco Itaú","tags":"addr:city:Manacapuru,addr:housenumber:76,addr:postcode:69400000,addr:street:Rua Quintino Bocaiúva,addr:suburb:Centro,amenity:bank","lat":-3.3000851,"lng":-60.6222726},{"id":"7905522685","name":"Bar do Iran","tags":"addr:city:Manacapuru,addr:postcode:69400000,addr:street:Travessa Paulo Jaco,addr:suburb:Biribiri,amenity:bar","lat":-3.2999526,"lng":-60.6167878},{"id":"7905533217","name":"Bar da Família II","tags":"addr:city:Manacapuru,addr:postcode:69400-000,addr:street:Avenida Ribeiro Júnior,addr:suburb:Centro,amenity:bar","lat":-3.3004228,"lng":-60.6201128},{"id":"7905599643","name":"Supermercado Leal","tags":"addr:city:Manacapuru-AM,addr:housenumber:888,addr:postcode:69400-000,addr:street:Rua Quintino Bocaiuva,addr:suburb:Centro,shop:supermarket","lat":-3.3004923,"lng":-60.6216751},{"id":"7905604448","name":"Supermercado Bastos Cristo Rei","tags":"addr:city:Manacapuru,addr:housenumber:189,addr:postcode:69400-000,addr:street:Avenida Cristo Rei,addr:suburb:Centro,shop:supermarket","lat":-3.3007014,"lng":-60.6214332},{"id":"7911233474","name":"Bradesco Dia&Noite","tags":"addr:city:Manacapuru-AM,addr:housenumber:218,addr:postcode:69400-903,addr:street:Avenida Ribeiro Júnior,addr:suburb:Centro,amenity:bank","lat":-3.3010959,"lng":-60.6202358},{"id":"7911270561","name":"Caixa Eletrônico - Caixa Econômica Federal","tags":"addr:city:Manacapuru-Am,addr:postcode:69400-000,addr:street:Rua Castro Alves,addr:suburb:Centro,amenity:bank","lat":-3.2969003,"lng":-60.6179232},{"id":"7913071284","name":"Supermercado 24 horas","tags":"addr:city:Manacapuru,addr:postcode:69400000,addr:street:Travessa Paulo Jaco,addr:suburb:Biribiri,shop:supermarket","lat":-3.2996879,"lng":-60.6176654},{"id":"7913084170","name":"Mercadinho Ciro Atacadista","tags":"addr:city:Manacapuru,addr:postcode:69400000,addr:street:Avenida Getúlio Vargas,addr:suburb:Biribiri,shop:supermarket","lat":-3.2994897,"lng":-60.6176842},{"id":"7920554014","name":"Escola Estadual Magnólia Ventura","tags":"addr:city:Manacapuru,addr:housenumber:2224,addr:postcode:69400000,addr:street:Rua Joana Dangelo,addr:suburb:Biribiri,amenity:school","lat":-3.3000705,"lng":-60.6144088}]