[{"id":"1924772941","tags":"addr:housenumber:659,addr:postcode:69010-001,addr:street:Avenida Eduardo Ribeiro,alt_name:Agência Teatro Amazonas - 1457,amenity:bank,atm:yes,brand:Caixa Econômica Federal","lat":-3.1307869,"lng":-60.0242028},{"id":"2337408144","tags":"amenity:restaurant","lat":-3.1281631,"lng":-60.0190781},{"id":"2350554244","tags":"amenity:pharmacy,healthcare:pharmacy","lat":-3.1260058,"lng":-60.0250405},{"id":"2362266426","name":"Drogaria Balalaika","tags":"amenity:pharmacy,healthcare:pharmacy","lat":-3.1259734,"lng":-60.0265104},{"id":"2362266429","name":"Esc. Preparatória Marechal Rondon","tags":"amenity:school","lat":-3.1261425,"lng":-60.0265202},{"id":"2362325137","name":"Uninorte","tags":"amenity:university,wikidata:Q18484239","lat":-3.1258318,"lng":-60.0221812},{"id":"2362333795","name":"Latu Sensu","tags":"amenity:school","lat":-3.1260399,"lng":-60.0223557},{"id":"3131472449","name":"Correios","tags":"addr:street:Praça do Congresso,amenity:post_office,operator:Correios,operator:wikidata:Q3375004,operator:wikipedia:en:Correios","lat":-3.1287556,"lng":-60.0234231},{"id":"3131484570","name":"Academia Cheik Clube","tags":"leisure:sports_centre","lat":-3.1284215,"lng":-60.020939},{"id":"3131484571","name":"Drogaria Tropical","tags":"addr:street:Avenida Joaquim Nabuco,addr:suburb:Centro,amenity:pharmacy,dispensing:yes,drive_through:no,healthcare:pharmacy,phone:+55 92 3134 4878","lat":-3.1262399,"lng":-60.0192897},{"id":"4370835973","name":"Galeria do Largo","tags":"name:pt:Galeria do Largo,opening_hours:Tu-Su 13:00-19:00,tourism:museum,website:https://cultura.am.gov.br/galeria-do-largo-centro-de-artes-visuais/","lat":-3.1302788,"lng":-60.0221107},{"id":"4622757199","name":"Bar do Armando","tags":"amenity:bar,name:en:Bar do Armando","lat":-3.1298996,"lng":-60.0221695},{"id":"4717536215","name":"Tambaqui de banda","tags":"amenity:restaurant,cuisine:brazilian,internet_access:wlan,name:en:Tambaqui de banda,website:http://tambaquidebanda.com.br","lat":-3.1309305,"lng":-60.0227425},{"id":"4809891929","name":"Drogaria Econômica","tags":"addr:city:Manaus,addr:street:Rua Alexandre Amorim,addr:suburb:Aparecida,amenity:pharmacy,healthcare:pharmacy,name:pt:Drogaria Econômica","lat":-3.1296394,"lng":-60.0290607},{"id":"4822905823","name":"Casa do Pensador","tags":"addr:street:Rua Costa Azevedo,amenity:restaurant,cuisine:pizza;brazilian,name:en:Casa do Pensador","lat":-3.1309404,"lng":-60.0224504},{"id":"4865346522","name":"Museu Casa de Eduardo Ribeiro","tags":"addr:housenumber:322,addr:street:Rua José Clemente,name:pt:Museu Casa de Eduardo Ribeiro,opening_hours:Mo-Su 09:00-14:00,tourism:museum","lat":-3.1307625,"lng":-60.0251917},{"id":"5141617721","name":"Splash Pizza","tags":"amenity:restaurant,internet_access:wlan","lat":-3.1309027,"lng":-60.023783},{"id":"5141617722","name":"Tacacaria Amazonia","tags":"amenity:restaurant","lat":-3.1298632,"lng":-60.0230853},{"id":"5859806841","name":"Uniodonto Manaus","tags":"amenity:bank","lat":-3.1260827,"lng":-60.0260214},{"id":"6076823023","tags":"amenity:restaurant,cuisine:brazilian,name:en:Delicias Da Marlene","lat":-3.129863,"lng":-60.0219365},{"id":"6091036800","name":"Caixa Econômica Federal","tags":"amenity:atm,brand:Caixa Econômica Federal,brand:wikidata:Q835283,brand:wikipedia:pt:Caixa Econômica Federal,currency:BRL:yes,operator:Caixa Econômica Federal,operator:wikidata:Q835283,operator:wikipedia:pt:Caixa Econômica Federal","lat":-3.1280631,"lng":-60.0261139},{"id":"6213710797","name":"Ki Tempero","tags":"amenity:restaurant","lat":-3.1306952,"lng":-60.0208023},{"id":"6752902948","name":"Praça São Sebastião","tags":"leisure:park","lat":-3.1303174,"lng":-60.0225096},{"id":"6752914013","name":"Hospital Santa Casa de Misericórdia","tags":"amenity:hospital,healthcare:hospital","lat":-3.1302371,"lng":-60.0249745},{"id":"6797001189","name":"Barduka Bar","tags":"amenity:bar","lat":-3.1307041,"lng":-60.0259442},{"id":"6797001585","name":"Caldeira Bar","tags":"amenity:bar","lat":-3.1306141,"lng":-60.0259419},{"id":"8178171124","name":"Distribuidora Paraguassu","tags":"shop:convenience","lat":-3.1308712,"lng":-60.0290418},{"id":"8178171134","name":"Vitrine do Açaí","tags":"amenity:restaurant","lat":-3.1299849,"lng":-60.0292457},{"id":"8178171139","name":"Kantinho da Sopa","tags":"amenity:restaurant","lat":-3.1298821,"lng":-60.029244},{"id":"8178171144","name":"Lanche Martins","tags":"amenity:restaurant","lat":-3.1298084,"lng":-60.029062},{"id":"8181118628","tags":"shop:convenience","lat":-3.1296346,"lng":-60.0292628},{"id":"8181118638","name":"Mercantil Boa Vista","tags":"shop:convenience","lat":-3.1295372,"lng":-60.029057},{"id":"8181118640","name":"Maison Gomes","tags":"amenity:restaurant","lat":-3.1295337,"lng":-60.0292467},{"id":"8181118655","name":"Gabinete da Beleza","tags":"shop:beauty","lat":-3.1291203,"lng":-60.0292369},{"id":"8181118672","name":"Mercadinho Ossami","tags":"shop:convenience","lat":-3.1279714,"lng":-60.0292183},{"id":"8181118703","name":"Restaurante e Lanche Aparecida","tags":"amenity:restaurant","lat":-3.1278068,"lng":-60.0287679},{"id":"8181279217","name":"Gold Fish","tags":"shop:pet","lat":-3.1278574,"lng":-60.0285402},{"id":"9890670518","name":"Caxiri","tags":"amenity:restaurant,cuisine:brazilian;regional","lat":-3.129913,"lng":-60.0225159},{"id":"10132968577","name":"Biblioteca João Bosco Pantoja Evangelista","tags":"addr:city:Manaus,addr:housenumber:216,addr:street:Rua Costa Azevedo,addr:suburb:Centro,amenity:library,description:A Biblioteca Municipal João Bosco Pantoja Evangelista funciona atualmente em frente ao Largo de São Sebastião. Possui um acervo de aproximadamente 4 mil títulos dentre livros de temáticas amazônicas, didáticos, acadêmicos, lúdicos, pedagógicos.,opening_hours:Mo-Fr 08:00-17:00,phone:+55 92 3215 4615","lat":-3.1308023,"lng":-60.0221233},{"id":"10132970636","name":"Museu Amazônico","tags":"addr:city:Manaus,addr:housenumber:1036,addr:street:Rua Ramos Ferreira,addr:suburb:Centro,description:Acervo sobre a memória antropológica, histórica, social e cultural da região amazônica em seus diferentes períodos históricos.,fee:no,opening_hours:Mo-Fr 08:00-17:00,phone:+55 92 3233 7223,tourism:museum","lat":-3.1283571,"lng":-60.022126},{"id":"10133013993","name":"Casa das Artes","tags":"addr:city:Manaus,addr:street:Rua Costa Azevedo,addr:suburb:Centro,description:A Casa das Artes é um espaço artístico e cultural da cidade de Manaus, gerenciado pelo Governo do Estado do Amazonas, através da Secretaria de Estado de Cultura.,opening_hours:15:00-21:00,phone:+55 92 3631 6227,tourism:museum","lat":-3.1301247,"lng":-60.0220831}]