[{"id":"2958485297","name":"Sabor Caseiro","tags":"amenity:restaurant","lat":-3.0404357,"lng":-59.9342872},{"id":"2958485298","name":"Bar das Loirinhas","tags":"amenity:bar","lat":-3.0401303,"lng":-59.934872},{"id":"2958495176","name":"Escola Mun. Prof. Themistocles P. Gadelha","tags":"amenity:school","lat":-3.0390215,"lng":-59.9354915},{"id":"2958524953","name":"Bar Point do Futebol","tags":"amenity:bar","lat":-3.0397205,"lng":-59.9356605},{"id":"2958524955","name":"Posto de Lavagem Lira","tags":"amenity:car_wash","lat":-3.0400688,"lng":-59.9367823},{"id":"4167946331","name":"Supermercados Nova Era","tags":"addr:street:Rua Itaúba,shop:supermarket","lat":-3.0394196,"lng":-59.9399396},{"id":"4167955622","name":"Estacionamento Supermercados Nova Era","tags":"amenity:parking","lat":-3.0380589,"lng":-59.9396526},{"id":"4945634353","name":"Escola Municipal Rosa Sverner","tags":"addr:street:Rua das Azaléias,amenity:school,building:levels:2","lat":-3.0430897,"lng":-59.9365036}]