[{"id":"2955386933","name":"Lorena","tags":"shop:supermarket","lat":-3.110434,"lng":-60.02095},{"id":"2968043520","name":"Escola Estadual Nossa Senhora das Graças","tags":"amenity:school","lat":-3.1102793,"lng":-60.0216563},{"id":"2968043797","name":"Escola Estadual Herbert Palhano","tags":"amenity:school","lat":-3.1143444,"lng":-60.0219154},{"id":"3005332605","name":"Mercadinho São Geraldo","tags":"shop:convenience","lat":-3.1093488,"lng":-60.0245517},{"id":"3005332616","name":"Mercadinho Curirin","tags":"shop:convenience","lat":-3.1096434,"lng":-60.0243694},{"id":"3005363170","name":"J R Refeições","tags":"amenity:restaurant","lat":-3.1092416,"lng":-60.0254154},{"id":"3005363171","name":"Flexfarma","tags":"amenity:pharmacy,dispensing:yes,healthcare:pharmacy","lat":-3.1094238,"lng":-60.0234735},{"id":"3005363176","name":"Mercearia Maia","tags":"shop:convenience","lat":-3.1104576,"lng":-60.0252116},{"id":"3005363178","name":"Atlanta","tags":"amenity:school","lat":-3.1096273,"lng":-60.0223309},{"id":"3005363179","name":"Restaurante Lima","tags":"amenity:restaurant","lat":-3.1095309,"lng":-60.0231516},{"id":"3005363180","name":"Mercadinho Casa Soares","tags":"shop:convenience","lat":-3.1096112,"lng":-60.0253135},{"id":"3005363184","name":"LB","tags":"shop:convenience","lat":-3.110779,"lng":-60.0245142},{"id":"3005363188","name":"Mercadinho Casa Maquiné","tags":"shop:convenience","lat":-3.1102969,"lng":-60.0253296},{"id":"3005363191","name":"Mercadinho RF","tags":"shop:convenience","lat":-3.1101844,"lng":-60.0251472},{"id":"3005383131","name":"Mercadinho F E Maciel","tags":"shop:convenience","lat":-3.1103665,"lng":-60.0197452},{"id":"3005383132","name":"Graça Refeições","tags":"amenity:restaurant","lat":-3.1103113,"lng":-60.0209515},{"id":"3005383734","name":"Mercadinho Cia do Menor Preço","tags":"shop:convenience","lat":-3.1099862,"lng":-60.0202924},{"id":"3005383736","name":"CMEI Padre Pedro Gabriel de Oliveira Neto","tags":"amenity:school","lat":-3.1105915,"lng":-60.0217247},{"id":"3005420423","name":"Lappa Bar","tags":"amenity:bar","lat":-3.1091487,"lng":-60.0198205},{"id":"3132092477","name":"Colégio Preciosíssimo Sangue","tags":"amenity:school","lat":-3.1099088,"lng":-60.0270227},{"id":"4907829481","name":"Sopão do Professor","tags":"addr:street:Avenida Constantino Nery,amenity:restaurant","lat":-3.1117065,"lng":-60.0264726}]