[{"id":"2934717102","name":"Escola Estadual Amélia Bittencourt Cardinale","tags":"amenity:school","lat":-3.1044913,"lng":-60.061241},{"id":"2934717105","name":"Centro Social Urbano da Compensa","tags":"leisure:sports_centre","lat":-3.1048475,"lng":-60.0620323},{"id":"2934720687","name":"Escola Muncipal Prof Percília dos Nascimento Souza","tags":"amenity:school","lat":-3.1069874,"lng":-60.0596049},{"id":"2934721674","name":"CMEI Prof Elza Cruz de Oliveira","tags":"amenity:school","lat":-3.1072285,"lng":-60.0600501},{"id":"2934721675","name":"Escola Muncipal São José","tags":"amenity:school","lat":-3.1072472,"lng":-60.060431},{"id":"2934731749","name":"Caixa Eletrônico 24h","tags":"amenity:atm","lat":-3.108956,"lng":-60.061697},{"id":"2934774872","name":"Supermercado Verona","tags":"shop:supermarket","lat":-3.108881,"lng":-60.0613054},{"id":"2934784764","name":"Escola Municipal São Pedro","tags":"amenity:school","lat":-3.10849,"lng":-60.0572579},{"id":"2934798439","name":"Escola Mun. Ministro Mário Andreazza","tags":"amenity:school","lat":-3.1071294,"lng":-60.0550746},{"id":"2935800967","name":"Escola Estadual Júlia Bittencourt","tags":"amenity:school","lat":-3.1085926,"lng":-60.051575},{"id":"2935813577","name":"Banco do Brasil","tags":"amenity:bank,brand:Banco do Brasil,brand:wikidata:Q610817,brand:wikipedia:en:Banco do Brasil","lat":-3.1078748,"lng":-60.0534445},{"id":"2935829663","tags":"amenity:bank,brand:Banco Bradesco","lat":-3.1046422,"lng":-60.0553891},{"id":"2935829665","name":"Bradesco","tags":"amenity:bank,brand:Banco Itaú","lat":-3.1056331,"lng":-60.0557056},{"id":"2935863590","name":"Centro Educacional São Francisco","tags":"amenity:school","lat":-3.1037315,"lng":-60.05139},{"id":"5472816606","name":"Ciaxa Econômica Federal","tags":"amenity:bank","lat":-3.1084479,"lng":-60.053065}]