[{"id":"1478449260","name":"Tanques dos Peixe-Boi","tags":"tourism:attraction","lat":-3.0968952,"lng":-59.9872485},{"id":"1480188504","name":"Casa da Ciência","tags":"tourism:attraction","lat":-3.0972812,"lng":-59.9867101},{"id":"1724642623","tags":"amenity:bar","lat":-3.0976135,"lng":-59.99422},{"id":"1728626325","name":"Sede","tags":"addr:housenumber:47,addr:street:Avenida Rodrigo Otávio,amenity:post_office,opening_hours:Mo-Fr 08:00-16:00","lat":-3.0933783,"lng":-59.9872412},{"id":"2979808818","name":"Casa da Sopa","tags":"amenity:restaurant","lat":-3.0971436,"lng":-59.9958172},{"id":"2979863083","name":"Aslan Idiomas","tags":"amenity:school","lat":-3.0956626,"lng":-59.991346},{"id":"2984440144","name":"Coperia Brahma Express","tags":"amenity:bar","lat":-3.0967502,"lng":-59.9923003},{"id":"3012486904","name":"Máquina de Acessórios Bosh","tags":"shop:convenience","lat":-3.093845,"lng":-59.9871351},{"id":"3012492345","name":"Andrie Refeições","tags":"amenity:restaurant","lat":-3.0939414,"lng":-59.986942},{"id":"3012492346","name":"Bar Miros","tags":"amenity:bar","lat":-3.0939092,"lng":-59.9866469},{"id":"3012492348","name":"Mercearia Soráia","tags":"shop:convenience","lat":-3.0936575,"lng":-59.9868347},{"id":"3012492349","name":"Churrascaria Nelore","tags":"amenity:restaurant","lat":-3.0941289,"lng":-59.9867006},{"id":"3012492350","name":"Lulis","tags":"amenity:bar","lat":-3.0941182,"lng":-59.9864699},{"id":"3012496425","name":"Mercearia Dois Irmãos","tags":"shop:convenience","lat":-3.0936896,"lng":-59.985456},{"id":"3012496426","name":"Mercadinho Alencar","tags":"shop:convenience","lat":-3.0936896,"lng":-59.9859388},{"id":"3012496432","name":"Casa Abraham","tags":"shop:convenience","lat":-3.0939789,"lng":-59.9856062},{"id":"4771978079","name":"Bosque da Ciência","tags":"tourism:attraction","lat":-3.0974306,"lng":-59.9877318},{"id":"4804260687","name":"Clube dos Oficiais da Policia Militar","tags":"leisure:sports_centre","lat":-3.0973482,"lng":-59.9920785},{"id":"4938816523","name":"Restaurante do INPA","tags":"amenity:restaurant,name:pt:Restaurante do INPA","lat":-3.0958427,"lng":-59.9872371}]