[{"id":"3107827126","name":"Mercadinho da Baixinha","tags":"shop:convenience","lat":-3.0602485,"lng":-59.9604332},{"id":"3107827128","name":"Mercearia Serra Grande","tags":"shop:convenience","lat":-3.0613467,"lng":-59.9612325},{"id":"3107836929","name":"Mercadinho e Açougue Campelo","tags":"shop:convenience","lat":-3.0607414,"lng":-59.9613934},{"id":"3107836930","name":"Loteria Novo Aleixo","tags":"amenity:bank","lat":-3.0607173,"lng":-59.9621149},{"id":"4698266989","name":"Café Bom","tags":"addr:housenumber:460,addr:postcode:69098-165,addr:street:Rua João Câmara,amenity:cafe,cuisine:breakfast,email:arneidemendonca11@hotmail.com,name:pt:Café Bom,opening_hours:Mo-Sa 06:00-10:00","lat":-3.0604898,"lng":-59.9616467}]