[{"id":"3012610346","name":"Centro Educacional C Com Cristo","tags":"amenity:school","lat":-3.0925005,"lng":-59.9796893},{"id":"3012610348","name":"Mercado Marcada da Promessa","tags":"shop:convenience","lat":-3.092404,"lng":-59.9800004},{"id":"3012627090","name":"Casa Marcio","tags":"shop:convenience","lat":-3.0920934,"lng":-59.9782409},{"id":"3012627092","name":"Bar e Mercearia do Rai","tags":"amenity:bar","lat":-3.0910917,"lng":-59.9785466},{"id":"3012627095","name":"Móveis e Vidros","tags":"shop:convenience","lat":-3.090315,"lng":-59.9807997},{"id":"3012627098","name":"Mercadinho Alfredo","tags":"shop:convenience","lat":-3.0903846,"lng":-59.9794103},{"id":"3012627100","name":"Escola Tom e Jerry","tags":"amenity:school","lat":-3.091472,"lng":-59.980113},{"id":"3012627104","name":"Mercearia Luiza","tags":"shop:convenience","lat":-3.0922487,"lng":-59.9782838},{"id":"3012627105","name":"Bar do Leal","tags":"amenity:bar","lat":-3.0914184,"lng":-59.9790992},{"id":"3012627106","name":"Mercadinho Oliveira","tags":"shop:convenience","lat":-3.0904489,"lng":-59.9808051},{"id":"3012627108","name":"Escola Municipal Bem-Te-Vi","tags":"amenity:school","lat":-3.0900846,"lng":-59.979641},{"id":"3012627109","name":"Mercadinho ML","tags":"shop:convenience","lat":-3.0905614,"lng":-59.9806066},{"id":"3012660775","name":"Casa Canaã","tags":"shop:convenience","lat":-3.0887455,"lng":-59.9824144},{"id":"3012660779","name":"Mercadinho Santos","tags":"shop:convenience","lat":-3.0889062,"lng":-59.9824305},{"id":"3012660781","name":"Escola Estadual Professora Mirthes Marques Trigueiro","tags":"amenity:school","lat":-3.0884616,"lng":-59.9812396},{"id":"3012722183","name":"Bilhar Dois Mil","tags":"shop:convenience","lat":-3.0871706,"lng":-59.9803062},{"id":"3012722184","name":"Mercadinho Frota","tags":"shop:convenience","lat":-3.0873581,"lng":-59.9808211},{"id":"3012722185","name":"Comercio Santos","tags":"shop:convenience","lat":-3.0881512,"lng":-59.9809204},{"id":"3012722186","name":"Ferragem Material de Construção","tags":"shop:convenience","lat":-3.0875724,"lng":-59.9809553},{"id":"3012722189","name":"Leticia Variedades","tags":"shop:convenience","lat":-3.0872563,"lng":-59.981143},{"id":"3012722191","name":"DM Escola de Informática","tags":"amenity:school","lat":-3.0890294,"lng":-59.9824144},{"id":"3012722193","name":"Casa da Verdura","tags":"shop:convenience","lat":-3.087492,"lng":-59.9804778},{"id":"3012722195","name":"Ponto da Yêda","tags":"shop:convenience","lat":-3.0882473,"lng":-59.9809872},{"id":"3012722202","name":"Casa Canoa","tags":"shop:convenience","lat":-3.0876581,"lng":-59.9806066},{"id":"3012741370","name":"Escola Estadual Maria Arminda G de Andrade","tags":"amenity:school","lat":-3.0874974,"lng":-59.9782194},{"id":"3012741372","name":"Larissa Piscinas","tags":"shop:convenience","lat":-3.087492,"lng":-59.9799199}]