[{"id":"1812415288","name":"Supermercados DB","tags":"shop:supermarket","lat":-3.1207237,"lng":-59.9812481},{"id":"2967875775","name":"Centro de Ensino Alonso Souza","tags":"amenity:school","lat":-3.120318,"lng":-59.9842767},{"id":"2976032549","name":"Geralção Saúde","tags":"leisure:sports_centre","lat":-3.1210639,"lng":-59.9845878},{"id":"2976054087","name":"JC Alumínio","tags":"shop:convenience","lat":-3.1216156,"lng":-59.9851779},{"id":"2976054089","name":"Padaria Nordeste","tags":"shop:convenience","lat":-3.122944,"lng":-59.9844645},{"id":"2976054091","name":"Farides Refeições","tags":"amenity:restaurant","lat":-3.1219584,"lng":-59.9853281},{"id":"2977400430","name":"JC Aluminio","tags":"shop:convenience","lat":-3.1212908,"lng":-59.9850267},{"id":"2979399741","name":"Academia Jiu-Jitsu Orley Lobato","tags":"leisure:sports_centre","lat":-3.1202785,"lng":-59.9833315},{"id":"2979450292","name":"Mercadinho e Açougue Everaldo","tags":"shop:convenience","lat":-3.1231361,"lng":-59.9849167},{"id":"2979450297","name":"Drogaria Avenida","tags":"amenity:pharmacy","lat":-3.1226808,"lng":-59.9852976},{"id":"3998382326","name":"Fast Temaki","tags":"amenity:restaurant,cuisine:sushi","lat":-3.1221076,"lng":-59.9811391},{"id":"3998384989","name":"Sou Fit","tags":"leisure:sports_centre,sport:athletics","lat":-3.1203346,"lng":-59.9821101}]