[{"id":"3000380651","name":"Consel Color","tags":"shop:convenience","lat":-3.1091324,"lng":-60.0412588},{"id":"3000380652","name":"Comercio de Seu João","tags":"shop:convenience","lat":-3.1095127,"lng":-60.0423101},{"id":"3000380656","name":"Mercadinho do Bosco","tags":"shop:convenience","lat":-3.1094939,"lng":-60.0417683},{"id":"3000380661","name":"Empório das Miudezas","tags":"shop:convenience","lat":-3.1095153,"lng":-60.04242},{"id":"3000380662","name":"Drogaria Kauã","tags":"amenity:pharmacy,healthcare:pharmacy","lat":-3.1093091,"lng":-60.0426453},{"id":"3000380663","name":"Loja de Roupa Intima","tags":"shop:convenience","lat":-3.1094136,"lng":-60.0412425},{"id":"3000380666","name":"Mercearia do Benilson","tags":"shop:convenience","lat":-3.1092154,"lng":-60.0417468},{"id":"3000380675","name":"Comercio Novo Encanto","tags":"shop:convenience","lat":-3.1094725,"lng":-60.0404459},{"id":"3000444524","name":"MEA Moda Praia","tags":"shop:convenience","lat":-3.1094404,"lng":-60.0435171},{"id":"3000444525","name":"Comercial José Fernando","tags":"shop:convenience","lat":-3.1097644,"lng":-60.0442091},{"id":"3002839602","name":"Alves","tags":"shop:convenience","lat":-3.1092582,"lng":-60.0467411},{"id":"3002872143","name":"Matheus","tags":"shop:convenience","lat":-3.1093814,"lng":-60.0498417},{"id":"3002890134","name":"Alex Materiais de Construção","tags":"shop:convenience","lat":-3.1105438,"lng":-60.0489619},{"id":"3002952744","name":"Casa do Eletricista","tags":"shop:convenience","lat":-3.1106188,"lng":-60.0487527},{"id":"3003193534","name":"Buffet André dos Santos","tags":"shop:convenience","lat":-3.1096653,"lng":-60.0472078},{"id":"3003193535","name":"Mercadinho Santos","tags":"shop:convenience","lat":-3.1100242,"lng":-60.0474867},{"id":"3003193536","name":"Mercadinho Zé do Gás","tags":"shop:convenience","lat":-3.1096707,"lng":-60.0473902},{"id":"3003193575","name":"Beniza de Minna","tags":"shop:convenience","lat":-3.1097243,"lng":-60.0474975},{"id":"3004759359","name":"Comercio da Ivanilde","tags":"shop:convenience","lat":-3.1100558,"lng":-60.0484878},{"id":"3004759362","name":"Comercial JC II","tags":"shop:convenience","lat":-3.110029,"lng":-60.0488472},{"id":"3004778728","name":"Armarinho Ponto dos Descartáveis","tags":"shop:convenience","lat":-3.1093916,"lng":-60.0475222},{"id":"3004778729","name":"Mercadinho Guerreiro","tags":"shop:convenience","lat":-3.1103558,"lng":-60.0477153},{"id":"3004778730","name":"Bar do Alf","tags":"amenity:bar","lat":-3.1101522,"lng":-60.0472218},{"id":"3004816286","name":"A EE Revestimento LTDA","tags":"shop:convenience","lat":-3.1114646,"lng":-60.0458968},{"id":"3004816287","name":"Esquadrias de Vidro","tags":"shop:convenience","lat":-3.111395,"lng":-60.0461489},{"id":"3004816288","name":"Lôbo","tags":"shop:convenience","lat":-3.1114914,"lng":-60.0464654},{"id":"3004818999","name":"Mercadinho Deus Me Deu","tags":"shop:convenience","lat":-3.1110521,"lng":-60.0464171},{"id":"3004819003","name":"Quadra Poliesportiva Colégio Vida Alegre","tags":"leisure:sports_centre","lat":-3.1108861,"lng":-60.0471467},{"id":"3004819004","name":"Mercadinho Varejão Dois Irmãos","tags":"shop:convenience","lat":-3.1104632,"lng":-60.0466963},{"id":"3004819005","name":"Centro de Formação Vida Alegre","tags":"amenity:school","lat":-3.1104396,"lng":-60.0469353},{"id":"3004819008","name":"Escola Estadual Irmã Adonai Politi","tags":"amenity:school","lat":-3.1108111,"lng":-60.0469106},{"id":"3004819009","name":"JC Comércio","tags":"shop:convenience","lat":-3.1106756,"lng":-60.0464847},{"id":"3004835765","name":"Gelomatil","tags":"shop:convenience","lat":-3.1113039,"lng":-60.0456607},{"id":"3004835766","name":"Casa Silva","tags":"shop:convenience","lat":-3.1104361,"lng":-60.0458914},{"id":"3004835767","name":"Rainha do Carangueijo","tags":"shop:convenience","lat":-3.1098469,"lng":-60.0459343},{"id":"3004835768","name":"Mercadinho Baratão da Vila","tags":"shop:convenience","lat":-3.1114681,"lng":-60.0456586},{"id":"3004873029","name":"Lava Jato do Paulo","tags":"amenity:car_wash","lat":-3.1099166,"lng":-60.0454032},{"id":"3004873030","name":"Armarinho Ximentes Presentes","tags":"shop:convenience","lat":-3.1101308,"lng":-60.0446415},{"id":"3004873032","name":"Módulo Saúde da Família","tags":"amenity:hospital,healthcare:hospital","lat":-3.1111218,"lng":-60.0445074},{"id":"3004884737","name":"G e M Variedades","tags":"shop:convenience","lat":-3.1103665,"lng":-60.0446415},{"id":"3004884747","name":"Skina Grill","tags":"amenity:restaurant","lat":-3.1104201,"lng":-60.0448668},{"id":"3004884748","name":"Mercadinho Baratão","tags":"shop:convenience","lat":-3.1099862,"lng":-60.0448883},{"id":"3004884754","name":"Comercial Veja","tags":"shop:convenience","lat":-3.109863,"lng":-60.0451726},{"id":"3004884765","name":"Mercadinho Araújo","tags":"shop:convenience","lat":-3.111336,"lng":-60.0449687},{"id":"4028761988","name":"Nova Era","tags":"shop:supermarket","lat":-3.1106922,"lng":-60.0504951},{"id":"4397807862","name":"Supermercado DB","tags":"addr:street:Rua Padre Agostinho Caballero Martins,shop:supermarket","lat":-3.1114662,"lng":-60.0508751},{"id":"9234036165","name":"Bar do Beiço","tags":"amenity:bar","lat":-3.1097708,"lng":-60.0443643}]