[{"id":"2507874119","name":"Escola Estadual","tags":"amenity:school","lat":-3.0194371,"lng":-59.9887167},{"id":"3005664827","name":"Clínica e Hospital São Sebastião","tags":"amenity:hospital,healthcare:hospital","lat":-3.0198521,"lng":-59.9931763},{"id":"3005670092","name":"Escola CETAF","tags":"amenity:school","lat":-3.0207199,"lng":-59.9934472},{"id":"3005679312","name":"E. M. Nina Lins","tags":"amenity:school","lat":-3.0160299,"lng":-59.9936053},{"id":"5263721522","name":"Supermercado Rodrigues","tags":"addr:street:Avenida Samaúma,shop:supermarket","lat":-3.0183455,"lng":-59.9902497}]