[{"id":"2632398084","name":"Centro Educacional Lato Sensu","tags":"amenity:school","lat":-3.0939261,"lng":-60.0043808},{"id":"2979752636","name":"Auto Posto de Lavagem","tags":"amenity:car_wash","lat":-3.095925,"lng":-60.0036734},{"id":"2979752637","name":"Doce Maria","tags":"shop:convenience","lat":-3.0970633,"lng":-60.0032147},{"id":"2979752638","name":"Bar do CB","tags":"amenity:bar","lat":-3.0965919,"lng":-60.0004252},{"id":"2979752639","name":"Mercadinho Três Irmãos","tags":"shop:convenience","lat":-3.096343,"lng":-60.0007733},{"id":"2979752643","name":"Navarro","tags":"shop:convenience","lat":-3.0961071,"lng":-60.002748},{"id":"2979752645","name":"Mercadinho Frota Dois","tags":"shop:convenience","lat":-3.0963696,"lng":-60.0047355},{"id":"2979758625","name":"Mercadinho Ponta da Economia","tags":"shop:convenience","lat":-3.0967848,"lng":-59.999921},{"id":"7861742893","name":"Drogasil","tags":"amenity:pharmacy,brand:Drogasil,brand:wikidata:Q5308185,brand:wikipedia:pt:Drogasil,dispensing:yes,healthcare:pharmacy,wheelchair:yes","lat":-3.0927458,"lng":-59.9976025}]