[{"id":"2976054085","name":"Bar Conecção","tags":"amenity:bar","lat":-3.1224298,"lng":-59.9866049},{"id":"2976054086","name":"Henrry Uniformes","tags":"shop:convenience","lat":-3.1222316,"lng":-59.9872271},{"id":"2976054088","name":"Mercadinho S Um","tags":"shop:convenience","lat":-3.1224673,"lng":-59.986283},{"id":"2976054090","name":"Gráfica Ziló","tags":"shop:convenience","lat":-3.122869,"lng":-59.9871681},{"id":"2977439118","name":"Peixaria Jorge do Peixe","tags":"amenity:restaurant","lat":-3.122322,"lng":-59.985539},{"id":"2977465278","name":"Materiais de Construção","tags":"shop:convenience","lat":-3.1235647,"lng":-59.9871134},{"id":"2977465281","name":"Loja de Confecções Kleane","tags":"shop:convenience","lat":-3.121639,"lng":-59.9871242},{"id":"2977484885","name":"Centro Universitário Nilton Lins","tags":"amenity:school","lat":-3.1253323,"lng":-59.9891144},{"id":"2977510897","name":"Mcercadinho Tavares","tags":"shop:convenience","lat":-3.1222657,"lng":-59.9891385},{"id":"2977510900","name":"Bar do Vasco","tags":"amenity:bar","lat":-3.1224425,"lng":-59.9893558},{"id":"2977510902","name":"Mercadinho Queiroz","tags":"shop:convenience","lat":-3.120174,"lng":-59.9880281},{"id":"2977510910","name":"Bar Vanessa","tags":"amenity:bar","lat":-3.1206454,"lng":-59.9881836},{"id":"2977517483","name":"JR Fashion","tags":"shop:convenience","lat":-3.1202261,"lng":-59.9873016},{"id":"2979450295","name":"Unidade Básica de Saúde da Família S-34","tags":"amenity:school","lat":-3.121489,"lng":-59.9853807}]