[{"id":"1933111874","name":"Caixa Econômica Federal","tags":"addr:housenumber:1109,addr:postcode:69025-360,addr:street:Avenida Álvaro Botelho Maia,alt_name:Agência Boulevard - 3040,amenity:bank,atm:yes,brand:Caixa Econômica Federal,brand:wikidata:Q835283,brand:wikipedia:pt:Caixa Econômica Federal,old_name:CAIXA","lat":-3.115673,"lng":-60.0221112},{"id":"2313041685","name":"Drogaria Avenida","tags":"amenity:pharmacy,healthcare:pharmacy","lat":-3.1160808,"lng":-60.0194371},{"id":"2313041688","tags":"amenity:bank,brand:Banco HSBC","lat":-3.1172719,"lng":-60.0206057},{"id":"2313053219","name":"Banco Real","tags":"amenity:bank,brand:Banco da Amazônia","lat":-3.1161118,"lng":-60.0226775},{"id":"2313053222","name":"Drogaria Angélica","tags":"amenity:pharmacy,healthcare:pharmacy","lat":-3.1160964,"lng":-60.0224679},{"id":"2313053225","name":"Escola Municipal","tags":"amenity:school","lat":-3.1175147,"lng":-60.0220181},{"id":"2392961987","name":"Banco Santander","tags":"amenity:bank,atm:yes,brand:Banco Santander,brand:wikidata:Q6496310,brand:wikipedia:es:Banco Santander,official_name:Santander Group,operator:Santander","lat":-3.1176683,"lng":-60.0238036},{"id":"2394052134","name":"Bradesco","tags":"amenity:bank,brand:Bradesco,brand:wikidata:Q806181,brand:wikipedia:en:Banco Bradesco","lat":-3.1156696,"lng":-60.022377},{"id":"3131573222","name":"Mercadinho Ayrão","tags":"shop:convenience","lat":-3.1172847,"lng":-60.0208911},{"id":"3131637041","name":"Itaú","tags":"amenity:bank,brand:Itaú Unibanco,brand:wikidata:Q1424293,brand:wikipedia:pt:Itaú Unibanco","lat":-3.115573,"lng":-60.0209331}]