[{"id":"3064156994","name":"Algo Mais","tags":"shop:convenience","lat":-8.0533671,"lng":-48.4865299},{"id":"3064288982","name":"Farmacia Econômica","tags":"addr:city:Colinas do Tocantins,addr:postcode:77760-000,addr:street:Avenida Pedro Ludovico Teixeira,amenity:pharmacy,healthcare:pharmacy","lat":-8.0547959,"lng":-48.4835688},{"id":"3064288983","name":"Supermercado Rocha","tags":"addr:city:Colinas do Tocantins,addr:postcode:77760-000,addr:street:Avenida Pedro Ludovico Teixeira,shop:supermarket","lat":-8.0549114,"lng":-48.4834011},{"id":"3064288985","name":"Kostelão","tags":"addr:city:Colinas do Tocantins,addr:postcode:77760-000,addr:street:Avenida Pedro Ludovico Teixeira,amenity:restaurant","lat":-8.0548158,"lng":-48.4830887},{"id":"9559220048","name":"Rede De Ensino Proposito - Rep","tags":"addr:city:Colinas do Tocantins,addr:housenumber:204,addr:postcode:77760-000,addr:street:Rua Beira Lago,addr:suburb:Jardim Campo Clube,amenity:school","lat":-8.0564756,"lng":-48.4855561}]