[{"id":"3551376250","name":"Mateus Restaurante","tags":"amenity:restaurant","lat":-6.0991348,"lng":-49.5976045},{"id":"3551386956","name":"Cosmol","tags":"shop:supermarket","lat":-6.0991718,"lng":-49.6005668},{"id":"3551408736","name":"Club Natural Bosque","tags":"amenity:nightclub","lat":-6.0979607,"lng":-49.6017829},{"id":"3560150587","name":"Bradesco","tags":"amenity:bank,atm:yes","lat":-6.0978738,"lng":-49.6004762},{"id":"3560158417","name":"Supermercado Real","tags":"shop:supermarket","lat":-6.0979287,"lng":-49.599558},{"id":"3560164522","name":"Correios","tags":"amenity:bank,atm:no","lat":-6.0982235,"lng":-49.599834},{"id":"6328122885","name":"Bradesco","tags":"addr:street:Avenida Pernambuco,amenity:bank","lat":-6.098222,"lng":-49.600466}]