[{"id":"5819517047","name":"Cachorrão Lanches e Carne De Sol","tags":"addr:street:Travessa Comandante Castilho,amenity:restaurant,cuisine:Sun_dried_meat","lat":-3.2035585,"lng":-52.2087037},{"id":"5825940182","name":"Supermercado Dias","tags":"addr:street:Rua Manoel Umbuzeiro,shop:supermarket","lat":-3.2044457,"lng":-52.2128446},{"id":"5825940183","name":"Ativa","tags":"addr:street:Travessa Dez de Novembro,leisure:fitness_centre","lat":-3.2052688,"lng":-52.2140498},{"id":"5851750097","name":"Santander","tags":"addr:street:Travessa Dez de Novembro,amenity:bank,atm:yes,brand:Santander,brand:wikidata:Q5835668,brand:wikipedia:en:Santander Bank,drive_through:no,operator:Santander","lat":-3.2060428,"lng":-52.2126458},{"id":"5851750098","name":"Yeshua","tags":"addr:street:Travessa Dez de Novembro,shop:books","lat":-3.205582,"lng":-52.213306},{"id":"5871247704","tags":"addr:street:Travessa Pedro Gomes,amenity:pharmacy,dispensing:yes,healthcare:pharmacy","lat":-3.2074578,"lng":-52.2161461},{"id":"5871247705","name":"Modelo","tags":"addr:street:Travessa Pedro Gomes,shop:books","lat":-3.2075602,"lng":-52.2164771},{"id":"7419496146","name":"Tal da Pizza","tags":"addr:city:Altamira,addr:street:Travessa Agrário Cavalcante,addr:suburb:Centro,amenity:restaurant,cuisine:pizza","lat":-3.2078757,"lng":-52.2127474},{"id":"8619428888","name":"EMEF Prof Antônio Gondin Lins","tags":"amenity:school","lat":-3.2069516,"lng":-52.2082951}]