[{"id":"4189917953","name":"Lava Jato","tags":"amenity:car_wash","lat":-1.9047351,"lng":-55.5202204},{"id":"4202179790","name":"Mercadinho Canto da Amizade","tags":"shop:supermarket","lat":-1.9044607,"lng":-55.5201531},{"id":"4202179791","name":"Mercadinho do Canto","tags":"shop:supermarket","lat":-1.9018843,"lng":-55.5206003},{"id":"4266505224","name":"Expresso do Negão","tags":"addr:street:Rua Tiradentes,amenity:restaurant","lat":-1.9052162,"lng":-55.5171598},{"id":"5337411421","name":"Minibox da Paz","tags":"addr:postcode:68250000,addr:street:Travessa Horácio de Azevedo,name:en:Minibox the peace,shop:supermarket","lat":-1.9048027,"lng":-55.5192721},{"id":"7019188289","name":"Farmácia popular","tags":"addr:postcode:68250000,addr:street:Rua Presidente Washington Luís,amenity:pharmacy,opening_hours:Mo-Sa 08:00-18:00","lat":-1.901838,"lng":-55.5208703}]