[{"id":"4165806718","name":"Supermercado Santa Maria","tags":"shop:supermarket","lat":-1.9186251,"lng":-55.5143391},{"id":"4165806719","name":"Famácia Parente","tags":"amenity:pharmacy","lat":-1.9187477,"lng":-55.5147244},{"id":"4165806720","tags":"amenity:pharmacy","lat":-1.9184404,"lng":-55.5157856},{"id":"4165806721","tags":"amenity:pharmacy","lat":-1.9182817,"lng":-55.5158101},{"id":"4261835089","name":"Loterica","tags":"amenity:bank","lat":-1.9188017,"lng":-55.5155764},{"id":"4263673589","name":"Magazan Center","tags":"addr:street:Travessa Rui Barbosa,shop:supermarket","lat":-1.9172504,"lng":-55.5152095},{"id":"4304981191","name":"Maloca","tags":"addr:street:Rua Marcos Rodrigues de Souza,amenity:bar","lat":-1.9179227,"lng":-55.5157964},{"id":"7019188187","name":"Farmácia Beira Mar","tags":"addr:housenumber:32,addr:postcode:68250000,addr:street:Rua Almirante Tamandaré,amenity:pharmacy,opening_hours:Mo-Sa 08:00-12:00, 14:30-18:00","lat":-1.9190771,"lng":-55.5148254},{"id":"8375722093","name":"Garganta do Rio Amazonas","tags":"alt_name:Fivela do Rio Amazonas,tourism:attraction","lat":-1.9223405,"lng":-55.5227154}]