[{"id":"887088360","name":"Primavera Rodagem","tags":"amenity:pharmacy,healthcare:pharmacy","lat":-2.4306712,"lng":-54.7253834},{"id":"887154949","name":"UFOPA - Universidade Federal do Oeste do Pará - Campus Rondon","tags":"addr:city:Santarém,addr:street:Avenida Marechal Rondon,addr:suburb:Aparecida,amenity:university,internet_access:yes,operator:Governo Federal,wheelchair:limited","lat":-2.4288746,"lng":-54.7315763},{"id":"1900350623","name":"Capone","tags":"amenity:restaurant,cuisine:pizza","lat":-2.4332066,"lng":-54.7236464},{"id":"1900359325","tags":"amenity:pharmacy,healthcare:pharmacy","lat":-2.4327365,"lng":-54.7262693},{"id":"2577259034","name":"Biblioteca da Ufopa - Rondon","tags":"addr:city:Santarém,addr:street:Avenida Marechal Rondon,addr:suburb:Aparecida,amenity:library,internet_access:yes,operator:Ufopa","lat":-2.4291135,"lng":-54.731449},{"id":"4000003082","name":"Academia Vitaly","tags":"addr:street:Avenida Borges Leal,leisure:sports_centre,level:1","lat":-2.4323315,"lng":-54.7334987},{"id":"6637278302","tags":"amenity:atm,operator:24 horas","lat":-2.4288692,"lng":-54.7251491},{"id":"6637280429","name":"Banco do Brasil","tags":"amenity:atm,brand:Banco do Brasil,brand:wikidata:Q610817,operator:Banco do Brasil,operator:wikidata:Q610817","lat":-2.4303164,"lng":-54.7252089}]