[{"id":"895843658","name":"CR turiano","tags":"addr:housename:Avenida turiano meira,operator:supermarket,shop:supermarket","lat":-2.4427514,"lng":-54.7067595},{"id":"2573244565","name":"Caixas eletrônicos no cr Turiano","tags":"addr:housename:Avenida turiano meira,amenity:bank,atm:yes","lat":-2.4425764,"lng":-54.7070718},{"id":"2644447106","name":"Farmácia Primavera Cohab","tags":"addr:street:Avenida Curuá-una,amenity:pharmacy,healthcare:pharmacy,opening_hours:Mo-Fr 08:00-18:00","lat":-2.4433439,"lng":-54.7036072},{"id":"2644464497","name":"Cohabão","tags":"amenity:bar","lat":-2.4441483,"lng":-54.705949},{"id":"3780328662","name":"Planalto Cohab","tags":"amenity:pharmacy,healthcare:pharmacy","lat":-2.4427356,"lng":-54.7037923}]