[{"id":"2323816325","name":"Biblioteca da Universidade Federal do Amapá","tags":"amenity:library","lat":-0.0074516,"lng":-51.0846659},{"id":"2326218063","tags":"amenity:pharmacy,healthcare:pharmacy","lat":-0.008442,"lng":-51.0816606},{"id":"2326218066","tags":"amenity:restaurant","lat":-0.008747,"lng":-51.08079},{"id":"5269979358","tags":"amenity:parking,parking:garage_boxes","lat":-0.006188,"lng":-51.0850404},{"id":"10572116520","name":"Leitura","tags":"shop:books","lat":-0.0085398,"lng":-51.0815327},{"id":"10572116526","name":"Companhia Paulista de Pizza","tags":"amenity:restaurant,cuisine:pizza","lat":-0.0085293,"lng":-51.080876},{"id":"10572116529","name":"Cozinha Amapaense","tags":"amenity:restaurant,cuisine:regional","lat":-0.0084841,"lng":-51.0810089},{"id":"10572116532","name":"Unama Macapá","tags":"amenity:university","lat":-0.0083241,"lng":-51.0805393}]