[{"id":"8940024442","name":"Studio Beca - Design de Sobracelhas","tags":"addr:city:Imperatriz,addr:housenumber:113,addr:postcode:65910-185,addr:street:Rua Padre Anchieta,addr:suburb:Vila Lobão,air_conditioning:yes,beauty:nails,opening_hours:Mo-Su 09:00-21:00,opening_hours:covid19:Mo-Su 08:00-20:00,phone:+55 99 9 8187 8775,shop:beauty","lat":-5.5059843,"lng":-47.4647758},{"id":"9117928637","name":"Em Lago Do Cisne","tags":"addr:city:Imperatriz,addr:housenumber:1005,addr:postcode:65910-550,addr:street:Rua Marechal Hermes da Fonseca,addr:suburb:Vila Redenção,amenity:school","lat":-5.5092481,"lng":-47.4613707},{"id":"9117938497","name":"Escola Dos Amiguinhos","tags":"addr:city:Imperatriz,addr:postcode:65910-185,addr:street:Rua São José,addr:suburb:Vila Lobão,amenity:school","lat":-5.5066824,"lng":-47.4644364},{"id":"9927259612","name":"Supermercado Ribeiro","tags":"shop:supermarket","lat":-5.5088017,"lng":-47.4650823},{"id":"9939265445","name":"Delegacia de Polícia Civil - 5º Distrito Policial","tags":"amenity:police","lat":-5.5092092,"lng":-47.4648345},{"id":"9939265446","name":"Drogaria Alves","tags":"amenity:pharmacy,dispensing:yes,healthcare:pharmacy","lat":-5.5086007,"lng":-47.4649921}]