[{"id":"9545274938","name":"Banco do Brasil","tags":"addr:city:Sítio Novo do Tocantins,addr:postcode:77940-000,amenity:bank,brand:Banco do Brasil,brand:wikidata:Q610817,brand:wikipedia:en:Banco do Brasil","lat":-5.6032031,"lng":-47.6407323},{"id":"9545274945","tags":"addr:city:Sítio Novo do Tocantins,addr:postcode:77940-000,amenity:post_office,operator:Correios,operator:wikidata:Q3375004,operator:wikipedia:en:Correios","lat":-5.6033575,"lng":-47.639902},{"id":"9545274948","name":"Farmacia do Trabalhador","tags":"addr:city:Sítio Novo do Tocantins,addr:postcode:77940-000,amenity:pharmacy,dispensing:yes,healthcare:pharmacy","lat":-5.6033973,"lng":-47.6399009},{"id":"9545274949","name":"Supermecado Tatiana","tags":"addr:city:Sítio Novo do Tocantins,addr:postcode:77940-000,shop:supermarket","lat":-5.6037698,"lng":-47.6398487},{"id":"9545274950","name":"Academia Corpus","tags":"addr:city:Sítio Novo do Tocantins,addr:postcode:77940-000,leisure:fitness_centre","lat":-5.6035808,"lng":-47.6401297},{"id":"9545869748","name":"Bradesco","tags":"amenity:bank,brand:Bradesco,brand:wikidata:Q806181,brand:wikipedia:en:Banco Bradesco","lat":-5.6031598,"lng":-47.6397366}]