[{"id":"4474335591","name":"Ponto do Açaí","tags":"name:pt:Ponto do Açaí,shop:supermarket","lat":-3.0043034,"lng":-47.3500002},{"id":"4474335592","name":"Clube de Seresta","tags":"name:pt:Clube de Seresta,tourism:attraction","lat":-3.0030751,"lng":-47.3497891},{"id":"4474337292","name":"Igreja Assembleia De Deus","tags":"name:pt:Igreja Assembleia De Deus,tourism:attraction","lat":-3.0019493,"lng":-47.3501112},{"id":"4474342390","name":"Arnaldo Manoel Fernandes","tags":"amenity:school,name:pt:Arnaldo Manoel Fernandes","lat":-3.0028159,"lng":-47.3493358},{"id":"4484823090","name":"Correios Cid. Nova","tags":"amenity:post_office,name:pt:Correios Cid. Nova","lat":-2.9996308,"lng":-47.3508314}]