[{"id":"370206141","name":"Tasca Mercado","tags":"amenity:cafe","lat":-1.4541628,"lng":-48.4860811},{"id":"491465042","name":"Alemão Lanches","tags":"amenity:restaurant,crossing:uncontrolled,name:pt:Alemão Lanches","lat":-1.4512557,"lng":-48.4872807},{"id":"1393201626","name":"Território Lounge Bar","tags":"addr:housenumber:1321,addr:postcode:66035-170,addr:street:Travessa Benjamin Constant,amenity:bar,contact:facebook:http://www.facebook.com/pages/Territorio-Restaurante/193024827411453?sk=info","lat":-1.4534035,"lng":-48.4885232},{"id":"2632563609","name":"Colégio Marista Nossa Senhora de Nazaré","tags":"amenity:school","lat":-1.452593,"lng":-48.4852194},{"id":"3601734672","name":"Colégio Moderno","tags":"amenity:school","lat":-1.4554851,"lng":-48.4859208},{"id":"3601734673","name":"Domino's Pizza","tags":"amenity:restaurant,cuisine:pizza","lat":-1.4542961,"lng":-48.4860355},{"id":"3601734674","name":"The Burger Spot","tags":"amenity:restaurant,cuisine:burger","lat":-1.4540242,"lng":-48.4860962},{"id":"3601734678","name":"PizzaH!","tags":"amenity:restaurant,cuisine:pizza","lat":-1.4554213,"lng":-48.4855143},{"id":"3601734681","name":"Spoleto","tags":"amenity:restaurant,cuisine:italian","lat":-1.4542405,"lng":-48.4860526},{"id":"3608200635","name":"Café com Arte","tags":"amenity:bar","lat":-1.4542416,"lng":-48.4870891},{"id":"3608200637","name":"Divino Sabor","tags":"amenity:restaurant,cuisine:brazilian","lat":-1.4539743,"lng":-48.4861076},{"id":"3608200640","name":"Panificadora Camões","tags":"amenity:cafe,shop:bakery","lat":-1.4545136,"lng":-48.4870246},{"id":"3608200641","name":"Spazio Verdi","tags":"amenity:restaurant,cuisine:brazilian","lat":-1.4544907,"lng":-48.484165},{"id":"3608431325","name":"Big Ben","tags":"amenity:pharmacy","lat":-1.4542856,"lng":-48.4925061},{"id":"3608431332","name":"Farmácia do Trabalhador","tags":"amenity:pharmacy","lat":-1.4541644,"lng":-48.4925692},{"id":"3608431336","name":"La Traviata","tags":"amenity:restaurant,cuisine:italian","lat":-1.4502719,"lng":-48.486149},{"id":"3608431349","name":"Y. Yamada","tags":"shop:supermarket","lat":-1.4540456,"lng":-48.4923436},{"id":"4375122589","name":"Extrafarma","tags":"amenity:pharmacy","lat":-1.4545892,"lng":-48.485758},{"id":"4392536354","name":"Acqua Sport","tags":"addr:street:Travessa Benjamin Constant,addr:suburb:Nazaré,leisure:fitness_centre","lat":-1.4513356,"lng":-48.4900534},{"id":"4392536374","name":"Santander Select","tags":"amenity:bank,brand:Santander","lat":-1.4527002,"lng":-48.4888114},{"id":"4392536375","name":"Sobrancelhas Design","tags":"addr:housenumber:1035,addr:street:Travessa Benjamin Constant,addr:suburb:Nazaré,shop:beauty","lat":-1.4514033,"lng":-48.4899937},{"id":"4392536379","name":"Unopar","tags":"amenity:university","lat":-1.4528775,"lng":-48.4882632},{"id":"4785236522","name":"Restaurante Albatroz","tags":"amenity:restaurant,name:pt:Restaurante Albatroz","lat":-1.4536274,"lng":-48.4910448},{"id":"4785240621","name":"Churrascaria Albatroz","tags":"amenity:restaurant,name:pt:Churrascaria Albatroz","lat":-1.4534653,"lng":-48.4909643},{"id":"4905044031","name":"Restaurante Avenida","tags":"amenity:restaurant","lat":-1.4523424,"lng":-48.48313},{"id":"4905044032","name":"Extrafarma","tags":"amenity:pharmacy","lat":-1.4523518,"lng":-48.4829704},{"id":"9625315117","tags":"amenity:atm,operator:Bradesco","lat":-1.4534575,"lng":-48.4828508},{"id":"9823323072","name":"Restaurant Cantina Italiana","tags":"amenity:restaurant,cuisine:italian","lat":-1.4541537,"lng":-48.4883256}]