[{"id":"505204835","name":"Reduto","tags":"amenity:restaurant","lat":-1.4435459,"lng":-48.4907331},{"id":"505204838","name":"Bom do Trigo","tags":"shop:convenience","lat":-1.4438681,"lng":-48.4879215},{"id":"505204842","name":"Cia. Paulista de Pizza","tags":"amenity:restaurant,cuisine:pizza","lat":-1.4432503,"lng":-48.4900501},{"id":"505204843","name":"Boêmio","tags":"amenity:bar","lat":-1.4431645,"lng":-48.4901359},{"id":"505204844","name":"Doca Espeto","tags":"amenity:bar","lat":-1.4437371,"lng":-48.4905212},{"id":"505204866","name":"Faculdade Ideal","tags":"amenity:university,short_name:FACI","lat":-1.4418655,"lng":-48.4930224},{"id":"505204992","name":"Extrafarma","tags":"amenity:pharmacy","lat":-1.4440528,"lng":-48.4901893},{"id":"507113543","name":"Fuji Grill","tags":"amenity:restaurant","lat":-1.4422239,"lng":-48.4878898},{"id":"507113547","name":"Peixaria Amazonas","tags":"amenity:restaurant,cuisine:seafood","lat":-1.4405164,"lng":-48.4914175},{"id":"3098115689","tags":"amenity:parking","lat":-1.4410218,"lng":-48.4920722},{"id":"3645422450","name":"Roxy Bar","tags":"amenity:restaurant,cuisine:brazilian","lat":-1.4411559,"lng":-48.4896968},{"id":"4569775658","name":"Casa do Bacalhau","tags":"amenity:restaurant","lat":-1.4435702,"lng":-48.4849362},{"id":"4569775659","name":"Sushi Belem","tags":"amenity:restaurant","lat":-1.4439184,"lng":-48.4857232},{"id":"4569825675","name":"Kings Pub","tags":"amenity:restaurant","lat":-1.44415,"lng":-48.4858318},{"id":"5662356459","name":"Mia Cucina","tags":"addr:city:Belém,addr:country:BR,addr:housenumber:609,addr:postcode:66055-190,addr:state:PA,addr:street:Travessa Dom Romualdo Coelho,addr:suburb:Umarizal,amenity:restaurant,opening_hours:Mo-Th 11:00-19:00; Fr-Sa 10:00-21:00; Su 10:00-16:00; PH off","lat":-1.4401758,"lng":-48.4876737},{"id":"5662356466","name":"Dom Romualdo Restô e Grill","tags":"addr:city:Belém,addr:country:BR,addr:housenumber:767,addr:postcode:66050-110,addr:state:PA,addr:street:Travessa Dom Romualdo de Seixas,addr:suburb:Umarizal,amenity:restaurant","lat":-1.4397736,"lng":-48.4862266},{"id":"5662356468","name":"Escola Santa Emília","tags":"addr:city:Belém,addr:country:BR,addr:postcode:66050-110,addr:state:PA,addr:street:Travessa Dom Romualdo de Seixas,addr:suburb:Umarizal,amenity:school","lat":-1.4394692,"lng":-48.4872995},{"id":"5662356477","name":"Hospital Jean Bitar","tags":"amenity:hospital,operator:Secretaria de Saúde do Estado do Pará,owner:Governo do Estado do Pará","lat":-1.4401235,"lng":-48.4869723},{"id":"5662356486","name":"Via Paulista","tags":"addr:city:Belém,addr:country:BR,addr:housenumber:720,addr:postcode:66050-110,addr:state:PA,addr:street:Travessa Dom Romualdo de Seixas,addr:suburb:Umarizal,amenity:restaurant","lat":-1.4397555,"lng":-48.4868067}]