[{"id":"3886521199","name":"Escola Municipal Solermo Moreira","tags":"amenity:school","lat":-1.4631018,"lng":-48.4482894},{"id":"6860561071","name":"Escola de ensino fundamental ``novas luzes``","tags":"addr:street:Rua 6 de Setembro,addr:suburb:TERRA FIRME,amenity:school","lat":-1.4659583,"lng":-48.4484587},{"id":"6860561073","name":"Escola Priv. Infantil","tags":"amenity:school","lat":-1.4653817,"lng":-48.4485908},{"id":"6860561074","name":"Escola de reforço","tags":"amenity:school","lat":-1.4652554,"lng":-48.4490601},{"id":"6860561075","name":"Escola de reforço (Matematica, quimica e física)","tags":"amenity:school","lat":-1.464903,"lng":-48.4485649},{"id":"6860561076","name":"Escola Priv. Infantil","tags":"addr:street:Passagem Samaumeira,addr:suburb:TERRA FIRME,amenity:school","lat":-1.4644166,"lng":-48.4486388},{"id":"6868017622","name":"Biblioteca Comunitária","tags":"addr:street:Rua Universal,addr:suburb:TERRA FIRME,amenity:library","lat":-1.4628952,"lng":-48.4483466},{"id":"6903684603","name":"Escola de música","tags":"addr:street:Passagem Belo Horizonte,addr:suburb:TERRA FIRME,amenity:school","lat":-1.4617762,"lng":-48.4496715},{"id":"6903684608","name":"Igreja Evang. Deus é amor","tags":"addr:street:Rua da Paz,addr:suburb:Terra Firme,amenity:school","lat":-1.4632892,"lng":-48.4494084},{"id":"6903684609","name":"Escola de reforço","tags":"addr:street:Rua da Paz,addr:suburb:TERRA FIRME,amenity:school","lat":-1.4637674,"lng":-48.4485623},{"id":"6903684610","name":"Escola de reforço","tags":"addr:street:Rua da Paz,addr:suburb:TERRA FIRME,amenity:school","lat":-1.4641636,"lng":-48.4480116},{"id":"6935171422","name":"Bar da Teka","tags":"amenity:bar","lat":-1.4660738,"lng":-48.4481725},{"id":"6935171424","name":"Manicure e Pedicure","tags":"shop:beauty","lat":-1.4658985,"lng":-48.4483765},{"id":"6955769964","name":"Salão da teka","tags":"shop:beauty","lat":-1.4653069,"lng":-48.4478692},{"id":"6955769966","tags":"shop:beauty","lat":-1.4651135,"lng":-48.44826},{"id":"6955769967","tags":"shop:beauty","lat":-1.4650111,"lng":-48.4485181},{"id":"6955769975","name":"Manicure Pedicure","tags":"shop:beauty","lat":-1.4649997,"lng":-48.4474578},{"id":"6990658450","name":"Açai e Variedades","tags":"shop:convenience","lat":-1.4625495,"lng":-48.4482544},{"id":"6990658452","name":"Venda de Açai","tags":"shop:convenience","lat":-1.4620957,"lng":-48.4490854},{"id":"6990658453","name":"Mercearia","tags":"shop:convenience","lat":-1.4619969,"lng":-48.4492085},{"id":"6990658454","name":"Venda de açaí","tags":"shop:convenience","lat":-1.4618891,"lng":-48.4494637},{"id":"6990658457","name":"Mercearia da Dulce","tags":"shop:convenience","lat":-1.4637566,"lng":-48.4467713},{"id":"6990658458","name":"Pizzaria","tags":"amenity:restaurant,cuisine:pizza","lat":-1.4637035,"lng":-48.4467447},{"id":"6990658459","name":"Venda de Açaí","tags":"shop:convenience","lat":-1.4634576,"lng":-48.4473075},{"id":"6990658462","name":"Mercearia","tags":"shop:convenience","lat":-1.4635266,"lng":-48.4474207},{"id":"6990658467","name":"Mercearia","tags":"shop:convenience","lat":-1.4630929,"lng":-48.4480118},{"id":"6990658469","name":"Mercearia","tags":"shop:convenience","lat":-1.4626345,"lng":-48.4490501},{"id":"6990658470","name":"Escola Priv. Infantil","tags":"amenity:school","lat":-1.4625339,"lng":-48.4490045},{"id":"6990658472","name":"Mercearia","tags":"shop:convenience","lat":-1.462613,"lng":-48.4488704},{"id":"6990658476","name":"Mercearia","tags":"shop:convenience","lat":-1.4623744,"lng":-48.4492995},{"id":"6990658479","name":"Escola Priv. Infantil","tags":"amenity:school","lat":-1.4621934,"lng":-48.4496469},{"id":"7194072546","name":"Lava Jato","tags":"amenity:car_wash","lat":-1.4641122,"lng":-48.4479025},{"id":"7814364400","tags":"shop:beauty","lat":-1.4645265,"lng":-48.4469105},{"id":"7814364403","name":"mercadinho do cabeludo","tags":"shop:convenience","lat":-1.4637072,"lng":-48.4464607},{"id":"7814364408","name":"churrasco e peixe frito","tags":"amenity:restaurant,cuisine:steak_house","lat":-1.4632514,"lng":-48.4462142},{"id":"7906519192","name":"mercadinho dona bene","tags":"shop:convenience","lat":-1.462428,"lng":-48.4494218},{"id":"7906519193","tags":"shop:convenience","lat":-1.4624679,"lng":-48.4491247},{"id":"7906519195","tags":"shop:convenience","lat":-1.4628337,"lng":-48.4493203},{"id":"7906519199","tags":"shop:convenience","lat":-1.463041,"lng":-48.4490207}]