[{"id":"1844944874","tags":"amenity:grave_yard","lat":-1.4601165,"lng":-48.4671696},{"id":"2633530875","name":"Policia Federal - Delegacia de Imigração","tags":"addr:city:Belém,addr:housenumber:3554,addr:postcode:66063-040,addr:street:Ruas dos Caripunas,addr:suburb:Guamá,amenity:police,operator:Polícia Federal do Brasil,operator:en:Federal Police of Brazil,operator:wikidata:Q2289697,operator:wikipedia:pt:Polícia Federal do Brasil,phone:+55 91 3249 4575","lat":-1.4602532,"lng":-48.4707213},{"id":"4703925910","name":"Fapan-Faculdade Pan Amazônica","tags":"addr:housenumber:4010,addr:postcode:66063-230,addr:street:Rua dos Mundurucus,amenity:school,name:pt:Fapan-Faculdade Pan Amazônica,opening_hours:24/7,phone:+55 91 3039 1000,website:http://www.unilist.com.br/fapan/","lat":-1.4576952,"lng":-48.4697762},{"id":"5256387577","tags":"amenity:school","lat":-1.4590024,"lng":-48.4707544},{"id":"5534847522","name":"Unip Belém - Cremação","tags":"addr:housenumber:4010,addr:postcode:66063-230,addr:street:Rua dos Mundurucus,amenity:school,name:en:Unip Universidade Paulista - Cremação,opening_hours:Mo-Sa 07:00-23:00","lat":-1.4575951,"lng":-48.4699886},{"id":"9689013243","name":"Extrafarma","tags":"addr:city:Belém,addr:street:Rua dos Mundurucus,addr:suburb:Guamá,amenity:pharmacy,brand:Extrafarma,brand:wikidata:Q20055480,dispensing:yes,healthcare:pharmacy","lat":-1.4567441,"lng":-48.4617012},{"id":"9689013245","tags":"addr:city:Belém,addr:street:Rua dos Mundurucus,addr:suburb:Guamá,amenity:pharmacy,dispensing:yes,healthcare:pharmacy","lat":-1.4567818,"lng":-48.4615803},{"id":"9694079882","name":"Santo Dumont","tags":"addr:street:Alameda Antônio Pimenta Magalhães,amenity:school","lat":-1.4577798,"lng":-48.4632481},{"id":"9694110030","name":"Escola Bento XV","tags":"addr:street:Avenida José Bonifácio,amenity:school","lat":-1.4567009,"lng":-48.4690865}]