[{"id":"7455233085","tags":"shop:supermarket","lat":-1.3650313,"lng":-48.4059315},{"id":"8387413517","tags":"name:en:Playground and Open-Air Exercise Park,tourism:attraction","lat":-1.3656914,"lng":-48.4161997},{"id":"9808863869","name":"Dani Moreira Estética","tags":"addr:street:Travessa SN Três,shop:beauty","lat":-1.3639932,"lng":-48.4059679},{"id":"9808944982","name":"Mercadinho são Domingos","tags":"addr:housenumber:01,addr:street:Travessa WE 28,opening_hours:Mo-Su 09:00-21:00,shop:convenience","lat":-1.3623937,"lng":-48.4059774},{"id":"9808962926","name":"Konisan","tags":"addr:housenumber:02,addr:street:Travessa WE 28,amenity:restaurant,cuisine:japanese","lat":-1.3628457,"lng":-48.4057902}]