[{"id":"8560745811","name":"Bradesco","tags":"amenity:bank,brand:Bradesco,brand:wikidata:Q806181,brand:wikipedia:en:Banco Bradesco","lat":-1.674702,"lng":-47.7749793},{"id":"8560785668","name":"Orla municipal","tags":"leisure:park","lat":-1.6742664,"lng":-47.7728275},{"id":"8560785679","tags":"amenity:pharmacy,dispensing:yes,healthcare:pharmacy","lat":-1.6750224,"lng":-47.7731091},{"id":"8560785681","tags":"leisure:park","lat":-1.6742463,"lng":-47.771369},{"id":"8560984479","name":"praça matriz","tags":"leisure:park","lat":-1.6745873,"lng":-47.7756916},{"id":"8560984498","name":"mercado stª terezinha","tags":"shop:supermarket","lat":-1.6750649,"lng":-47.7736088}]