[{"id":"4527249488","name":"Restaurante Sabor da Terra","tags":"addr:street:Ladeira Antônio Carlos,addr:suburb:Centro,amenity:restaurant,internet_access:no,smoking:no,takeaway:yes","lat":-22.5384616,"lng":-44.7722526},{"id":"4768592222","tags":"amenity:police,operator:Secretaria da Segurança Pública do Estado de São Paulo","lat":-22.5389103,"lng":-44.7739471},{"id":"4768592226","name":"Banco Santander","tags":"amenity:bank,atm:yes,brand:Banco Santander,brand:en:Santander Bank,brand:es:Banco Santander,brand:wikidata:Q6496310,brand:wikipedia:es:Banco Santander,name:en:Santander Bank,name:es:Banco Santander,official_name:Santander Group,opening_hours:9:00 - 15:00","lat":-22.5408408,"lng":-44.7739181},{"id":"4768592227","name":"Bradesco","tags":"addr:postcode:12800-000,addr:street:Rua Padre Manoel Eufrásio,addr:suburb:Centro,amenity:bank,atm:yes,brand:Bradesco,brand:wikidata:Q806181,brand:wikipedia:en:Banco Bradesco,opening_hours:09:00 - 15:00","lat":-22.5391173,"lng":-44.7730641},{"id":"5888462757","name":"Quiosque do LIgadinho","tags":"addr:city:Queluz,addr:housenumber:157,addr:postcode:12800000,addr:street:Rua Prudente de Moraes,addr:suburb:Centro,amenity:restaurant,capacity:200,cuisine:burger;pizza,delivery:yes,opening_hours:Mo-Su 19:00-00:00,outdoor_seating:yes,shop:kiosk,smoking:separated,takeaway:yes","lat":-22.5396026,"lng":-44.7738046},{"id":"6085522021","name":"Praça de São Benedito","tags":"description:Praça de São Benedito, local para distração e diversão de crianças.,leisure:park","lat":-22.5433355,"lng":-44.7772327},{"id":"8349037204","name":"Hospital Municipal de Queluz","tags":"addr:city:Queluz - SP,addr:housenumber:65,addr:postcode:12800-000,addr:street:Ladeira Nossa Senhora de Fátima,addr:suburb:Centro,amenity:hospital,emergency:yes,healthcare:hospital,healthcare:speciality:general,operator:Instituto de Gestão, Administração e Treinamento em Saúde,operator:type:private,phone:+55 12 3147 1560","lat":-22.538505,"lng":-44.7729909}]