[{"id":"1811469296","name":"Preço Ótimo","tags":"shop:supermarket","lat":-22.9979001,"lng":-44.240038},{"id":"4244608907","tags":"amenity:restaurant","lat":-22.9976158,"lng":-44.240457},{"id":"4244609049","tags":"amenity:restaurant","lat":-22.9977113,"lng":-44.2406068},{"id":"4406917851","name":"Terminal Rodoviário Cornelis Verolme","tags":"amenity:bus_station","lat":-22.9963416,"lng":-44.2397084},{"id":"4411740599","name":"Biblioteca Raul Pompéia","tags":"amenity:library","lat":-22.9976681,"lng":-44.2399867},{"id":"9607705474","name":"Restaurante De Maria","tags":"amenity:restaurant","lat":-22.9972684,"lng":-44.2379793},{"id":"9607705476","tags":"access:private,amenity:parking","lat":-22.9970878,"lng":-44.241216}]