[{"id":"823943161","name":"Ciep Dr. Nelson Hungria","tags":"IPP:BAIRRO:Paciência,IPP:CHAVE:11773,IPP:CODATIVIDA:0,IPP:CODBAIRRO:148,IPP:COD_INEP:33084084,IPP:COD_SMA:011773,IPP:CRE:10,IPP:DESIGNACAO:1019503,IPP:ENDERECO:Rua Antonio J. Machado, S/Nº - Gouveias,IPP:ENDNOVO:http://webapp.sme.rio.rj.gov.br/jcartela/publico/pesquisa.do?idSetor=11773&cmd=load,IPP:FLG_VALIDA:S,IPP:TELEFONES:3314-5111,amenity:school","lat":-22.9220927,"lng":-43.6256281},{"id":"823948408","name":"Escola Municipal Gouveias","tags":"IPP:BAIRRO:Paciência,IPP:CHAVE:11776,IPP:CODATIVIDA:0,IPP:CODBAIRRO:148,IPP:COD_INEP:33083959,IPP:COD_SMA:011776,IPP:CRE:10,IPP:DESIGNACAO:1019066,IPP:ENDERECO:Rua Cilon Cunha Brum, S/Nº  ,IPP:ENDNOVO:http://webapp.sme.rio.rj.gov.br/jcartela/publico/pesquisa.do?idSetor=11776&cmd=load,IPP:FLG_VALIDA:S,IPP:TELEFONES:2409-7093,amenity:school","lat":-22.9206335,"lng":-43.6236851},{"id":"823948995","name":"Escola Municipal Professor João Gualberto Jorge do Amaral","tags":"IPP:BAIRRO:Paciência,IPP:CHAVE:11480,IPP:CODATIVIDA:0,IPP:CODBAIRRO:148,IPP:COD_INEP:33084980,IPP:COD_SMA:011480,IPP:CRE:10,IPP:DESIGNACAO:1019004,IPP:ENDERECO:Praça Paulo de T. Celestino, S/Nº - Gouveias,IPP:ENDNOVO:http://webapp.sme.rio.rj.gov.br/jcartela/publico/pesquisa.do?idSetor=11480&cmd=load,IPP:FLG_VALIDA:S,IPP:TELEFONES:2409-7037,amenity:school","lat":-22.920371,"lng":-43.623708},{"id":"3023898235","tags":"amenity:school","lat":-22.9222443,"lng":-43.6256392},{"id":"5345942268","name":"Mercado Super Compras","tags":"addr:city:Rio de Janeiro,addr:street:Rua Solivana,addr:suburb:Paciência,shop:supermarket","lat":-22.9187401,"lng":-43.6220285},{"id":"5714037129","name":"Academia da Terceira Idade - Parque São Paulo","tags":"leisure:fitness_centre","lat":-22.9192282,"lng":-43.6219259},{"id":"9803031678","name":"Espaço Beatriz Gomes","tags":"shop:beauty","lat":-22.9203242,"lng":-43.6179677}]