[{"id":"823939991","name":"Escola Municipal Luís Caetano de Oliveira","tags":"IPP:BAIRRO:Santa Cruz,IPP:CHAVE:11186,IPP:CODATIVIDA:0,IPP:CODBAIRRO:149,IPP:COD_INEP:33084823,IPP:COD_SMA:011186,IPP:CRE:10,IPP:DESIGNACAO:1019022,IPP:ENDNOVO:http://webapp.sme.rio.rj.gov.br/jcartela/publico/pesquisa.do?idSetor=11186&cmd=load,IPP:FLG_VALIDA:S,addr:street:Rua Cinquenta e Quatro,amenity:school,phone:+55-21-33953046","lat":-22.9359272,"lng":-43.6636683},{"id":"823942618","name":"Escola Municipal Eduardo Rabelo","tags":"IPP:BAIRRO:Santa Cruz,IPP:CHAVE:11172,IPP:CODATIVIDA:0,IPP:CODBAIRRO:149,IPP:COD_INEP:33084637,IPP:COD_SMA:011172,IPP:CRE:10,IPP:DESIGNACAO:1019008,IPP:ENDNOVO:http://webapp.sme.rio.rj.gov.br/jcartela/publico/pesquisa.do?idSetor=11172&cmd=load,IPP:FLG_VALIDA:S,addr:housenumber:14145,addr:street:Avenida Cesário de Melo,amenity:school,phone:+55-21-33951295","lat":-22.9351069,"lng":-43.6653895},{"id":"823951717","name":"Escola Municipal General Gomes Carneiro","tags":"IPP:BAIRRO:Santa Cruz,IPP:CHAVE:11168,IPP:CODATIVIDA:0,IPP:CODBAIRRO:149,IPP:COD_INEP:33084718,IPP:COD_SMA:011168,IPP:CRE:10,IPP:DESIGNACAO:1019002,IPP:ENDNOVO:http://webapp.sme.rio.rj.gov.br/jcartela/publico/pesquisa.do?idSetor=11168&cmd=load,IPP:FLG_VALIDA:S,addr:housenumber:14065,addr:street:Avenida Cesário de Melo,amenity:school,phone:+55-21-33951395","lat":-22.93473,"lng":-43.665085},{"id":"3105695787","name":"Cesarão I","tags":"amenity:bus_station,operator:BRTRio","lat":-22.9347143,"lng":-43.6653748},{"id":"5300689903","name":"Praça Otacilio Camara","tags":"description:Tem uma placa com o nome da Praça.,leisure:park","lat":-22.9360083,"lng":-43.6617658}]