[{"id":"823942312","name":"Ciep Roberto Morena","tags":"IPP:BAIRRO:Paciência,IPP:CHAVE:11910,IPP:CODATIVIDA:0,IPP:CODBAIRRO:148,IPP:COD_INEP:33084149,IPP:COD_SMA:011910,IPP:CRE:10,IPP:DESIGNACAO:1019205,IPP:ENDERECO:Avenida Cesário de Melo, 11.485  ,IPP:ENDNOVO:http://webapp.sme.rio.rj.gov.br/jcartela/publico/pesquisa.do?idSetor=11910&cmd=load,IPP:FLG_VALIDA:S,IPP:TELEFONES:2409-7047,amenity:school","lat":-22.9220073,"lng":-43.6450679},{"id":"823943696","name":"Escola Municipal Cesarinho","tags":"IPP:BAIRRO:Paciência,IPP:CHAVE:11777,IPP:CODATIVIDA:0,IPP:CODBAIRRO:148,IPP:COD_INEP:33083940,IPP:COD_SMA:011777,IPP:CRE:10,IPP:DESIGNACAO:1019067,IPP:ENDERECO:Rua Mário F. de Souza, S/Nº - Conj. Cesarinho,IPP:ENDNOVO:http://webapp.sme.rio.rj.gov.br/jcartela/publico/pesquisa.do?idSetor=11777&cmd=load,IPP:FLG_VALIDA:S,IPP:TELEFONES:2409-7101,amenity:school","lat":-22.9217667,"lng":-43.6400097},{"id":"823944415","name":"Escola Municipal República Árabe da Síria","tags":"IPP:BAIRRO:Paciência,IPP:CHAVE:11481,IPP:CODATIVIDA:0,IPP:CODBAIRRO:148,IPP:COD_INEP:33085064,IPP:COD_SMA:011481,IPP:CRE:10,IPP:DESIGNACAO:1019005,IPP:ENDERECO:Rua Mário Fonteneli de Souza, S/Nº - Conj. Cesarinho,IPP:ENDNOVO:http://webapp.sme.rio.rj.gov.br/jcartela/publico/pesquisa.do?idSetor=11481&cmd=load,IPP:FLG_VALIDA:S,IPP:TELEFONES:2409-7172,amenity:school","lat":-22.9217512,"lng":-43.6396936},{"id":"823950048","name":"Escola Municipal Vivaldo Ramos de Vasconcelos","tags":"IPP:BAIRRO:Paciência,IPP:CHAVE:11170,IPP:CODATIVIDA:0,IPP:CODBAIRRO:148,IPP:COD_INEP:33085137,IPP:COD_SMA:011170,IPP:CRE:10,IPP:DESIGNACAO:1019006,IPP:ENDERECO:Rua Antonio Patrocínio Fernandes, S/Nº  ,IPP:ENDNOVO:http://webapp.sme.rio.rj.gov.br/jcartela/publico/pesquisa.do?idSetor=11170&cmd=load,IPP:FLG_VALIDA:S,IPP:TELEFONES:2409-7120,amenity:school","lat":-22.9211765,"lng":-43.6401653},{"id":"823950271","name":"Escola Municipal Ribeiro Couto","tags":"IPP:BAIRRO:Paciência,IPP:CHAVE:11198,IPP:CODATIVIDA:0,IPP:CODBAIRRO:148,IPP:COD_INEP:33085072,IPP:COD_SMA:011198,IPP:CRE:10,IPP:DESIGNACAO:1019034,IPP:ENDERECO:Estr. Urucânia, 936  ,IPP:ENDNOVO:http://webapp.sme.rio.rj.gov.br/jcartela/publico/pesquisa.do?idSetor=11198&cmd=load,IPP:FLG_VALIDA:S,IPP:TELEFONES:2409-6601,amenity:school","lat":-22.9176805,"lng":-43.6422141},{"id":"3105695799","name":"Cesarinho","tags":"amenity:bus_station,operator:BRTRio","lat":-22.9206879,"lng":-43.6439386},{"id":"3105695806","name":"31 de Outubro","tags":"amenity:bus_station,operator:BRTRio","lat":-22.9182953,"lng":-43.6391274}]