[{"id":"4330877007","name":"Ciep 291 Dom Martinho Schlude","tags":"addr:city:Pinheiral,addr:street:Rua Coronel Joaquim Ferreira Ribeiro,amenity:school","lat":-22.5195794,"lng":-43.9963577},{"id":"4330900469","name":"Pronto Socorro de Pinheiral","tags":"addr:city:Pinheiral,addr:street:Ria Francisco Ribeiro de Abreu,amenity:hospital","lat":-22.5188428,"lng":-43.9956794},{"id":"4330909202","name":"IFRJ - Campus Nilo Peçanha","tags":"addr:city:Pinheiral,addr:street:Rua José Breves,amenity:school","lat":-22.5189036,"lng":-43.9947844},{"id":"4330913728","name":"Colégio Agrícola Nilo Peçanha","tags":"addr:city:Pinheiral,addr:street:Rua José Breves,amenity:school","lat":-22.5193221,"lng":-43.993701},{"id":"5502436369","name":"correio","tags":"addr:city:Pinheiral,addr:housenumber:163,addr:postcode:2719700,addr:street:Rua Coronel Joaquim Ferreira Ribeiro,addr:suburb:centro,amenity:post_office,opening_hours:Mo-Fr 09:00-17:00","lat":-22.5176108,"lng":-43.9996114}]