[{"id":"3270657370","name":"Cachoeira dos Amores","tags":"tourism:attraction","lat":-22.9525613,"lng":-43.2909932},{"id":"3270657371","name":"Campo Escola 2000","tags":"leisure:sports_centre,sport:climbing","lat":-22.9511831,"lng":-43.2880856},{"id":"7994984185","name":"Campo Escola 2000 - Escalada Esportiva","tags":"leisure:sports_centre,name:en:CE2K - Sport Climbing Crag,sport:climbing","lat":-22.9518573,"lng":-43.2918304},{"id":"9441352519","name":"Cascata Gabriela","tags":"tourism:attraction,waterway:waterfall","lat":-22.9544793,"lng":-43.2891339},{"id":"9441352587","name":"Cascata da Baronesa","tags":"tourism:attraction,waterway:waterfall","lat":-22.954198,"lng":-43.2914948},{"id":"9445038386","tags":"amenity:parking","lat":-22.9533336,"lng":-43.2906123},{"id":"9466065007","name":"Restaurante Os Esquilos","tags":"amenity:restaurant","lat":-22.9550509,"lng":-43.28656}]