[{"id":"893345849","name":"J.D.R.","tags":"shop:convenience","lat":-22.874833,"lng":-43.3421485},{"id":"903621050","name":"SENAC","tags":"amenity:school","lat":-22.876984,"lng":-43.3415781},{"id":"992826562","name":"Mesas de Pedra","tags":"addr:city:Rio de Janeiro,addr:housenumber:63,addr:postcode:21310-130,addr:street:Rua Agostinho Barbalho,addr:suburb:Madureira,leisure:park,opening_hours:10:00-22:00,opening_hours:covid19:open","lat":-22.878273,"lng":-43.341863},{"id":"2661206227","tags":"amenity:parking","lat":-22.8739992,"lng":-43.3413368},{"id":"3208365162","name":"Instituto Brasileiro de Línguas","tags":"addr:city:Rio de Janeiro,addr:housenumber:489,addr:street:Rua Domingos Lopes,addr:suburb:Madureira,amenity:school","lat":-22.8786683,"lng":-43.3412633},{"id":"3208365172","name":"Cia. do Frango","tags":"amenity:restaurant","lat":-22.8785571,"lng":-43.3415476},{"id":"3208365178","tags":"shop:convenience","lat":-22.8781099,"lng":-43.3426286},{"id":"4892486346","tags":"amenity:pharmacy","lat":-22.875147,"lng":-43.3502458},{"id":"6649944539","name":"Namesa Espetaria","tags":"addr:street:Rua Henrique Braga,amenity:bar","lat":-22.8769834,"lng":-43.3506228},{"id":"7777460273","name":"Beto rei da Carne de Sol","tags":"addr:city:Rio de Janeiro,addr:housenumber:EF 20,addr:postcode:21310-150,addr:street:Rua Andrade Pinto,addr:suburb:Madureira,amenity:restaurant,cuisine:brazilian,opening_hours:Fr-Su 19:00-01:00,opening_hours:covid19:restricted,website:https://www.instagram.com/betoreidacarnedesol/?hl=pt-br","lat":-22.87815,"lng":-43.3418922},{"id":"9445977950","name":"Pensão da Mulata","tags":"amenity:restaurant,cuisine:regional","lat":-22.8750273,"lng":-43.3440471}]