[{"id":"823908996","name":"Mercadão de Madureira","tags":"IPP:CODESTFERR:31,IPP:FONTE:http://www.supervia.com.br/,IPP:RAMAL:Belford Roxo,addr:country:BR,old_name:Inharajá; Magno,operator:SuperVia,public_transport:station,railway:station,start_date:1908-02-15,train:yes,wikidata:Q10275980","lat":-22.8732169,"lng":-43.336866},{"id":"823958902","name":"29º DP - Madureira","tags":"IPP:Codigo:23,addr:city:Rio de Janeiro,addr:country:BR,addr:housenumber:227,addr:street:Avenida Ministro Edgard Romero,amenity:police,phone:+55-21-33996290","lat":-22.871435,"lng":-43.336207},{"id":"932048018","name":"Mercadão de Madureira","tags":"shop:supermarket","lat":-22.8722862,"lng":-43.3360513},{"id":"1640510083","name":"LInha 254 Madureira >> Praça XV","tags":"amenity:bus_station,bus:yes,public_transport:station","lat":-22.8707927,"lng":-43.3404847},{"id":"2661206182","tags":"amenity:parking","lat":-22.8696217,"lng":-43.3384083},{"id":"2661206190","tags":"amenity:parking","lat":-22.8723701,"lng":-43.3369185},{"id":"3428714999","name":"Bradesco","tags":"amenity:bank,atm:yes,brand:Bradesco,brand:wikidata:Q806181,brand:wikipedia:en:Banco Bradesco","lat":-22.8717328,"lng":-43.3407423},{"id":"4987423323","name":"Tecnomedi Madureira","tags":"addr:housenumber:99 loja 257,addr:street:Estrada do Portela,opening_hours:Mo-Fr 08:30-18:30; Sa 08:30-13:00,phone:+55 21 2489 9413,shop:convenience","lat":-22.8729204,"lng":-43.3388639},{"id":"5092154322","name":"Banco Itaú","tags":"addr:city:Rio de Janeiro,addr:street:Avenida Ministro Edgard Romero,amenity:bank","lat":-22.86981,"lng":-43.335606},{"id":"6904329698","name":"Granato","tags":"amenity:hospital,healthcare:hospital,healthcare:speciality:general;orthopaedics;dermatology;cardiology;otolaryngology","lat":-22.8704945,"lng":-43.3399103}]