[{"id":"823945014","name":"Escola Municipal Halfeld","tags":"IPP:BAIRRO:Campo Grande,IPP:CHAVE:11142,IPP:CODATIVIDA:0,IPP:CODBAIRRO:144,IPP:COD_INEP:33082952,IPP:COD_SMA:011142,IPP:CRE:09,IPP:DESIGNACAO:0918059,IPP:ENDERECO:Avenida André Vesalio, S/Nº,IPP:ENDNOVO:http://webapp.sme.rio.rj.gov.br/jcartela/publico/pesquisa.do?idSetor=11142&cmd=load,IPP:FLG_VALIDA:S,IPP:TELEFONES:2413-4750,amenity:school","lat":-22.89782,"lng":-43.5689031},{"id":"823947960","name":"Escola Especial Municipal Maria Montessori","tags":"IPP:BAIRRO:Campo Grande,IPP:CHAVE:11165,IPP:CODATIVIDA:0,IPP:CODBAIRRO:144,IPP:COD_INEP:33094675,IPP:COD_SMA:011165,IPP:CRE:09,IPP:DESIGNACAO:0918082,IPP:ENDERECO:Rua Ivo do Prado, 361,IPP:ENDNOVO:http://webapp.sme.rio.rj.gov.br/jcartela/publico/pesquisa.do?idSetor=11165&cmd=load,IPP:FLG_VALIDA:S,IPP:TELEFONES:2413-5695,amenity:school","lat":-22.8998086,"lng":-43.565487},{"id":"1870734947","name":"Nossa Senhora do Carmo","tags":"amenity:hospital","lat":-22.8984195,"lng":-43.5610913},{"id":"2988721558","tags":"amenity:school","lat":-22.8981456,"lng":-43.5687846},{"id":"2996745456","tags":"amenity:restaurant","lat":-22.9002394,"lng":-43.5672822},{"id":"2996745457","tags":"amenity:restaurant","lat":-22.900836,"lng":-43.5673317},{"id":"2996745458","name":"Itaú","tags":"amenity:bank","lat":-22.8999346,"lng":-43.5671512},{"id":"3301821796","name":"Colégio Santos Maia","tags":"amenity:school","lat":-22.900902,"lng":-43.562653},{"id":"4386705840","tags":"amenity:bank,atm:yes,brand:Bradesco","lat":-22.8975967,"lng":-43.5653964}]