[{"id":"1490057571","tags":"amenity:ferry_terminal,ferry:yes,public_transport:station","lat":-23.0010809,"lng":-43.3081132},{"id":"1717320979","name":"Alla Pergola","tags":"amenity:restaurant","lat":-23.0026044,"lng":-43.3086999},{"id":"1730893304","name":"Bar do Galego","tags":"amenity:bar","lat":-23.0036289,"lng":-43.3093577},{"id":"1730893312","tags":"amenity:ferry_terminal,ferry:yes,public_transport:station","lat":-23.0033297,"lng":-43.3084016},{"id":"1752969454","name":"Amendoeira II","tags":"shop:convenience","lat":-23.0045349,"lng":-43.3093873},{"id":"1752969468","name":"Drogas Rio","tags":"amenity:pharmacy,healthcare:pharmacy","lat":-23.0046781,"lng":-43.3092103},{"id":"2505074063","name":"Cícero","tags":"amenity:restaurant","lat":-23.0007211,"lng":-43.3088798},{"id":"2989670787","tags":"amenity:ferry_terminal,ferry:yes,public_transport:station","lat":-23.000899,"lng":-43.3085263},{"id":"4294895625","name":"Drogaria Venâncio","tags":"addr:city:Rio de Janeiro,addr:suburb:Barra da Tijuca,amenity:pharmacy,dispensing:yes,drive_through:no,healthcare:pharmacy,level:1,wheelchair:no","lat":-23.0042357,"lng":-43.3168413},{"id":"4294905997","name":"Balada Mix","tags":"addr:city:Rio de Janeiro,addr:suburb:Barra da Tijuca,amenity:restaurant,level:1,wheelchair:limited","lat":-23.0042198,"lng":-43.3172267},{"id":"4294909001","name":"Galli Galeto & Grill","tags":"amenity:restaurant","lat":-23.0044562,"lng":-43.3171918},{"id":"4294914724","name":"Spoleto","tags":"amenity:restaurant","lat":-23.0035753,"lng":-43.3180868},{"id":"4294991417","name":"Drogasmil","tags":"addr:city:Rio de Janeiro,addr:housenumber:500,addr:street:Avenida das Américas,addr:suburb:Barra da Tijuca,amenity:pharmacy,dispensing:yes,drive_through:no,healthcare:pharmacy,level:1,wheelchair:no","lat":-23.0042226,"lng":-43.317759},{"id":"4932699265","name":"Caixa","tags":"amenity:bank,atm:yes,operator:Caixa Econômica Federal","lat":-23.0045467,"lng":-43.3158295},{"id":"5396242682","tags":"addr:city:Rio de Janeiro,addr:housenumber:190,addr:street:Alameda dos Ingás,addr:suburb:Ilha da Gigóia,amenity:restaurant","lat":-23.0016593,"lng":-43.3086197},{"id":"8075645474","name":"Armazém do Café","tags":"addr:city:Rio de Janeiro,addr:suburb:Barra da Tijuca,amenity:cafe,level:1,outdoor_seating:no","lat":-23.0037883,"lng":-43.3169393},{"id":"1709377968","tags":"amenity:ferry_terminal,ferry:yes,public_transport:station","lat":-23.0033562,"lng":-43.3107977},{"id":"10751071368","name":"Mini Market Gigoia","tags":"shop:convenience","lat":-23.0026201,"lng":-43.3094893},{"id":"10751071374","name":"Pau de Canela","tags":"amenity:restaurant","lat":-23.0027394,"lng":-43.3089189},{"id":"10751071375","name":"Roma Pizza","tags":"amenity:restaurant,cuisine:pizza","lat":-23.0026857,"lng":-43.3090552},{"id":"10751071379","name":"Venne","tags":"addr:city:Rio de Janeiro,addr:housenumber:180,addr:street:Rua Doutor Sebastião de Aquino,addr:suburb:Barra da Tijuca,amenity:restaurant,cuisine:mediterranean,opening_hours:Mo-Tu 12:00-19:00; We-Fr 12:00-22:00; Sa 11:30-22:00; Su 12:00-20:00,phone:+55 21 989 289 843,website:https://venne-gastronomia-mediterranea.negocio.site/","lat":-23.001297,"lng":-43.3082453},{"id":"10751071385","name":"Bella Ilha","tags":"shop:beauty","lat":-23.0022653,"lng":-43.3090744},{"id":"4391077947","name":"Caís do Condado de Cascais","tags":"amenity:ferry_terminal,ferry:yes,public_transport:station","lat":-23.0041212,"lng":-43.3134903}]