[{"id":"823908958","name":"Olímpica de Engenho de Dentro","tags":"IPP:CODESTFERR:18,IPP:FONTE:http://www.supervia.com.br/,IPP:RAMAL:Deodoro, Santa Cruz e Japeri,addr:country:BR,old_name:Engenho de Dentro,operator:SuperVia,public_transport:station,railway:station,start_date:1873,train:yes,wikidata:Q10276017","lat":-22.895595,"lng":-43.2936902},{"id":"823939539","name":"Escola Municipal Jardim de Infância Maurício Cardoso","tags":"IPP:BAIRRO:Engenho De Dentro,IPP:CHAVE:11819,IPP:CODATIVIDA:0,IPP:CODBAIRRO:066,IPP:COD_INEP:33073015,IPP:COD_SMA:011819,IPP:CRE:03,IPP:DESIGNACAO:0313039,IPP:ENDNOVO:http://webapp.sme.rio.rj.gov.br/jcartela/publico/pesquisa.do?idSetor=11819&cmd=load,IPP:FLG_VALIDA:S,addr:housenumber:231,addr:street:Rua Adolfo Bergamini,amenity:school,phone:+55-21-22699976","lat":-22.9006644,"lng":-43.2960174},{"id":"823946084","name":"Escola Municipal Londres","tags":"IPP:BAIRRO:Engenho De Dentro,IPP:CHAVE:11820,IPP:CODATIVIDA:0,IPP:CODBAIRRO:066,IPP:COD_INEP:33072949,IPP:COD_SMA:011820,IPP:CRE:03,IPP:DESIGNACAO:0313038,IPP:ENDNOVO:http://webapp.sme.rio.rj.gov.br/jcartela/publico/pesquisa.do?idSetor=11820&cmd=load,IPP:FLG_VALIDA:S,addr:street:Rua Monsenhor Jerônimo,amenity:school,phone:+55-21-25955659","lat":-22.9008692,"lng":-43.2952226},{"id":"823949940","name":"Escola Municipal Rio Grande do Sul","tags":"IPP:BAIRRO:Engenho De Dentro,IPP:CHAVE:11822,IPP:CODATIVIDA:0,IPP:CODBAIRRO:066,IPP:COD_INEP:33073210,IPP:COD_SMA:011822,IPP:CRE:03,IPP:DESIGNACAO:0313036,IPP:ENDNOVO:http://webapp.sme.rio.rj.gov.br/jcartela/publico/pesquisa.do?idSetor=11822&cmd=load,IPP:FLG_VALIDA:S,addr:housenumber:201,addr:street:Rua Adolfo Bergamini,amenity:school,phone:+55-21-32729525","lat":-22.9003542,"lng":-43.2959816},{"id":"2174315305","name":"606 - Engenho de Dentro x Rodoviária","tags":"amenity:bus_station,building:train_station","lat":-22.8957069,"lng":-43.2946412},{"id":"2174315583","name":"Ponto Final: Linha 232","tags":"advertising:no,amenity:bus_station,bench:yes,bin:yes,gtfs:stop_id:3063O00045C0,public_transport:platform,shelter:yes,tactile_paving:no,traffic_sign:BR:SAU-26,wheelchair:no","lat":-22.9007689,"lng":-43.2902615},{"id":"3601513088","name":"Correio e Centro de Distribuição","tags":"amenity:post_office","lat":-22.89682,"lng":-43.2951893},{"id":"4264754867","tags":"amenity:restaurant","lat":-22.8995073,"lng":-43.2956908}]