[{"id":"1766675453","name":"La Plancha","tags":"amenity:restaurant,cuisine:seafood","lat":-22.9947917,"lng":-43.3667757},{"id":"1766676594","name":"Capital Steakhouse","tags":"amenity:restaurant,cuisine:steak_house","lat":-22.997286,"lng":-43.3644508},{"id":"2938140675","tags":"amenity:parking","lat":-22.994561,"lng":-43.3664401},{"id":"3801636596","name":"Café das Artes","tags":"amenity:cafe,cuisine:coffee_shop,level:1","lat":-22.9993309,"lng":-43.3666861},{"id":"3801636598","name":"Sala de Leitura","tags":"amenity:library,building:levels:2,internet_access:terminal;wifi,internet_access:fee:no,internet_access:password:saladeleitura,internet_access:ssid:fca-sala de leitura,level:1,wikimedia_commons:Category:Sala de Leitura, Cidade das Artes","lat":-22.9989136,"lng":-43.3662945},{"id":"4808795622","name":"Museu Seleção Brasileira","tags":"addr:housenumber:130,addr:postcode:22775-055,addr:street:Avenida Luis Carlos Prestes,alt_name:Museu da CBF,museum:history,name:en:Museu Seleção Brasileira,name:pt:Museu Seleção Brasileira,opening_hours:Mo-Su 10:00-17:30,operator:type:private,phone:+55 (21) 3572-1963,tourism:museum,website:https://museuselecaobrasileira.com.br,wikidata:Q56694993","lat":-22.9958215,"lng":-43.3642453},{"id":"4835175255","name":"Cia do Camarão","tags":"amenity:restaurant,cuisine:seafood","lat":-22.9947664,"lng":-43.3665673},{"id":"5225152108","tags":"amenity:restaurant,level:2,wikimedia_commons:File:Cidade das Artes nov 2017 12.jpg","lat":-22.9988765,"lng":-43.366113},{"id":"6051793331","name":"Centro de Visitantes","tags":"tourism:attraction","lat":-22.9997172,"lng":-43.3717065},{"id":"6164293382","name":"Pet Center","tags":"shop:pet","lat":-22.997418,"lng":-43.3631479},{"id":"6164295886","name":"Stambul","tags":"amenity:restaurant","lat":-22.997539,"lng":-43.3634108},{"id":"6164295887","name":"Italian East","tags":"amenity:restaurant,cuisine:italian","lat":-22.9975119,"lng":-43.3636334},{"id":"6164295888","name":"Spoleto","tags":"amenity:restaurant,cuisine:italian","lat":-22.9974008,"lng":-43.3636441}]