[{"id":"1490057571","tags":"amenity:ferry_terminal,ferry:yes,public_transport:station","lat":-23.0010809,"lng":-43.3081132},{"id":"1717320979","name":"Alla Pergola","tags":"amenity:restaurant","lat":-23.0026044,"lng":-43.3086999},{"id":"1730893304","name":"Bar do Galego","tags":"amenity:bar","lat":-23.0036289,"lng":-43.3093577},{"id":"1730893312","tags":"amenity:ferry_terminal,ferry:yes,public_transport:station","lat":-23.0033297,"lng":-43.3084016},{"id":"1752969454","name":"Amendoeira II","tags":"shop:convenience","lat":-23.0045349,"lng":-43.3093873},{"id":"1752969468","name":"Drogas Rio","tags":"amenity:pharmacy,healthcare:pharmacy","lat":-23.0046781,"lng":-43.3092103},{"id":"2505074063","name":"Cícero","tags":"amenity:restaurant","lat":-23.0007211,"lng":-43.3088798},{"id":"2989670787","tags":"amenity:ferry_terminal,ferry:yes,public_transport:station","lat":-23.000899,"lng":-43.3085263},{"id":"4294895625","name":"Drogaria Venâncio","tags":"addr:city:Rio de Janeiro,addr:suburb:Barra da Tijuca,amenity:pharmacy,dispensing:yes,drive_through:no,healthcare:pharmacy,level:1,wheelchair:no","lat":-23.0042357,"lng":-43.3168413},{"id":"4294905997","name":"Balada Mix","tags":"addr:city:Rio de Janeiro,addr:suburb:Barra da Tijuca,amenity:restaurant,level:1,wheelchair:limited","lat":-23.0042198,"lng":-43.3172267},{"id":"4294909001","name":"Galli Galeto & Grill","tags":"amenity:restaurant","lat":-23.0044562,"lng":-43.3171918},{"id":"4294914724","name":"Spoleto","tags":"amenity:restaurant","lat":-23.0035753,"lng":-43.3180868},{"id":"4294991417","name":"Drogasmil","tags":"addr:city:Rio de Janeiro,addr:housenumber:500,addr:street:Avenida das Américas,addr:suburb:Barra da Tijuca,amenity:pharmacy,dispensing:yes,drive_through:no,healthcare:pharmacy,level:1,wheelchair:no","lat":-23.0042226,"lng":-43.317759},{"id":"4932699265","name":"Caixa","tags":"amenity:bank,atm:yes,operator:Caixa Econômica Federal","lat":-23.0045467,"lng":-43.3158295},{"id":"5396242682","tags":"addr:city:Rio de Janeiro,addr:housenumber:190,addr:street:Alameda dos Ingás,addr:suburb:Ilha da Gigóia,amenity:restaurant","lat":-23.0016593,"lng":-43.3086197},{"id":"8075645474","name":"Armazém do Café","tags":"addr:city:Rio de Janeiro,addr:suburb:Barra da Tijuca,amenity:cafe,level:1,outdoor_seating:no","lat":-23.0037883,"lng":-43.3169393}]