[{"id":"823951784","name":"Escola Municipal Professor Carlos Delgado de Carvalho","tags":"IPP:BAIRRO:Recreio Dos Bandeirantes,IPP:CHAVE:11692,IPP:CODATIVIDA:0,IPP:CODBAIRRO:132,IPP:COD_INEP:33087890,IPP:COD_SMA:011692,IPP:CRE:07,IPP:DESIGNACAO:0724024,IPP:ENDNOVO:http://webapp.sme.rio.rj.gov.br/jcartela/publico/pesquisa.do?idSetor=11692&cmd=load,IPP:FLG_VALIDA:S,IPP:OBS:A escola tem laboratório de informática.,addr:city:Rio de Janeiro,addr:country:BR,addr:housenumber:5,addr:street:Rua Senador Rui Carneiro,amenity:school,phone:+55-21-24902102","lat":-23.019789,"lng":-43.480348},{"id":"1979291293","name":"Colégio Nossa Senhora da Ressurreição","tags":"addr:housenumber:1529,addr:postcode:22790-570,addr:street:Avenida Gilka Machado,amenity:school","lat":-23.0181956,"lng":-43.4796428},{"id":"3311177774","name":"Select","tags":"shop:convenience","lat":-23.0177321,"lng":-43.4829975},{"id":"3939508299","name":"Bradesco","tags":"amenity:bank","lat":-23.0171378,"lng":-43.4753824},{"id":"3939508300","name":"Almazen","tags":"shop:beauty","lat":-23.0171847,"lng":-43.4753422},{"id":"4650408666","name":"Droga Raia","tags":"amenity:pharmacy","lat":-23.0180789,"lng":-43.4793396},{"id":"4680947681","name":"La Nostra Pizza","tags":"addr:housenumber:455 Loja A,addr:street:Rua Almirante Ary Rongel,amenity:restaurant,cuisine:pizza,delivery:yes,email:pizzerialanostrapizza@hotmail.com,opening_hours:11:00-00:00,phone:+5521 30797221;+5521 24373598;+5521 33283532;+5521 32286783,start_date:2004,website:https://www.lanostrapizza.com.br/","lat":-23.018401,"lng":-43.4737519},{"id":"4696380718","name":"Casa de Massas","tags":"amenity:restaurant,cuisine:italian","lat":-23.0177191,"lng":-43.4775367},{"id":"4698063272","name":"Arte em Pêlos","tags":"shop:pet","lat":-23.0177272,"lng":-43.4775921},{"id":"4699574106","name":"Banco Itaú","tags":"amenity:bank,atm:yes","lat":-23.0165936,"lng":-43.4732046},{"id":"4699574107","name":"Movement Américas","tags":"leisure:fitness_centre,sport:fitness","lat":-23.0166553,"lng":-43.4734513},{"id":"4968804170","name":"Souza","tags":"amenity:restaurant","lat":-23.0168294,"lng":-43.4734865},{"id":"4968804171","name":"Studio Gabriela Novaes","tags":"beauty:nails,shop:beauty","lat":-23.0168319,"lng":-43.473516},{"id":"4968804183","name":"PilatesUP","tags":"leisure:fitness_centre,level:2,sport:pilates","lat":-23.0167689,"lng":-43.4735536},{"id":"4968804184","name":"19 Gold","tags":"leisure:fitness_centre,sport:fighting","lat":-23.017291,"lng":-43.4733671},{"id":"5796994882","name":"Pet Carioca","tags":"shop:pet","lat":-23.019012,"lng":-43.4827916}]