[{"id":"823951309","name":"Escola Municipal Jackson de Figueiredo","tags":"IPP:BAIRRO:Barra Da Tijuca,IPP:CHAVE:11706,IPP:CODATIVIDA:0,IPP:CODBAIRRO:128,IPP:COD_INEP:33087849,IPP:COD_SMA:011706,IPP:CRE:07,IPP:DESIGNACAO:0724003,IPP:ENDERECO:Rua Major Rolinda da Silva, 65  ,IPP:ENDNOVO:http://webapp.sme.rio.rj.gov.br/jcartela/publico/pesquisa.do?idSetor=11706&cmd=load,IPP:FLG_VALIDA:S,IPP:OBS:SEGUNDO O DIRETOR A LOCALIZAÇÃO ESTÁ CORRETA,IPP:TELEFONES:2493-0998,amenity:school","lat":-23.0081558,"lng":-43.2996484},{"id":"1607620195","name":"Parmê","tags":"addr:housenumber:155A,addr:street:Avenida Armando Lombardi,amenity:restaurant,cuisine:pizza,phone:+55-21-31549767,website:https://www.parme.com.br/","lat":-23.0076503,"lng":-43.306092},{"id":"1607625281","name":"Itaú","tags":"addr:housenumber:71,addr:postcode:22640-020,addr:street:Avenida Armando Lombardi,amenity:bank,opening_hours:Mo-Fr 10:00-16:00,phone:+55-21-40041427,website:https://www.itau.com.br/","lat":-23.0076454,"lng":-43.3054534},{"id":"1607646806","name":"Guanabara","tags":"addr:city:Rio de Janeiro,addr:housenumber:75A,addr:street:Praça Euvaldo Lodi,addr:suburb:Barra da Tijuca,amenity:restaurant,cuisine:pizza,phone:+55-21-31534040,website:http://www.pizzariaguanabara.com.br/","lat":-23.0075985,"lng":-43.3049682},{"id":"1607655551","name":"La Mole","tags":"addr:housenumber:175,addr:street:Avenida Armando Lombardi,amenity:restaurant,website:https://www.lamole.com.br/","lat":-23.0076552,"lng":-43.3064515},{"id":"1607655552","name":"Siri","tags":"addr:housenumber:65,addr:street:Praça Euvaldo Lodi,amenity:restaurant,cuisine:seafood,phone:+55-21-24940816,website:http://www.restaurantesiri.com.br/","lat":-23.0077787,"lng":-43.3050192},{"id":"1607681273","name":"Itaú","tags":"addr:housenumber:57,addr:postcode:22640-010,addr:street:Praça Euvaldo Lodi,amenity:bank,atm:yes,opening_hours:Mo-Fr 10:00-16:00,phone:+55-21-30034828,website:https://www.itau.com.br/","lat":-23.0079268,"lng":-43.3050996},{"id":"1607686824","name":"Banco do Brasil","tags":"addr:housenumber:35,addr:postcode:22640-010,addr:street:Praça Euvaldo Lodi,amenity:bank,atm:yes,brand:Banco do Brasil,brand:wikidata:Q610817,brand:wikipedia:en:Banco do Brasil,opening_hours:Mo-Fr 10:00-16:00,phone:+55-21-31397100,website:https://www.bb.com.br/","lat":-23.0081243,"lng":-43.3051908},{"id":"1607719309","name":"Itaú","tags":"addr:housenumber:60,addr:postcode:22640-010,addr:street:Praça Euvaldo Lodi,amenity:bank,atm:yes,opening_hours:Mo-Fr 10:00-16:00,phone:+55-21-24942185,website:https://www.itau.com.br/","lat":-23.0087958,"lng":-43.30385},{"id":"1607733665","name":"Santander","tags":"addr:housenumber:561,addr:street:Avenida Olegário Maciel,amenity:bank,atm:yes,brand:Santander,brand:wikidata:Q5835668,brand:wikipedia:en:Santander Bank,opening_hours:Mo-Fr 10:00-16:00,phone:+55-21-31544950,website:https://www.santander.com.br/","lat":-23.0094577,"lng":-43.3046756},{"id":"1607738751","name":"Caixa","tags":"addr:housenumber:543,addr:street:Avenida Olegário Maciel,amenity:bank,atm:yes,opening_hours:Mo-Fr 10:00-16:00,phone:+55-21-34859900,website:http://www.caixa.gov.br","lat":-23.0096745,"lng":-43.3047351},{"id":"2263476694","name":"ampm","tags":"brand:ampm,brand:wikidata:Q306960,brand:wikipedia:en:Ampm,shop:convenience","lat":-23.008763,"lng":-43.3058056},{"id":"2616162294","name":"Skinna","tags":"addr:housenumber:205,addr:street:Avenida Armando Lombardi,amenity:restaurant,website:http://www.skinna.com.br/","lat":-23.0078825,"lng":-43.3069054},{"id":"3524451643","name":"Pacheco","tags":"amenity:pharmacy,healthcare:pharmacy","lat":-23.0102874,"lng":-43.3044076},{"id":"4072451506","name":"Camacha","tags":"addr:city:Rio de Janeiro,addr:housenumber:18,addr:postcode:22611-202,addr:street:Estrada da Barra da Tijuca,addr:suburb:Barra da Tijuca,amenity:restaurant,cuisine:regional,phone:+55 21 2493-0776","lat":-23.0102216,"lng":-43.2975071},{"id":"4351246959","name":"Bibi Sucos","tags":"amenity:restaurant","lat":-23.0107536,"lng":-43.3045741},{"id":"4661231434","tags":"amenity:restaurant","lat":-23.0087637,"lng":-43.3045294},{"id":"4661231435","tags":"amenity:restaurant","lat":-23.0088748,"lng":-43.3045428},{"id":"4697692458","name":"American Pet","tags":"shop:pet","lat":-23.0076002,"lng":-43.3051088},{"id":"4971341831","name":"El Passador del Mediterrâneo","tags":"amenity:restaurant,cuisine:mediterranean","lat":-23.0076838,"lng":-43.3049237},{"id":"5396238291","name":"Smart Fit","tags":"brand:Smart Fit,brand:wikidata:Q30930959,brand:wikipedia:pt:Smart Fit,leisure:fitness_centre","lat":-23.0097027,"lng":-43.3043149},{"id":"10759309464","name":"Passarela da Barra","tags":"amenity:ferry_terminal,ferry:yes,public_transport:station","lat":-23.0071375,"lng":-43.3039042}]