[{"id":"1666251132","name":"Bar da Dona Maria","tags":"amenity:bar","lat":-22.935453,"lng":-43.2443461},{"id":"6121473088","tags":"amenity:pharmacy,dispensing:yes,healthcare:pharmacy","lat":-22.935162,"lng":-43.2437117},{"id":"6121482170","name":"Modelo","tags":"amenity:restaurant","lat":-22.9341535,"lng":-43.2423854},{"id":"6123584578","name":"Itaú","tags":"amenity:bank,atm:yes,brand:Itaú,brand:wikidata:Q2423252,brand:wikipedia:en:Itaú Corpbanca,drive_through:no","lat":-22.9351303,"lng":-43.2432822},{"id":"6123636375","name":"Mundial","tags":"addr:city:Rio de Janeiro,addr:housenumber:830,addr:postcode:20530-002,addr:street:Rua Conde de Bonfim,addr:suburb:Tijuca,amenity:pharmacy,dispensing:yes,healthcare:pharmacy,opening_hours:07:00-23:00","lat":-22.9357092,"lng":-43.2443412},{"id":"6279573885","name":"Wise Up English School","tags":"amenity:school,name:pt:Wise Up Escola de Inglês","lat":-22.9347319,"lng":-43.242897}]