[{"id":"823939666","name":"Escola Municipal França","tags":"IPP:BAIRRO:Quintino Bocaiúva,IPP:CHAVE:10983,IPP:CODATIVIDA:0,IPP:CODBAIRRO:079,IPP:COD_INEP:33076138,IPP:COD_SMA:010983,IPP:CRE:05,IPP:DESIGNACAO:0515038,IPP:ENDNOVO:http://webapp.sme.rio.rj.gov.br/jcartela/publico/pesquisa.do?idSetor=10983&cmd=load,IPP:FLG_VALIDA:S,addr:city:Rio de Janeiro,addr:country:BR,addr:housenumber:725,addr:street:Rua Padre Manoel de Nóbrega,amenity:school,phone:+55-21-25968696","lat":-22.8798746,"lng":-43.3142659},{"id":"823945712","name":"Escola Municipal Professor Souza da Silveira","tags":"IPP:BAIRRO:Quintino Bocaiúva,IPP:CHAVE:10985,IPP:CODATIVIDA:0,IPP:CODBAIRRO:079,IPP:COD_INEP:33076359,IPP:COD_SMA:010985,IPP:CRE:05,IPP:DESIGNACAO:0515040,IPP:ENDNOVO:http://webapp.sme.rio.rj.gov.br/jcartela/publico/pesquisa.do?idSetor=10985&cmd=load,IPP:FLG_VALIDA:S,addr:city:Rio de Janeiro,addr:country:BR,addr:street:Rua Amália,amenity:school,phone:+55-21-25960467","lat":-22.8806547,"lng":-43.3152912},{"id":"2038603875","tags":"amenity:bar","lat":-22.8797088,"lng":-43.3138721},{"id":"2038618205","name":"Betel","tags":"amenity:pharmacy","lat":-22.8795803,"lng":-43.3139579},{"id":"3624121493","name":"Shopping dos Frutos","tags":"shop:supermarket","lat":-22.8843213,"lng":-43.3182993}]