[{"id":"303120180","name":"Correios","tags":"amenity:post_office","lat":-22.9058049,"lng":-43.1079874},{"id":"335949896","name":"Itaú","tags":"amenity:bank","lat":-22.9042618,"lng":-43.1097962},{"id":"448777828","name":"Homeopatia Estelar - Manipulação","tags":"addr:city:Niterói,addr:housenumber:187,addr:street:Rua Mem de Sá,amenity:pharmacy,dispensing:yes,healthcare:pharmacy","lat":-22.9034171,"lng":-43.1085133},{"id":"448786363","name":"Ativa Restaurante","tags":"addr:city:Niterói,addr:housenumber:119,addr:postcode:24230-230,addr:street:Rua Doutor Herotides de Oliveira,amenity:restaurant,phone:+55 21 271O-4O72,smoking:no,website:http://www.restauranteativa.com.br/ativarestaurante/index.php","lat":-22.9010433,"lng":-43.1048526},{"id":"448786368","name":"Drogaria Raia","tags":"addr:city:Niterói,addr:housenumber:140,addr:postcode:24220-331,addr:street:Rua Presidente João Pessoa,addr:suburb:Icaraí,amenity:pharmacy","lat":-22.9020736,"lng":-43.1032543},{"id":"1792088357","name":"Casa Tevere","tags":"addr:city:Niterói,addr:housenumber:166,addr:postcode:24220-091,addr:street:Rua Domingues de Sá,addr:suburb:Icaraí,shop:supermarket","lat":-22.9059899,"lng":-43.1074962},{"id":"3014799144","name":"Torninha","tags":"addr:city:Niterói,addr:housenumber:199,addr:street:Rua Nóbrega,amenity:restaurant,cuisine:italian","lat":-22.9038153,"lng":-43.102799},{"id":"3093489275","name":"Centro Educacional Alzira Bittencourt","tags":"addr:city:Niterói,addr:housenumber:217,addr:postcode:24220-300,addr:street:Rua Ministro Otávio Kelly,addr:suburb:Icaraí,amenity:school,website:http://www.alzirabittencourt.com/wp/","lat":-22.902717,"lng":-43.1051641},{"id":"3269499701","name":"DUT","tags":"addr:city:Niterói,addr:housenumber:161,addr:street:Rua Gavião Peixoto,addr:suburb:Icaraí,amenity:restaurant,cuisine:italian,phone:+55 21 2711-8938,website:banca","lat":-22.9035648,"lng":-43.110064},{"id":"3269513761","name":"Siri II","tags":"addr:city:Niterói,addr:housenumber:161,addr:street:Rua Gavião Peixoto,addr:suburb:Icaraí,amenity:bar","lat":-22.9035442,"lng":-43.1100465},{"id":"4404167691","name":"Smart Fit - João Pessoa","tags":"addr:housenumber:211,addr:postcode:24220330,addr:street:Rua João Pessoa,leisure:fitness_centre,name:en:Smart Fit,name:pt:Smart Fit - João Pessoa,name:ru:Смарт Фит,opening_hours:Mo-Fr 06:00-23:00; Sa 09:00-19:00; Su 10:00-15:00,website:https://www.smartfit.com.br/unidades/joao-pessoa","lat":-22.9036045,"lng":-43.1018715},{"id":"4693803935","name":"Steak House","tags":"addr:city:Niterói,addr:housenumber:176,addr:postcode:24230101,addr:street:Rua Gavião Peixoto,addr:suburb:Icaraí,amenity:restaurant,cuisine:regional,delivery:yes,operator:type:cooperative,phone:+55 21 2714 2036;+55 21 2610 0820;+55 21 2714 3808,takeaway:yes,website:http://www.steakhouse.com.br/","lat":-22.9043735,"lng":-43.1096025},{"id":"4880824788","name":"Fina Cerva","tags":"addr:city:Niterói,addr:housenumber:193 loja 103,addr:postcode:24230-251,addr:street:Rua Sete de Setembro,addr:suburb:Icaraí,amenity:bar,outdoor_seating:yes,smoking:outside,website:https://www.facebook.com/finacervarj/","lat":-22.9049819,"lng":-43.1015198},{"id":"5241648463","name":"Drogaria Moderna","tags":"amenity:pharmacy,healthcare:pharmacy","lat":-22.9036558,"lng":-43.1102555},{"id":"5709761937","name":"Drogaria Pacheco","tags":"addr:housenumber:191,addr:street:Rua Gavião Peixoto,amenity:pharmacy,dispensing:yes,healthcare:pharmacy","lat":-22.9041559,"lng":-43.1094174},{"id":"5709774371","name":"Drogaria Venancio","tags":"addr:city:Niterói,addr:housenumber:183,addr:street:Gavião Peixoto,addr:suburb:Icaraí,amenity:pharmacy,healthcare:pharmacy","lat":-22.9040881,"lng":-43.1094947},{"id":"7050239285","name":"Bistro Vegano","tags":"amenity:restaurant,diet:vegan:only","lat":-22.905487,"lng":-43.1044889},{"id":"7102226020","tags":"leisure:park","lat":-22.9054447,"lng":-43.107556},{"id":"8038423180","name":"Flor da Pele Farmácia com Manipulação & Homeopatia","tags":"addr:housenumber:417,addr:street:Rua Ministro Otávio Kelly,amenity:pharmacy,dispensing:yes,healthcare:pharmacy","lat":-22.9056553,"lng":-43.1021567},{"id":"9197713742","name":"Blue beauty","tags":"addr:housenumber:215,addr:postcode:24230-151,addr:street:Avenida Roberto Silveira,shop:beauty","lat":-22.902844,"lng":-43.1068351},{"id":"9236645085","name":"Lucca Forneria","tags":"addr:city:Niterói,addr:housenumber:142,addr:postcode:24220-370,addr:street:Rua Doutor Leandro Mota,addr:suburb:Icaraí,amenity:restaurant","lat":-22.9042457,"lng":-43.1020005},{"id":"9236645086","name":"Deck Jardim","tags":"addr:city:Niterói,addr:housenumber:138,addr:postcode:24220-370,addr:street:Rua Doutor Leandro Mota,addr:suburb:Icaraí,amenity:bar","lat":-22.9041774,"lng":-43.1019765},{"id":"9611865180","name":"Drogaria Cristal","tags":"amenity:pharmacy,dispensing:yes,healthcare:pharmacy","lat":-22.9064266,"lng":-43.1094786}]