[{"id":"559645182","name":"Academia de Polícia","tags":"amenity:police","lat":-22.9104632,"lng":-43.1942709},{"id":"559645191","name":"UNIRIO - Instituto Biomédico","tags":"amenity:university","lat":-22.908629,"lng":-43.1917818},{"id":"823944057","name":"Ciep Avenida dos Desfiles 5a a 8a","tags":"IPP:BAIRRO:Cidade Nova,IPP:CHAVE:10786,IPP:CODATIVIDA:0,IPP:CODBAIRRO:008,IPP:COD_INEP:33149259,IPP:COD_SMA:010786,IPP:CRE:01,IPP:DESIGNACAO:0102504,IPP:ENDERECO:Avenida Salvador de Sá, S/Nº,IPP:ENDNOVO:http://webapp.sme.rio.rj.gov.br/jcartela/publico/pesquisa.do?idSetor=10786&cmd=load,IPP:TELEFONES:2293-0077,amenity:school","lat":-22.9097044,"lng":-43.196968},{"id":"823945073","name":"Escola Municipal Calouste Gulbenkian","tags":"IPP:BAIRRO:Centro,IPP:CHAVE:11237,IPP:CODATIVIDA:0,IPP:CODBAIRRO:005,IPP:COD_INEP:33062765,IPP:COD_SMA:011237,IPP:CRE:01,IPP:DESIGNACAO:0102005,IPP:ENDNOVO:http://webapp.sme.rio.rj.gov.br/jcartela/publico/pesquisa.do?idSetor=11237&cmd=load,IPP:FLG_VALIDA:S,addr:street:Rua Professor Clementino Fraga,amenity:school,phone:+55-21-22244054","lat":-22.9093998,"lng":-43.1962157},{"id":"823951577","name":"Ciep Avenida dos Desfiles CA a 4a","tags":"IPP:BAIRRO:Cidade Nova,IPP:CHAVE:11241,IPP:CODATIVIDA:0,IPP:CODBAIRRO:008,IPP:COD_INEP:33062714,IPP:COD_SMA:011241,IPP:CRE:01,IPP:DESIGNACAO:0102503,IPP:ENDERECO:Avenida Salvador de Sá, S/Nº  ,IPP:ENDNOVO:http://webapp.sme.rio.rj.gov.br/jcartela/publico/pesquisa.do?idSetor=11241&cmd=load,IPP:TELEFONES:2293-0008,amenity:school","lat":-22.9112259,"lng":-43.19655},{"id":"823958841","name":"4º DP - Praça da República","tags":"IPP:Codigo:2,addr:city:Rio de Janeiro,addr:country:BR,addr:housenumber:111,addr:street:Praça da República,amenity:police,phone:+55-21-33995010","lat":-22.9082176,"lng":-43.1897681},{"id":"823958911","name":"6º DP - Cidade Nova","tags":"IPP:Codigo:4.000000000,addr:housenumber:77,addr:street:Rua Professor Clementino Fraga,amenity:police,phone:+55-21-33995020","lat":-22.9088219,"lng":-43.1961622},{"id":"823958949","name":"1º DP - Praça Mauá","tags":"IPP:Codigo:1.000000000,IPP:Telefone:3399-5000,amenity:police","lat":-22.9082423,"lng":-43.1897585},{"id":"2587167188","name":"Instituto Estadual de Hematologia","tags":"addr:city:Rio de Janeiro,addr:housenumber:8,addr:postcode:20211-030,addr:street:Rua Frei Caneca,amenity:hospital,emergency:no,phone:+55 21 22328611,short_name:Hemorio,website:http://www.hemorio.rj.gov.br/","lat":-22.9089178,"lng":-43.189421},{"id":"2996015010","name":"Barlam","tags":"addr:city:Rio de Janeiro,addr:postcode:20230-240,addr:street:Rua Marquês de Pombal,addr:suburb:Cidade Nova,amenity:bar,description:Lanchonet,opening_hours:24/7,smoking:outside,wifi:no","lat":-22.9111376,"lng":-43.1936465},{"id":"3041719455","name":"Garagem Novo Senado","tags":"addr:city:Rio de Janeiro,addr:street:Rua do Senado,amenity:parking,fee:yes,parking:multi-storey,supervised:yes","lat":-22.9102905,"lng":-43.1879032},{"id":"3670873499","name":"NTE RIO 3","tags":"addr:city:Rio de Janeiro,addr:street:Rua General Caldwell,amenity:school","lat":-22.9075162,"lng":-43.1924739},{"id":"3670873503","name":"Colégio Estadual Julia Kubitschek","tags":"addr:city:Rio de Janeiro,addr:housenumber:182,addr:postcode:20230-193,addr:street:Rua General Caldwell,addr:suburb:Centro,amenity:school","lat":-22.9072138,"lng":-43.1926819},{"id":"3708646526","name":"Caixa","tags":"amenity:bank","lat":-22.9089746,"lng":-43.1937953},{"id":"3827613404","tags":"shop:convenience","lat":-22.9112829,"lng":-43.1883426},{"id":"3958794362","name":"Trigomania","tags":"amenity:restaurant,cuisine:pizza,takeaway:only","lat":-22.9112099,"lng":-43.1889003},{"id":"4004552929","name":"Drogaria Exata","tags":"addr:city:Rio de Janeiro,addr:housenumber:28,addr:postcode:20230-130,addr:street:Praça da Cruz Vermelha,addr:suburb:Centro,amenity:pharmacy,dispensing:yes,healthcare:pharmacy,opening_hours:Mo-Su 07:00-22:00","lat":-22.9114633,"lng":-43.1884123},{"id":"4325455995","name":"Bombril","tags":"amenity:restaurant","lat":-22.9096561,"lng":-43.1933305},{"id":"4325457131","name":"Estrela Café","tags":"amenity:cafe","lat":-22.909619,"lng":-43.1936912},{"id":"4325457132","name":"Restaurante Monjolo da Santana","tags":"amenity:restaurant","lat":-22.9098772,"lng":-43.1934525},{"id":"4325457133","name":"Restaurante Menino do Globo","tags":"amenity:restaurant","lat":-22.9097957,"lng":-43.193486},{"id":"4325458277","name":"Restaurante Imperial Self-Service","tags":"amenity:restaurant","lat":-22.9108803,"lng":-43.1931212},{"id":"4325465303","name":"Pizzaria Sabor da Natureza","tags":"amenity:restaurant","lat":-22.9114683,"lng":-43.1934565},{"id":"4325465304","name":"Magníficos","tags":"amenity:restaurant","lat":-22.9115424,"lng":-43.1932983},{"id":"4325465305","name":"Mana Mineiro Restaurante","tags":"amenity:restaurant","lat":-22.9118234,"lng":-43.1931995},{"id":"4663104192","name":"Café Senado","tags":"amenity:cafe,name:pt:Café Senado,opening_hours:Mo-Fr 09:00-19:00; Sa-Su 09:00-12:00","lat":-22.9103597,"lng":-43.1880559},{"id":"5038964223","name":"Instituto Hahnemanniano do Brasil","tags":"addr:city:Rio de Janeiro,addr:housenumber:94,addr:postcode:20211-040,addr:street:Rua Frei Caneca,addr:suburb:Centro,amenity:school","lat":-22.9105064,"lng":-43.1925053},{"id":"5071896602","name":"Beco das Letras","tags":"addr:city:Rio de Janeiro,addr:housenumber:40, 3. andar,addr:postcode:20230-130,addr:street:Praça da Cruz Vermelha,addr:suburb:Centro,description:Beco das Letras - Comércio de Livros e Café,email:BECODASLETRAS@YAHOO.COM.BR,shop:books","lat":-22.9116339,"lng":-43.1886836},{"id":"5081896059","name":"Arquivo Nacional","tags":"amenity:library","lat":-22.9067729,"lng":-43.1923317},{"id":"5088960323","name":"Cruz Vermelha","tags":"amenity:hospital","lat":-22.911445,"lng":-43.1878489},{"id":"5122146411","name":"FM - Filhos de Música - Curso de música","tags":"addr:city:Rio de Janeiro,addr:housenumber:255,addr:postcode:20230-195,addr:street:Rua General Caldwell,addr:suburb:Centro,addr:unit:Centro,amenity:school,description:Curso de música: diversos instrumentos.,phone:2509-4817,website:http://www.cursofilhosdemusica.com.br","lat":-22.9102902,"lng":-43.1914009},{"id":"5396291608","name":"Museu da Polícia Militar","tags":"addr:city:Rio de Janeiro,addr:street:Rua Marquês de Pombal,addr:suburb:Centro,tourism:museum","lat":-22.9090962,"lng":-43.1949096},{"id":"5482931160","tags":"addr:city:Rio de Janeiro,addr:street:Avenida Mem de Sá,addr:suburb:Centro,amenity:car_wash","lat":-22.9115304,"lng":-43.189928},{"id":"10317002510","name":"Galeto 183","tags":"amenity:restaurant","lat":-22.9094996,"lng":-43.1934026},{"id":"10726083935","name":"Droga Raia","tags":"addr:city:Rio de Janeiro,addr:housenumber:2,addr:postcode:20230-130,addr:street:Praça da Cruz Vermelha,addr:suburb:Centro,amenity:pharmacy,brand:Droga Raia,brand:wikidata:Q10357101,dispensing:yes,healthcare:pharmacy","lat":-22.9118973,"lng":-43.187678}]