[{"id":"448709913","name":"Restaurante Gambino Nordestino","tags":"addr:city:Rio de Janeiro,addr:housenumber:194,addr:postcode:20230-152,addr:street:Avenida Mem de Sá,addr:suburb:Centro,air_conditioning:yes,amenity:restaurant,cuisine:steak_house,delivery:yes,opening_hours:Mo-Su 11:00-00:00","lat":-22.9120724,"lng":-43.1866864},{"id":"448811933","name":"Restaurante Bar Brasil","tags":"addr:housenumber:90,addr:street:Avenida Mem de Sá,amenity:restaurant","lat":-22.912878,"lng":-43.1821393},{"id":"448811934","name":"Bistrô da Lapa","tags":"amenity:restaurant","lat":-22.9127151,"lng":-43.1820602},{"id":"450707553","name":"Drogarias Max","tags":"addr:city:Rio de Janeiro,addr:housenumber:95,addr:street:Avenida Mem de Sá,addr:suburb:Lapa,amenity:pharmacy,drive_through:no","lat":-22.9131075,"lng":-43.1826357},{"id":"450707576","tags":"amenity:parking,fee:interval,parking:surface","lat":-22.9128879,"lng":-43.1816098},{"id":"559645105","name":"Clube Six","tags":"amenity:nightclub","lat":-22.9120997,"lng":-43.1778772},{"id":"559645108","name":"Lojas Americanas","tags":"addr:city:Rio de Janeiro,addr:housenumber:42,addr:street:Rua do Passeio,addr:suburb:Centro,opening_hours:Mo-Fr 08:30-21:00; Sa 09:00-18:00,shop:convenience,website:http://www.americanas.com.br","lat":-22.912421,"lng":-43.1768977},{"id":"566811636","tags":"amenity:parking","lat":-22.9125453,"lng":-43.1810739},{"id":"677594854","name":"Pacheco","tags":"addr:city:Rio de Janeiro,addr:country:BR,addr:housenumber:40,addr:street:Rua do Passeio,amenity:pharmacy","lat":-22.9120765,"lng":-43.1766176},{"id":"678555476","tags":"amenity:parking","lat":-22.9153694,"lng":-43.1779377},{"id":"678555477","tags":"amenity:parking","lat":-22.9157944,"lng":-43.1777768},{"id":"678555480","name":"Arcos da Lapa","tags":"addr:housenumber:154,addr:street:Rua da Lapa,amenity:restaurant","lat":-22.9159426,"lng":-43.1778197},{"id":"678555509","name":"Recanto da Lapa","tags":"amenity:restaurant","lat":-22.9148358,"lng":-43.1781067},{"id":"678555511","name":"Pague Pouco","tags":"atm:yes,atm:operator:24 Horas,shop:supermarket","lat":-22.9148817,"lng":-43.178088},{"id":"678555526","name":"Ernesto","tags":"addr:housenumber:41,addr:street:Largo do Lapa,amenity:restaurant,phone:+55-21-25096455,website:https://www.barernesto.com.br/","lat":-22.9146333,"lng":-43.1782273},{"id":"727630023","name":"Teatro Odisséia","tags":"addr:housenumber:66,addr:street:Avenida Mem de Sá,amenity:bar","lat":-22.9131059,"lng":-43.1809927},{"id":"727630040","name":"Brazooka","tags":"addr:city:Rio de Janeiro,addr:country:BR,addr:housenumber:70,addr:street:Avenida Mem de Sá,amenity:bar,phone:+55-21-22243236","lat":-22.9130826,"lng":-43.1811437},{"id":"823942192","name":"Escola Municipal Orlando Villas Boas","tags":"IPP:BAIRRO:Santa Teresa,IPP:CHAVE:19113,IPP:CODATIVIDA:0,IPP:CODBAIRRO:014,IPP:COD_INEP:33154597,IPP:COD_SMA:019113,IPP:CRE:01,IPP:DESIGNACAO:0102007,IPP:ENDNOVO:http://webapp.sme.rio.rj.gov.br/jcartela/publico/pesquisa.do?idSetor=19113&cmd=load,IPP:FLG_VALIDA:S,addr:housenumber:103 a 109,addr:street:Rua André Cavalcanti,amenity:school,phone:+55-21-25086786","lat":-22.9167217,"lng":-43.186033},{"id":"823958855","name":"Delegacia da Criança ao Adolescente Vítima (DCAV)","tags":"addr:city:Rio de Janeiro,addr:country:BR,addr:housenumber:155,addr:postcode:20230-070,addr:street:Rua do Lavradio,addr:suburb:Lapa,amenity:police","lat":-22.9124931,"lng":-43.1817986},{"id":"1013519558","tags":"amenity:parking,fee:no","lat":-22.916521,"lng":-43.1770268},{"id":"1198837522","name":"Gohan","tags":"amenity:restaurant,cuisine:japanese","lat":-22.9143159,"lng":-43.1797083},{"id":"1198842681","name":"Pizzaria Guanabara","tags":"amenity:restaurant,cuisine:pizza","lat":-22.9138764,"lng":-43.1790914},{"id":"1198865729","name":"Victor Bar e Restaurante","tags":"amenity:restaurant","lat":-22.913654,"lng":-43.1816607},{"id":"1325763987","name":"Sushi Bar","tags":"amenity:restaurant","lat":-22.9135847,"lng":-43.181403},{"id":"1334674611","name":"Lapa 40 Graus","tags":"addr:city:Rio de Janeiro,addr:country:BR,addr:housenumber:97,addr:street:Rua Riachuelo,amenity:bar,phone:+55-21-39701338,website:http://www.lapa40graus.com.br","lat":-22.9145505,"lng":-43.1833185},{"id":"1334674614","tags":"amenity:parking","lat":-22.9148353,"lng":-43.182929},{"id":"2116854562","name":"Nova Lapa Restaurante","tags":"amenity:restaurant,cuisine:international","lat":-22.912995,"lng":-43.1833295},{"id":"2262435854","name":"Carioca da Gema","tags":"addr:housenumber:79,addr:street:Avenida Mem de Sá,amenity:bar,website:https://www.barcariocadagema.com.br/bar.htm","lat":-22.9132755,"lng":-43.1819106},{"id":"2300353798","name":"Caixa","tags":"amenity:bank,atm:yes","lat":-22.9141279,"lng":-43.1819633},{"id":"2328358849","name":"Favella's","tags":"amenity:bar","lat":-22.9134628,"lng":-43.1810668},{"id":"2328358850","name":"Catrin","tags":"amenity:bar","lat":-22.9134494,"lng":-43.1811609},{"id":"2328412162","tags":"amenity:parking,fee:interval,parking:surface","lat":-22.9121953,"lng":-43.1818274},{"id":"2378595288","name":"Art Fighters","tags":"leisure:sports_centre","lat":-22.9136713,"lng":-43.1871938},{"id":"2378597919","name":"Hospital Ordem Terceira do Carmo","tags":"addr:city:Rio de Janeiro,addr:housenumber:43,addr:postcode:20230-010,addr:street:Rua Riachuelo,addr:suburb:Lapa,amenity:hospital,emergency:yes,phone:(21) 3861-8950","lat":-22.914132,"lng":-43.181461},{"id":"2401793890","name":"Boteco Carioquinha","tags":"amenity:bar","lat":-22.9139103,"lng":-43.1826641},{"id":"2752865566","name":"Choperia do Papai","tags":"addr:city:Rio de Janeiro,addr:housenumber:698,addr:postcode:20231-015,addr:street:Avenida Gomes Freire,addr:suburb:Lapa,amenity:restaurant,phone:+55-21-22833324","lat":-22.9127341,"lng":-43.1828953},{"id":"2804198213","name":"Bar do Adalto","tags":"addr:street:Rua Joaquim Silva,amenity:bar","lat":-22.9159988,"lng":-43.1771871},{"id":"2848295575","name":"Academia Gift Club","tags":"leisure:sports_centre","lat":-22.9150974,"lng":-43.1861219},{"id":"2848295577","name":"Academia Body Move","tags":"leisure:sports_centre","lat":-22.913872,"lng":-43.182163},{"id":"3154265241","tags":"amenity:parking,parking:surface","lat":-22.9141099,"lng":-43.1839239},{"id":"3353308417","name":"Unigranrio","tags":"addr:city:Rio de Janeiro,addr:housenumber:86,addr:postcode:20021-180,addr:street:Rua da Lapa,addr:suburb:Lapa,amenity:university,phone:+55 21 2531 8688,website:http://unigranrio.br","lat":-22.9152812,"lng":-43.1781839},{"id":"3353308418","name":"Colégio de Aplicação Unigranrio","tags":"addr:city:Rio de Janeiro,addr:housenumber:86,addr:postcode:20021-180,addr:street:Rua da Lapa,addr:suburb:Lapa,amenity:school,email:relacionamento@cap.unigranrio.br,phone:+55 21 3219 4040,short_name:CAP Unigranrio,website:http://www.capunigranrio.com.br","lat":-22.9154665,"lng":-43.1781061},{"id":"3755976919","name":"Miguelito Quitutes","tags":"amenity:restaurant,cuisine:pizza","lat":-22.9135291,"lng":-43.1844062},{"id":"3804327280","name":"Lapamaki","tags":"addr:city:Rio de Janeiro,addr:housenumber:67,addr:street:Rua Riachuelo,amenity:restaurant,cuisine:sushi,delivery:yes,level:0,opening_hours:Mo-We 11:30-00:00, Th 11:30-01:00, Fr 11:30-03:00, Sa 11:30-02:00,phone:21 9853-5035, 21 99853-5035,smoking:no,takeaway:yes,website:http://lapamaki.com.br","lat":-22.9141685,"lng":-43.1823139},{"id":"4161152996","name":"Mercearia Gabi","tags":"addr:city:Rio de Janeiro,addr:street:Rua Ubaldino do Amaral,addr:suburb:Lapa,shop:convenience","lat":-22.9127145,"lng":-43.1861551},{"id":"4175095602","name":"Guanabara","tags":"amenity:pharmacy","lat":-22.9124824,"lng":-43.1843647},{"id":"4175106489","name":"Sabor Minas","tags":"addr:housenumber:162,addr:street:Rua dos Inválidos,amenity:restaurant","lat":-22.9124076,"lng":-43.1847298},{"id":"4222539936","name":"SmartFit - Riachuelo","tags":"addr:housenumber:142,addr:street:Rua Riachuelo,leisure:fitness_centre,opening_hours:Mo-Fr 06:00-23:00; Sa 09:00-18:00; Su 09:00-15:00,website:https://www.smartfit.com.br/","lat":-22.9146701,"lng":-43.1853759},{"id":"4253612295","name":"Buraco da Lacraia","tags":"addr:housenumber:58,addr:street:Rua André Cavalcanti,amenity:bar","lat":-22.9154525,"lng":-43.186702},{"id":"4257953789","name":"Nova Capela","tags":"amenity:restaurant","lat":-22.9129151,"lng":-43.1825155},{"id":"4257960289","name":"Bar do Adão","tags":"addr:housenumber:602,addr:street:Avenida Gomes Freire,amenity:restaurant","lat":-22.9121243,"lng":-43.1834359},{"id":"4362185787","name":"Cabine de polícia","tags":"amenity:police","lat":-22.914354,"lng":-43.1772128},{"id":"4451069490","tags":"amenity:restaurant","lat":-22.9140622,"lng":-43.1817917},{"id":"4482888293","name":"Os Ximenes","tags":"addr:housenumber:82,addr:street:Rua Joaquim Silva,amenity:restaurant,name:pt:Os Ximenes","lat":-22.9153283,"lng":-43.1790042},{"id":"4507189382","name":"Museu da Imagem e do Som","tags":"tourism:museum","lat":-22.914124,"lng":-43.1786523},{"id":"4507189385","name":"Adega Flor de Coimbra","tags":"amenity:restaurant,description:Inaugurado em 1938","lat":-22.9149188,"lng":-43.1788335},{"id":"4507469789","name":"Mundial","tags":"shop:supermarket","lat":-22.9148528,"lng":-43.1871913},{"id":"4526104989","name":"Os Ximenes","tags":"addr:street:Avenida Mem de Sá,amenity:restaurant,name:en:The Ximenes,name:pt:Os Ximenes","lat":-22.913001,"lng":-43.1832294},{"id":"4799929124","name":"Gastrononomia Da Lapa","tags":"amenity:restaurant,name:pt:Gastrononomia Da Lapa","lat":-22.9151099,"lng":-43.1790174},{"id":"4859298424","name":"Bradesco","tags":"addr:city:Rio de Janeiro,addr:housenumber:107,addr:postcode:20230-150,addr:street:Avenida Mem de Sá,addr:suburb:Lapa,amenity:bank,atm:yes,brand:Bradesco,brand:wikidata:Q806181,brand:wikipedia:en:Banco Bradesco,drive_through:no,name:en:Bradesco,opening_hours:covid19:Mo-Su 10:00-14:00","lat":-22.9128903,"lng":-43.1835216},{"id":"5089027177","name":"Paiol 08","tags":"addr:city:Rio de Janeiro,addr:housenumber:24,addr:postcode:20230-060,addr:street:Rua dos Arcos,addr:suburb:Lapa,amenity:bar,description:Petiscos e pocket shows. Com varanda.,opening_hours:Mo-Fr 09:00-18:00","lat":-22.9123656,"lng":-43.180214},{"id":"5093501181","name":"Rede Economia","tags":"addr:city:Rio de Janeiro,addr:housenumber:764,addr:postcode:20231-015,addr:street:Avenida Gomes Freire,addr:suburb:Lapa,shop:supermarket","lat":-22.9135925,"lng":-43.1827807},{"id":"5093502668","name":"Banco Santander","tags":"addr:city:Rio de Janeiro,addr:housenumber:788 - Lojas A e B,addr:postcode:20231-015,addr:street:Avenida Gomes Freire,addr:suburb:Lapa,amenity:bank,brand:Banco Santander,brand:en:Santander Bank,brand:es:Banco Santander,brand:wikidata:Q6496310,brand:wikipedia:es:Banco Santander,name:en:Santander Bank,name:es:Banco Santander","lat":-22.9136426,"lng":-43.1827604},{"id":"5093503789","name":"Banco Itaú","tags":"addr:city:Rio de Janeiro,addr:housenumber:788 - Loja E,addr:postcode:20231-015,addr:street:Avenida Gomes Freire,addr:suburb:Lapa,amenity:bank","lat":-22.913736,"lng":-43.1827224},{"id":"5093505126","name":"DrogaLife","tags":"addr:city:Rio de Janeiro,addr:housenumber:89,addr:postcode:20230-010,addr:street:Rua Riachuelo,addr:suburb:Lapa,amenity:pharmacy","lat":-22.9142477,"lng":-43.1823746},{"id":"5093526039","name":"Livraria do Wilsinho","tags":"addr:city:Rio de Janeiro,addr:housenumber:18,addr:postcode:20231-094,addr:street:Rua do Rezende,addr:suburb:Lapa,shop:books","lat":-22.9119955,"lng":-43.1828502},{"id":"5119650721","name":"Café Cultural Sacrelégio","tags":"amenity:bar","lat":-22.9132296,"lng":-43.1820848},{"id":"5142774675","tags":"amenity:atm","lat":-22.913459,"lng":-43.1809991},{"id":"5161154208","name":"Gouranga Veggie","tags":"addr:city:Rio de Janeiro,addr:housenumber:625,addr:postcode:20231-014,addr:street:Avenida Gomes Freire,addr:suburb:Lapa,amenity:restaurant,diet:vegetarian:only,level:1,phone:+55 21 2252-6052","lat":-22.9122804,"lng":-43.1831438},{"id":"5656710121","name":"La Bocca","tags":"amenity:restaurant","lat":-22.9151086,"lng":-43.1867948},{"id":"6080997385","name":"Nova Lapa","tags":"addr:street:Rua do Rezende,amenity:restaurant,cuisine:brazilian","lat":-22.9123221,"lng":-43.1833707},{"id":"6103183737","name":"Armazém do Campo Produtos da Terra","tags":"addr:city:Rio de Janeiro,addr:housenumber:135,addr:street:Avenida Mem de Sá,addr:suburb:Lapa,organic:only,shop:supermarket","lat":-22.912677,"lng":-43.1849352},{"id":"6311882585","name":"Da Lapa","tags":"amenity:restaurant,cuisine:local,opening_hours:Mo-Su 09:00-17:00,phone:2122422129","lat":-22.9145655,"lng":-43.1848489},{"id":"6988128889","name":"Panka","tags":"addr:housenumber:243,addr:street:Rua da Lapa,amenity:restaurant","lat":-22.9166716,"lng":-43.1772694},{"id":"6989436588","name":"Panka","tags":"addr:housenumber:243,addr:street:Rua da Lapa,amenity:restaurant,name:en:Panka Peruvian kitchen,name:pt:Panka Cozinha Peruana,phone:+55 21 2147-4333,website:https://panka-cozinha-peruana.negocio.site","lat":-22.9166019,"lng":-43.1770625},{"id":"9282924117","name":"Espaço Cultural Forró do Rio","tags":"addr:housenumber:13,addr:postcode:20230-010,addr:street:Rua Riachuelo,amenity:nightclub,opening_hours:Mo-Sa 16:30-22:00,website:http://forrodorio.com.br","lat":-22.9136903,"lng":-43.1805067},{"id":"9316622017","name":"Bistrô Multifoco","tags":"addr:housenumber:126,addr:street:Avenida Mem de Sá,amenity:restaurant","lat":-22.9126538,"lng":-43.183891},{"id":"9352886317","name":"Gastronomia Peruana","tags":"addr:housenumber:134,addr:street:Rua Joaquim Silva,amenity:restaurant,cuisine:peruvian","lat":-22.9139009,"lng":-43.1800032},{"id":"9548541617","name":"Scaleira selaron","tags":"tourism:attraction","lat":-22.9157338,"lng":-43.1799999},{"id":"9684055117","name":"Mural Mapa Mundi","tags":"tourism:attraction","lat":-22.9149327,"lng":-43.1787493},{"id":"9690654358","name":"Biblioteca Alberto Nepomuceno","tags":"amenity:library,operator:Escola de Música da UFRJ","lat":-22.9133367,"lng":-43.1783703},{"id":"9705911017","name":"Padaria Panificadora e Confeitaria Gran Rio","tags":"amenity:cafe,name:en:Bakery Panificadora e Confeitaria Gran Rio","lat":-22.9131828,"lng":-43.1829787},{"id":"9737916817","name":"Correios","tags":"addr:housenumber:113,addr:street:Rua da Lapa,amenity:post_office","lat":-22.9155749,"lng":-43.1776677},{"id":"9783311137","name":"Fabrik do Drink","tags":"addr:city:Rio de Janeiro,addr:housenumber:70,addr:postcode:20230-152.,addr:street:Avenida Mem de Sá,addr:suburb:Lapa,amenity:bar,brewery:yes,min_age:18,opening_hours:We-Sa 18:00- 02:00","lat":-22.9131573,"lng":-43.1810715},{"id":"10726083947","name":"Arco-Íris","tags":"addr:city:Rio de Janeiro,addr:housenumber:202,addr:postcode:20230-070,addr:street:Rua do Lavradio,addr:suburb:Lapa,amenity:restaurant","lat":-22.91345,"lng":-43.1816839}]