[{"id":"2015314145","tags":"amenity:restaurant","lat":-22.9946087,"lng":-43.2353955},{"id":"2015314157","tags":"shop:supermarket","lat":-22.994668,"lng":-43.2385766},{"id":"2015314169","tags":"amenity:hospital,emergency:no","lat":-22.995063,"lng":-43.2392364},{"id":"2015314201","tags":"shop:supermarket","lat":-22.9961321,"lng":-43.2396736},{"id":"2015314229","tags":"amenity:pharmacy","lat":-22.9947272,"lng":-43.239054},{"id":"2015314249","tags":"shop:supermarket","lat":-22.9960606,"lng":-43.2399849},{"id":"2015314252","name":"Banco Postal","tags":"amenity:post_office","lat":-22.9948581,"lng":-43.2391279},{"id":"2015314255","tags":"amenity:pharmacy","lat":-22.9946285,"lng":-43.2347491},{"id":"2015314257","tags":"amenity:atm","lat":-22.9947272,"lng":-43.2390244},{"id":"2015314263","name":"Paladar Nordestino","tags":"amenity:restaurant","lat":-22.9950532,"lng":-43.2397822},{"id":"2015314276","name":"Mercado Novo Mero","tags":"shop:supermarket","lat":-22.9944161,"lng":-43.235197},{"id":"2015314295","tags":"amenity:nightclub","lat":-22.9947275,"lng":-43.235583},{"id":"2015314301","name":"UPP (Sede)","tags":"amenity:police","lat":-22.9959919,"lng":-43.2402996},{"id":"3270494313","name":"Bar Lacubaco","tags":"addr:city:Rio de Janeiro,addr:housenumber:538,addr:street:Avenida Presidente João Goulart,addr:suburb:Vidigal,amenity:restaurant,capacity:60,cuisine:regional,opening_hours:Mo-Sa 11:30-16:00,phone:+55 21 24226649,smoking:no","lat":-22.9944681,"lng":-43.2375802},{"id":"3740486800","name":"Parque Ecológico Sitiê","tags":"leisure:park,website:https://www.parquesitie.org/","lat":-22.9979553,"lng":-43.2414834},{"id":"6173132891","name":"Zuma Sushi Bar","tags":"addr:city:Rio de Janeiro,addr:housenumber:161,addr:postcode:22450-242,addr:street:Avenida Presidente João Goulart,addr:suburb:Vidigal,amenity:restaurant,capacity:60,contact:facebook:https://www.facebook.com/sushizuma,contact:instagram:https://www.instagram.com/zumasb/,contact:phone:+55 21 99076-4415,contact:website:https://zuma-vidi.ga,contact:whatsapp:+55 21 99076-4415,cuisine:sushi;chinese;japanese;teriyaki;sashimi;arroz_e_feijão,delivery:yes,drink:beer:bottled,drink:soft_drink:bottled,drink:water:bottled,fee:no,internet_access:wlan,level:0,opening_hours:Mo-Fr 10:00-23:59, Sa-Su 11:00-01:00,outdoor_seating:yes,payment:cash:yes,payment:coins:yes,payment:credit_cards:yes,payment:debit_cards:yes,payment:maestro:yes,payment:notes:yes,payment:paypal:yes,payment:token:yes,payment:visa_debit:yes,payment:visa_electron:yes,phone:+55 21 99076-4415,smoking:isolated,takeaway:yes","lat":-22.9947345,"lng":-43.2357598}]