[{"id":"823940153","name":"Escola Municipal Antônio Raposo Tavares","tags":"IPP:BAIRRO:Gamboa,IPP:CHAVE:11223,IPP:CODATIVIDA:0,IPP:CODBAIRRO:002,IPP:COD_INEP:33062412,IPP:COD_SMA:011223,IPP:CRE:01,IPP:DESIGNACAO:0101002,IPP:ENDNOVO:http://webapp.sme.rio.rj.gov.br/jcartela/publico/pesquisa.do?idSetor=11223&cmd=load,IPP:FLG_VALIDA:S,addr:housenumber:73,addr:street:Rua do Propósito,amenity:school,phone:+55-21-25180879","lat":-22.89566,"lng":-43.1942822},{"id":"823940256","name":"Classe em Cooperação Darcy Vargas","tags":"IPP:BAIRRO:Gamboa,IPP:CHAVE:11224,IPP:CODATIVIDA:0,IPP:CODBAIRRO:002,IPP:COD_INEP:33062439,IPP:COD_SMA:011224,IPP:CRE:01,IPP:DESIGNACAO:0101003,IPP:ENDERECO:Rua Souza e Silva, 112  ,IPP:ENDNOVO:http://webapp.sme.rio.rj.gov.br/jcartela/publico/pesquisa.do?idSetor=11224&cmd=load,IPP:FLG_VALIDA:N,IPP:TELEFONES:2233-0593,amenity:school","lat":-22.8957528,"lng":-43.1893224},{"id":"1805710846","name":"Hospital Federal dos Servidores do Estado","tags":"alt_name:Hospital dos Servidores do Estado,amenity:hospital,emergency:yes,website:http://www.hse.rj.saude.gov.br/,wikidata:Q30280123","lat":-22.8966157,"lng":-43.1882694},{"id":"9306483721","name":"Casa Tia Ciata","tags":"tourism:museum","lat":-22.8979844,"lng":-43.1874061},{"id":"9501102519","name":"MUHCAB - Museu da História e Cultura Afro-Brasileira","tags":"tourism:museum","lat":-22.8962166,"lng":-43.1944001}]