[{"id":"557557822","name":"Brewteco","tags":"amenity:restaurant,cuisine:brazilian","lat":-22.9739112,"lng":-43.2271653},{"id":"823944954","name":"Escola Municipal Desembargador Oscar Tenório","tags":"IPP:BAIRRO:Gávea,IPP:CHAVE:10839,IPP:CODATIVIDA:0,IPP:CODBAIRRO:029,IPP:COD_INEP:33065667,IPP:COD_SMA:010839,IPP:CRE:02,IPP:DESIGNACAO:0206020,IPP:ENDNOVO:http://webapp.sme.rio.rj.gov.br/jcartela/publico/pesquisa.do?idSetor=10839&cmd=load,IPP:FLG_VALIDA:S,addr:city:Rio de Janeiro,addr:housenumber:141,addr:street:Rua Professor Manoel Ferreira,addr:suburb:Gávea,amenity:school,fee:no,phone:+55-21-22746446","lat":-22.9775389,"lng":-43.2280038},{"id":"823945080","name":"Escola Municipal Manoel Cícero","tags":"IPP:BAIRRO:Gávea,IPP:CHAVE:10834,IPP:CODATIVIDA:0,IPP:CODBAIRRO:029,IPP:COD_INEP:33065748,IPP:COD_SMA:010834,IPP:CRE:02,IPP:DESIGNACAO:0206015,IPP:ENDERECO:Pça. Santos Dumont, 86  ,IPP:ENDNOVO:http://webapp.sme.rio.rj.gov.br/jcartela/publico/pesquisa.do?idSetor=10834&cmd=load,IPP:FLG_VALIDA:S,IPP:TELEFONES:2274-5549,amenity:school","lat":-22.9732829,"lng":-43.2268973},{"id":"823948168","name":"Escola Municipal Artur Ramos","tags":"IPP:BAIRRO:Gávea,IPP:CHAVE:10836,IPP:CODATIVIDA:0,IPP:CODBAIRRO:029,IPP:COD_INEP:33065616,IPP:COD_SMA:010836,IPP:CRE:02,IPP:DESIGNACAO:0206017,IPP:ENDNOVO:http://webapp.sme.rio.rj.gov.br/jcartela/publico/pesquisa.do?idSetor=10836&cmd=load,IPP:FLG_VALIDA:S,addr:housenumber:147,addr:street:Rua Marques de São Vicente,amenity:school,phone:+55-21-22745698","lat":-22.9775563,"lng":-43.2308987},{"id":"823951814","name":"Escola Municipal Júlio de Castilhos","tags":"IPP:BAIRRO:Gávea,IPP:CHAVE:10835,IPP:CODATIVIDA:0,IPP:CODBAIRRO:029,IPP:COD_INEP:33065713,IPP:COD_SMA:010835,IPP:CRE:02,IPP:DESIGNACAO:0206016,IPP:ENDERECO:Pça. Santos Dumont, 96  ,IPP:ENDNOVO:http://webapp.sme.rio.rj.gov.br/jcartela/publico/pesquisa.do?idSetor=10835&cmd=load,IPP:FLG_VALIDA:S,IPP:TELEFONES:2274-5496,amenity:school","lat":-22.9735984,"lng":-43.2271057},{"id":"2507849194","name":"Beach Sucos","tags":"amenity:restaurant","lat":-22.9753741,"lng":-43.2274184},{"id":"2507849210","name":"Zona Sul","tags":"shop:supermarket","lat":-22.975022,"lng":-43.22655},{"id":"2507850930","name":"Vila 90","tags":"amenity:restaurant","lat":-22.9761685,"lng":-43.22918},{"id":"2507850931","name":"Thalho Delicatessen","tags":"amenity:cafe","lat":-22.9750576,"lng":-43.2273159},{"id":"2568311569","name":"Delírio Tropical","tags":"amenity:restaurant","lat":-22.9759625,"lng":-43.2287145},{"id":"2568317062","name":"Da Casa da Táta","tags":"addr:city:Rio de Janeiro,addr:housenumber:89,addr:street:Rua Professor Manoel Ferreira,addr:suburb:Gávea,amenity:restaurant,opening_hours:Mo-Fr 08:00-20:00; Sa 08:00-18:30; Su 09:00-14:00,phone:+55-21-25110947,website:http://www.dacasadatata.com.br/home.html","lat":-22.9765206,"lng":-43.2289451},{"id":"2568326593","name":"Guimas","tags":"addr:city:Rio de Janeiro,addr:housenumber:5,addr:street:Rua José Roberto Macedo Soares,addr:suburb:Gávea,amenity:restaurant,capacity:50,phone:+55-21-22597996,website:http://restauranteguimas.com.br/","lat":-22.9738696,"lng":-43.2276899},{"id":"3369034482","name":"Sushimar","tags":"amenity:restaurant,cuisine:japanese","lat":-22.9739805,"lng":-43.2276747},{"id":"3752995904","tags":"amenity:parking","lat":-22.9724301,"lng":-43.2244781},{"id":"4326298265","name":"Banco do Brasil","tags":"amenity:bank,atm:yes,drive_through:no","lat":-22.9749147,"lng":-43.2272149},{"id":"4525520845","tags":"amenity:bar","lat":-22.9742056,"lng":-43.2273078},{"id":"5241143054","name":"am/pm","tags":"shop:convenience","lat":-22.9752696,"lng":-43.2259546},{"id":"5842526186","name":"Le","tags":"addr:housenumber:86,addr:postcode:22451040,addr:street:Rua Marquês de São Vicente,amenity:restaurant,name:en:Le pain du lapin,name:pt:Le pain du lapin","lat":-22.9762122,"lng":-43.2292268},{"id":"8447141317","name":"Rede Ultra","tags":"addr:housenumber:105,addr:street:Rua Marquês de São Vicente,name:en:Supermarket Ultra,shop:supermarket","lat":-22.9769956,"lng":-43.2299379}]