[{"id":"345947047","name":"Cristal","tags":"addr:city:Rio de Janeiro,addr:housenumber:387A,addr:street:Rua das Laranjeiras,addr:suburb:Laranjeiras,amenity:pharmacy,healthcare:pharmacy,phone:+55-21-22659780","lat":-22.9367668,"lng":-43.1900586},{"id":"556703770","name":"Correios","tags":"addr:city:Rio de Janeiro,addr:street:Rua Alice,addr:suburb:Laranjeiras,amenity:post_office,brand:Correios,brand:wikidata:Q3375004,brand:wikipedia:en:Correios","lat":-22.9362274,"lng":-43.1904856},{"id":"556703805","name":"RIC","tags":"addr:street:Rua Alice,addr:suburb:Laranjeiras,amenity:pharmacy,drive_through:no,healthcare:pharmacy,phone:+55-21-22652050","lat":-22.9361745,"lng":-43.190617},{"id":"3291650781","name":"Oranji","tags":"addr:city:Rio de Janeiro,addr:housenumber:336,addr:street:Rua das Laranjeiras,addr:suburb:Laranjeiras,amenity:restaurant,cuisine:japanese,level:0,old_name:Sushi Laranjeiras","lat":-22.9354926,"lng":-43.189742},{"id":"3355158264","name":"Mercearia Fuji","tags":"addr:city:Rio de Janeiro,addr:housenumber:280D,addr:postcode:22240-001,addr:street:Rua das Laranjeiras,addr:suburb:Laranjeiras,alcohol:yes,cuisine:japanese,phone:+55 21 2226 4894,shop:convenience","lat":-22.9346108,"lng":-43.1880775},{"id":"3355158266","name":"Home Pizza","tags":"addr:city:Rio de Janeiro,addr:housenumber:280A,addr:street:Rua das Laranjeiras,addr:suburb:Laranjeiras,amenity:restaurant,cuisine:pizza,delivery:yes,phone:+55 21 2205 9977","lat":-22.9345936,"lng":-43.1880419},{"id":"3375612631","name":"Espaço de Desenvolvimento Infantil Professora Sarita Konder","tags":"amenity:childcare","lat":-22.9367799,"lng":-43.1972076},{"id":"3524226295","name":"Pizza na Pedra","tags":"addr:city:Rio de Janeiro,addr:housenumber:59,addr:postcode:22241-020,addr:street:Rua Alice,addr:suburb:Laranjeiras,amenity:restaurant,cuisine:pizza,delivery:yes,opening_hours:Tu-Su 18:00-00:00,phone:+55 21 2556-2167,takeaway:only,website:http://pizzanapedrarj.com.br/","lat":-22.9360968,"lng":-43.1907727},{"id":"3755977425","name":"Banco do Brasil","tags":"addr:city:Rio de Janeiro,addr:street:Rua das Laranjeiras,addr:suburb:Laranjeiras,amenity:bank,atm:yes,brand:Banco do Brasil,brand:wikidata:Q610817,brand:wikipedia:en:Banco do Brasil,drive_through:no","lat":-22.9375923,"lng":-43.1904965},{"id":"3755979525","name":"Santander","tags":"addr:city:Rio de Janeiro,addr:housenumber:404,addr:postcode:22240-005,addr:street:Rua das Laranjeiras,addr:suburb:Laranjeiras,amenity:bank,atm:yes,brand:Santander,brand:wikidata:Q5835668,brand:wikipedia:en:Santander Bank,drive_through:no","lat":-22.9378231,"lng":-43.1905879},{"id":"4416666193","name":"Drogaria Pacheco","tags":"addr:city:Rio de Janeiro,addr:housenumber:430,addr:street:Rua das Laranjeiras,addr:suburb:Laranjeiras,amenity:pharmacy,dispensing:yes,drive_through:no,healthcare:pharmacy","lat":-22.9382701,"lng":-43.1916274},{"id":"4416700693","name":"Imperial","tags":"addr:city:Rio de Janeiro,addr:housenumber:174D,addr:street:Rua Cosme Velho,addr:suburb:Cosme Velho,payment:cash:yes,payment:credit_cards:yes,payment:debit_cards:yes,shop:supermarket","lat":-22.9389111,"lng":-43.1962339},{"id":"4992602921","name":"Banco do Brasil","tags":"addr:city:Rio de Janeiro,addr:street:Rua das Laranjeiras,addr:suburb:Laranjeiras,amenity:bank,atm:yes,brand:Banco do Brasil,brand:wikidata:Q610817,brand:wikipedia:en:Banco do Brasil,drive_through:no,name:pt:Banco do Brasil","lat":-22.9385274,"lng":-43.1910695},{"id":"5478989649","name":"Boteco Doc","tags":"amenity:restaurant","lat":-22.9384684,"lng":-43.1931916},{"id":"6374823885","name":"Fisk Centro de Idiomas","tags":"amenity:school","lat":-22.938733,"lng":-43.195784},{"id":"6374823886","name":"CCAA Laranjeiras","tags":"addr:city:Rio de Janeiro,addr:street:Rua das Laranjeiras,addr:suburb:Laranjeiras,amenity:school,level:1","lat":-22.935091,"lng":-43.1888832},{"id":"8075832347","name":"Drogaria Max","tags":"addr:city:Rio de Janeiro,addr:housenumber:15B,addr:street:Rua General Glicério,addr:suburb:Laranjeiras,amenity:pharmacy,dispensing:yes,drive_through:no,healthcare:pharmacy","lat":-22.9386964,"lng":-43.1914703},{"id":"8077903811","name":"Drogaria Cristal","tags":"addr:city:Rio de Janeiro,addr:street:Rua Cosme Velho,addr:suburb:Cosme Velho,amenity:pharmacy,dispensing:yes,drive_through:no,healthcare:pharmacy","lat":-22.9390143,"lng":-43.1962478},{"id":"8077932846","name":"Livraria Entretexto","tags":"addr:postcode:22240-004,shop:books","lat":-22.9361758,"lng":-43.1897498},{"id":"8077932855","name":"Drogaria Wilson","tags":"addr:city:Rio de Janeiro,addr:housenumber:347C,addr:postcode:22240-004,addr:street:Rua das Laranjeiras,addr:suburb:Laranjeiras,amenity:pharmacy,dispensing:yes,drive_through:no,healthcare:pharmacy","lat":-22.9358527,"lng":-43.1894728},{"id":"8077953461","name":"Mae Noi","tags":"addr:city:Rio de Janeiro,addr:housenumber:371C,addr:street:Rua das Laranjeiras,addr:suburb:Laranjeiras,amenity:restaurant,cuisine:thai","lat":-22.9363863,"lng":-43.1899225},{"id":"8077953465","name":"Hideway","tags":"addr:city:Rio de Janeiro,addr:street:Rua das Laranjeiras,addr:suburb:Laranjeiras,amenity:restaurant,cuisine:pizza","lat":-22.935029,"lng":-43.1888733},{"id":"8078085185","name":"Da Horta","tags":"addr:city:Rio de Janeiro,addr:street:Rua das Laranjeiras,addr:suburb:Laranjeiras,payment:cash:yes,payment:credit_cards:yes,payment:debit_cards:yes,shop:supermarket","lat":-22.9376882,"lng":-43.1905398},{"id":"8078085187","name":"Exata Fitness","tags":"addr:city:Rio de Janeiro,addr:street:Rua das Laranjeiras,addr:suburb:Laranjeiras,leisure:fitness_centre,level:1","lat":-22.9353788,"lng":-43.1897697},{"id":"8132042908","name":"TITO","tags":"addr:city:Rio de Janeiro,addr:housenumber:280C,addr:street:Rua das Laranjeiras,addr:suburb:Laranjeiras,shop:supermarket","lat":-22.9346041,"lng":-43.1880619},{"id":"9510500574","name":"Pet Market","tags":"addr:city:Rio de Janeiro,addr:housenumber:280,addr:street:Rua das Laranjeiras,addr:suburb:Laranjeiras,phone:(21) 2285-4754,shop:pet","lat":-22.9346366,"lng":-43.1881262}]