[{"id":"1959854071","name":"L' Orangerie Wine Store","tags":"addr:city:Rio de Janeiro,addr:housenumber:364A,addr:street:Rua General Glicério,addr:suburb:Laranjeiras,amenity:bar","lat":-22.941764,"lng":-43.1918796},{"id":"2838751703","name":"Bica da Rainha","tags":"addr:city:Rio de Janeiro,addr:housenumber:381,addr:street:Rua Cosme Velho,tourism:attraction,wikidata:Q48862982","lat":-22.9406716,"lng":-43.1970557},{"id":"4471839903","name":"Maya Café","tags":"addr:city:Rio de Janeiro,addr:housenumber:15B,addr:postcode:22245-100,addr:street:Rua Professor Ortiz Monteiro,addr:suburb:Laranjeiras,amenity:restaurant,cuisine:various,delivery:yes,description:Coffee and meals, children's corner/room,smoking:no,takeaway:yes,website:https://www.mayacafe.com.br/","lat":-22.9411812,"lng":-43.1920351},{"id":"5142775689","tags":"shop:supermarket","lat":-22.9403142,"lng":-43.1970054},{"id":"5142775776","tags":"shop:convenience","lat":-22.940487,"lng":-43.1974253},{"id":"5820578025","name":"Curiosa Idade","tags":"amenity:childcare","lat":-22.939542,"lng":-43.1905658},{"id":"9601064198","tags":"leisure:fitness_centre,sport:yoga","lat":-22.9421881,"lng":-43.1921542},{"id":"9604397927","tags":"addr:city:Rio de Janeiro,addr:housenumber:24,addr:street:Rua General Cristóvão Barcelos,addr:suburb:Laranjeiras,shop:supermarket","lat":-22.9411517,"lng":-43.1914438},{"id":"9611775458","name":"Glicerina - Café · Cervejaria · Galeria de arte","tags":"addr:city:Rio de Janeiro,addr:housenumber:445C,addr:street:Rua General Glicério,addr:suburb:Laranjeiras,amenity:restaurant","lat":-22.942603,"lng":-43.1914771},{"id":"9611775459","name":"Cardamomo Saúde","tags":"addr:city:Rio de Janeiro,addr:housenumber:445B,addr:street:Rua General Glicério,addr:suburb:Laranjeiras,amenity:restaurant","lat":-22.9425555,"lng":-43.1914832},{"id":"9611775460","name":"Erni Coifeure","tags":"addr:city:Rio de Janeiro,addr:housenumber:445A,addr:street:Rua General Glicério,addr:suburb:Laranjeiras,shop:beauty","lat":-22.9424389,"lng":-43.1914796},{"id":"9613357800","tags":"addr:city:Rio de Janeiro,addr:suburb:Laranjeiras,shop:pet","lat":-22.9411588,"lng":-43.1912903}]