[{"id":"823951188","name":"Escola Municipal Capistrano de Abreu","tags":"IPP:BAIRRO:Jardim Botânico,IPP:CHAVE:10829,IPP:CODATIVIDA:0,IPP:CODBAIRRO:028,IPP:COD_INEP:33065632,IPP:COD_SMA:010829,IPP:CRE:02,IPP:DESIGNACAO:0206010,IPP:ENDNOVO:http://webapp.sme.rio.rj.gov.br/jcartela/publico/pesquisa.do?idSetor=10829&cmd=load,IPP:FLG_VALIDA:S,addr:city:Rio de Janeiro,addr:country:BR,addr:housenumber:984,addr:street:Rua Pacheco Leão,amenity:school,phone:+55-21-22946498","lat":-22.9654991,"lng":-43.2288053},{"id":"823951619","name":"Escola Municipal Camilo Castelo Branco","tags":"IPP:BAIRRO:Jardim Botânico,IPP:CHAVE:10831,IPP:CODATIVIDA:0,IPP:CODBAIRRO:028,IPP:COD_INEP:33065624,IPP:COD_SMA:010831,IPP:CRE:02,IPP:DESIGNACAO:0206012,IPP:ENDNOVO:http://webapp.sme.rio.rj.gov.br/jcartela/publico/pesquisa.do?idSetor=10831&cmd=load,IPP:FLG_VALIDA:S,addr:city:Rio de Janeiro,addr:country:BR,addr:housenumber:1004,addr:street:Rua Pacheco Leão,amenity:school,phone:+55-21-22949248","lat":-22.9656819,"lng":-43.2290789},{"id":"823951736","name":"Classe em Cooperação Júlia Kubitschek","tags":"IPP:BAIRRO:Jardim Botânico,IPP:CHAVE:10832,IPP:CODATIVIDA:0,IPP:CODBAIRRO:028,IPP:COD_INEP:33065705,IPP:COD_SMA:010832,IPP:CRE:02,IPP:DESIGNACAO:0206013,IPP:ENDNOVO:http://webapp.sme.rio.rj.gov.br/jcartela/publico/pesquisa.do?idSetor=10832&cmd=load,IPP:FLG_VALIDA:S,addr:city:Rio de Janeiro,addr:country:BR,addr:housenumber:1235,addr:street:Rua Pacheco Leão,amenity:school,phone:+55-21-22947848","lat":-22.9668374,"lng":-43.2298994},{"id":"1701761105","name":"Puro Restaurante","tags":"addr:city:Rio de Janeiro,addr:housenumber:43,addr:street:Rua Visconde de Carandaí,addr:suburb:Jardim Botânico,amenity:restaurant,capacity:63,contact:phone:+55 21 3284-5377,cuisine:regional,opening_hours:Mo 13:00-20:00; Tu-Th 17:00-01:00; Fr-Sa 13:00-01:00,website:http://www.purorestaurante.com.br","lat":-22.9659542,"lng":-43.2205117},{"id":"1786392070","name":"Borogodó","tags":"addr:housenumber:836,addr:street:Rua Pacheco Leão,amenity:restaurant,cuisine:brazilian,phone:+55-21-34950836,website:http://www.restauranteborogodo.com.br/","lat":-22.9652843,"lng":-43.2271542},{"id":"1786392088","name":"Yumê","tags":"addr:housenumber:758,addr:street:Rua Pacheco Leão,amenity:restaurant,cuisine:japanese,phone:+55-21-32057321,website:http://yumekin.com/","lat":-22.9653525,"lng":-43.2263951},{"id":"1786392098","name":"Couve Flor","tags":"addr:housenumber:724D,addr:street:Rua Pacheco Leão,amenity:restaurant,cuisine:brazilian,internet_access:wlan,phone:+55-21-31148710,website:http://couveflor.com.br","lat":-22.965402,"lng":-43.225891},{"id":"1786392107","name":"Jojô","tags":"addr:housenumber:812,addr:street:Rua Pacheco Leão,amenity:cafe,opening_hours:Mo 13:00-20:00; Tu,We 17:00-24:00; Th 17:00-01:00; Fr,Sa 13:00-01:00,phone:+55-21-35659007,website:http://www.jojocafe.com.br/","lat":-22.9653049,"lng":-43.2269306},{"id":"1786392108","name":"Do Horto","tags":"addr:housenumber:780,addr:street:Rua Pacheco Leão,amenity:restaurant","lat":-22.9653426,"lng":-43.226615},{"id":"1815441021","name":"Colégio Estadual Manuel Bandeira","tags":"amenity:school","lat":-22.9652893,"lng":-43.2293014},{"id":"2014516073","name":"Mini Mercado Pacheco Leão","tags":"addr:housenumber:1206,addr:street:Rua Pacheco Leão,shop:convenience","lat":-22.9665673,"lng":-43.2304609},{"id":"2014576873","name":"Colégio Divina Providência","tags":"addr:city:Rio de Janeiro,addr:housenumber:274,addr:street:Rua Lopes Quintas,amenity:school,phone:+55-21-22945698,website:http://www.cdprio.com.br/","lat":-22.9641185,"lng":-43.2210888},{"id":"2014576875","name":"Rio Master","tags":"amenity:restaurant","lat":-22.9643454,"lng":-43.2217203},{"id":"2014576876","name":"Itália Pizza","tags":"amenity:restaurant,cuisine:pizza,phone:+55-21-32057004; +55-21-22746243","lat":-22.9644757,"lng":-43.2227784},{"id":"2014576880","name":"Toquinha da Globo","tags":"shop:convenience","lat":-22.9648352,"lng":-43.2225832},{"id":"2960219600","name":"Casa Carandaí","tags":"amenity:cafe,cuisine:coffee_shop","lat":-22.9647491,"lng":-43.2202583},{"id":"4306380874","name":"Ric","tags":"amenity:pharmacy","lat":-22.9649317,"lng":-43.2225538},{"id":"4306380875","name":"Au miAu","tags":"shop:pet","lat":-22.9650058,"lng":-43.2225269},{"id":"4487548819","name":"Restaurante Avenca","tags":"addr:city:Rio de Janeiro,addr:housenumber:110,addr:postcode:22460-030,addr:street:Rua Pacheco Leão,addr:suburb:Jardim Botânico,amenity:restaurant,capacity:80,cuisine:brazilian,delivery:no,opening_hours:Mo-Sa 11:30-16:00,takeaway:yes","lat":-22.9659955,"lng":-43.2204364},{"id":"4525520368","tags":"amenity:cafe,opening_hours:09:00-18:00","lat":-22.966592,"lng":-43.2267448},{"id":"4580388690","tags":"name:en:Waterfall trailhead,tourism:attraction","lat":-22.9639448,"lng":-43.2308793},{"id":"10262053738","name":"Sud, o pássaro verde","tags":"addr:city:Rio de Janeiro,addr:housenumber:35,addr:postcode:22460-020,addr:street:Rua Visconde de Carandaí,addr:suburb:Jardim Botânico,air_conditioning:yes,amenity:restaurant,contact:phone:+55 21 31140464,contact:website:http://www.robertasudbrack.com.br/,cuisine:brazilian,delivery:yes,opening_hours:Tu-Su 18:00-22:00, Su 12:00-17:00,reservation:yes,wheelchair:yes","lat":-22.9656849,"lng":-43.2202857}]