[{"id":"823943845","name":"Escola Municipal Professor Josué de Castro","tags":"IPP:ENDERECO:Avenida Brasil, 4.040 - Rua 6, S/Nº,addr:city:Rio de Janeiro,addr:suburb:Maré,amenity:school,phone:+55 21 3104-7747","lat":-22.8737513,"lng":-43.240754},{"id":"823945655","name":"Escola Municipal Teotonio Vilela","tags":"IPP:ENDNOVO:http://webapp.sme.rio.rj.gov.br/jcartela/publico/pesquisa.do?idSetor=11590&cmd=load,addr:street:Rua Manoel Falcão,addr:suburb:Maré,amenity:school,phone:+55 21 2280-3816","lat":-22.8762314,"lng":-43.2388256},{"id":"8677415998","tags":"amenity:parking,parking:surface","lat":-22.8788815,"lng":-43.2417646},{"id":"8677415999","tags":"amenity:parking,parking:surface","lat":-22.8782239,"lng":-43.2419025},{"id":"8679780794","tags":"amenity:parking","lat":-22.8779912,"lng":-43.2400834},{"id":"8679780795","tags":"amenity:parking","lat":-22.8772879,"lng":-43.2407111},{"id":"8679780796","tags":"amenity:parking","lat":-22.8767975,"lng":-43.2404925},{"id":"8679780797","tags":"amenity:parking","lat":-22.8768199,"lng":-43.2411285}]