[{"id":"847350407","tags":"amenity:parking,fee:yes","lat":-22.9559979,"lng":-43.1738343},{"id":"847350412","tags":"amenity:parking,fee:yes","lat":-22.9563832,"lng":-43.1743171},{"id":"4341414154","name":"Bar do David","tags":"amenity:bar,phone:964831046","lat":-22.9607383,"lng":-43.1687796},{"id":"4836807822","name":"Bar do Alto","tags":"amenity:bar,name:pt:Bar do Alto","lat":-22.9595645,"lng":-43.1696836},{"id":"4947226221","name":"Cantinho da china","tags":"addr:housenumber:13,addr:street:Rua da Caixa d'água (NR),amenity:bar,cuisine:brazilian,internet_access:wlan,name:pt:Cantinho da china,opening_hours:24/7","lat":-22.9600518,"lng":-43.1722484},{"id":"6541005606","name":"Bradesco","tags":"addr:city:Rio de Janeiro,addr:suburb:Botafogo,amenity:bank,atm:yes,brand:Bradesco,brand:wikidata:Q806181,brand:wikipedia:en:Banco Bradesco,drive_through:no,level:ref:1","lat":-22.9572722,"lng":-43.1757962},{"id":"8078693048","name":"Caixa Econômica Federal","tags":"amenity:bank,brand:Caixa Econômica Federal,brand:wikidata:Q835283,brand:wikipedia:pt:Caixa Econômica Federal,level:ref:1","lat":-22.9571749,"lng":-43.1758328},{"id":"8078693049","name":"Santander","tags":"amenity:bank,brand:Santander,brand:wikidata:Q5835668,brand:wikipedia:en:Santander Bank,level:ref:1","lat":-22.9571813,"lng":-43.1759223},{"id":"8274714317","tags":"name:en:Aomori Copacabana Asian Market,shop:supermarket","lat":-22.9613962,"lng":-43.1758564}]