[{"id":"331107839","name":"Casa da Leitura","tags":"amenity:library","lat":-22.9319989,"lng":-43.1861419},{"id":"332153100","name":"Drogaria Venâncio","tags":"amenity:pharmacy,dispensing:yes,drive_through:no,healthcare:pharmacy","lat":-22.9312058,"lng":-43.1781744},{"id":"332153721","tags":"amenity:atm","lat":-22.931316,"lng":-43.1784514},{"id":"332516207","tags":"shop:mall","lat":-22.9296303,"lng":-43.177682},{"id":"332516627","name":"Drogaria Pacheco","tags":"amenity:pharmacy,dispensing:yes","lat":-22.929342,"lng":-43.1775384},{"id":"332516872","name":"Banco do Brasil","tags":"amenity:bank,atm:yes,brand:Banco do Brasil,brand:wikidata:Q610817,brand:wikipedia:en:Banco do Brasil","lat":-22.9292266,"lng":-43.1774755},{"id":"332517590","name":"O Bom Galeto","tags":"amenity:restaurant","lat":-22.9300295,"lng":-43.1777873},{"id":"332517598","name":"Gambino","tags":"amenity:restaurant","lat":-22.9302745,"lng":-43.1780853},{"id":"332517609","name":"Paraíso do Chopp","tags":"amenity:restaurant","lat":-22.9300663,"lng":-43.1771984},{"id":"332517610","name":"Botequim do Borges","tags":"amenity:restaurant","lat":-22.9301058,"lng":-43.1768637},{"id":"332517665","name":"Catete Business Center","tags":"shop:mall","lat":-22.9297695,"lng":-43.1769137},{"id":"346243580","name":"HortiFruti","tags":"addr:city:Rio de Janeiro,addr:housenumber:211,addr:postcode:22240004,addr:street:Rua das Laranjeiras,addr:suburb:Laranjeiras,organic:only,shop:supermarket","lat":-22.9336311,"lng":-43.185877},{"id":"346243972","name":"Droga Raia","tags":"addr:city:Rio de Janeiro,addr:housenumber:211,addr:street:Rua das Laranjeiras,addr:suburb:Laranjeiras,amenity:pharmacy,brand:Droga Raia,brand:wikidata:Q10357101,brand:wikipedia:pt:RaiaDrogasil,dispensing:yes,drive_through:no,healthcare:pharmacy","lat":-22.9335691,"lng":-43.1857899},{"id":"346244927","name":"Itaú","tags":"addr:city:Rio de Janeiro,addr:housenumber:183B,addr:street:Rua das Laranjeiras,addr:suburb:Laranjeiras,amenity:bank,atm:yes,brand:Itaú Unibanco,brand:wikidata:Q1424293,brand:wikipedia:pt:Itaú Unibanco,drive_through:no","lat":-22.9334494,"lng":-43.1852912},{"id":"346245038","name":"Uniclass","tags":"addr:city:Rio de Janeiro,addr:housenumber:183A,addr:street:Rua das Laranjeiras,addr:suburb:Laranjeiras,amenity:bank,atm:yes,operator:Itau","lat":-22.9334415,"lng":-43.1851968},{"id":"346248572","name":"SNC Sports Nutrition Center","tags":"addr:city:Rio de Janeiro,addr:housenumber:143C,addr:street:Rua das Laranjeiras,addr:suburb:Laranjeiras,organic:only,shop:supermarket","lat":-22.9332181,"lng":-43.1839747},{"id":"346248591","name":"Café e Bar Céu da Guanabara","tags":"addr:city:Rio de Janeiro,addr:housenumber:143B,addr:street:Rua das Laranjeiras,addr:suburb:Laranjeiras,amenity:cafe","lat":-22.933188,"lng":-43.1839321},{"id":"346252391","name":"Banco 24 Horas","tags":"amenity:atm","lat":-22.9320436,"lng":-43.1808755},{"id":"346252475","name":"Caixa Econômica Federal","tags":"addr:city:Rio de Janeiro,addr:street:Rua das Laranjeiras,addr:suburb:Laranjeiras,amenity:bank,atm:yes,brand:Caixa Econômica Federal,brand:wikidata:Q835283,brand:wikipedia:pt:Caixa Econômica Federal,drive_through:no","lat":-22.9321078,"lng":-43.1807865},{"id":"386125889","name":"Colégio Amaro Cavalcanti","tags":"amenity:school","lat":-22.9303252,"lng":-43.178625},{"id":"431013480","name":"Pizzaria Bella Capri","tags":"amenity:restaurant,cuisine:pizza","lat":-22.9324897,"lng":-43.1821846},{"id":"431013497","name":"Jarina Rações","tags":"addr:housenumber:133,addr:street:Rua das Laranjeiras,shop:supermarket","lat":-22.9328648,"lng":-43.1834418},{"id":"431013503","name":"Studio Surya de Yoga","tags":"layer:1,leisure:fitness_centre,sport:yoga","lat":-22.9322223,"lng":-43.1813665},{"id":"431013514","name":"Casa do Biscoito","tags":"shop:supermarket","lat":-22.931798,"lng":-43.1800932},{"id":"431013517","name":"Liceu Franco-Brasileiro","tags":"amenity:school","lat":-22.9317083,"lng":-43.1797594},{"id":"431013536","name":"Pacheco","tags":"amenity:pharmacy,dispensing:yes,drive_through:no,healthcare:pharmacy","lat":-22.9313614,"lng":-43.1788501},{"id":"431013573","name":"Cariocão","tags":"shop:supermarket","lat":-22.9291199,"lng":-43.1768868},{"id":"431013577","name":"Catete Grill","tags":"addr:city:Rio de Janeiro,addr:country:BR,addr:housenumber:239,addr:postcode:22220-000,addr:street:Rua do Catete,amenity:restaurant","lat":-22.9288125,"lng":-43.1771066},{"id":"461805322","name":"Pet Studio","tags":"addr:city:Rio de Janeiro,addr:country:BR,addr:housenumber:154a,addr:street:Rua das Laranjeiras,phone:+55-21-22457754,shop:pet","lat":-22.9328993,"lng":-43.1844184},{"id":"708319698","tags":"shop:convenience","lat":-22.932481,"lng":-43.1817982},{"id":"708319702","tags":"amenity:parking,capacity:13,fee:no","lat":-22.9330538,"lng":-43.1852871},{"id":"708319704","name":"Princesa","tags":"addr:city:Rio de Janeiro,addr:housenumber:218,addr:postcode:22240-003,addr:street:Rua das Laranjeiras,addr:suburb:Laranjeiras,payment:cash:yes,payment:credit_cards:yes,payment:debit_cards:yes,shop:supermarket,wheelchair:yes","lat":-22.9335637,"lng":-43.1862952},{"id":"708319711","tags":"amenity:parking,capacity:8,fee:no","lat":-22.9331825,"lng":-43.1847593},{"id":"712849086","name":"Largo do Machado","tags":"addr:city:Rio de Janeiro,addr:suburb:Catete,bench:yes,operator:MetrôRio,public_transport:station,railway:station,start_date:1981,station:subway,subway:yes,timetable:real_time,wikidata:Q10275929,wikipedia:pt:Estação Largo do Machado","lat":-22.9311289,"lng":-43.1776913},{"id":"725873014","name":"Select","tags":"operator:Shell,shop:convenience","lat":-22.9334893,"lng":-43.1762807},{"id":"725873015","name":"Flamar Mini Market","tags":"shop:convenience","lat":-22.9334795,"lng":-43.1765167},{"id":"725873022","name":"Churrascaria Majórica","tags":"amenity:restaurant","lat":-22.9336868,"lng":-43.1763237},{"id":"810361968","name":"Iaiá Garcia","tags":"amenity:restaurant","lat":-22.931416,"lng":-43.1769024},{"id":"810361970","name":"Kopenhagen","tags":"amenity:cafe,website:https://kopenhagen.com.br/","lat":-22.9307269,"lng":-43.1772642},{"id":"810361978","name":"Via Verde","tags":"organic:only,shop:supermarket","lat":-22.9307788,"lng":-43.177114},{"id":"810362012","name":"Hortifruti","tags":"addr:city:Rio de Janeiro,addr:country:BR,addr:housenumber:65,addr:street:Rua Machado de Assis,shop:supermarket","lat":-22.9313514,"lng":-43.1766712},{"id":"810362030","name":"gEpark","tags":"amenity:parking,layer:-1,operator:GE Park,operator:type:private,parking:underground","lat":-22.9308245,"lng":-43.1769076},{"id":"810362054","name":"Empório das Letras","tags":"addr:city:Rio de Janeiro,addr:suburb:Catete,level:1,shop:books","lat":-22.9309382,"lng":-43.1774189},{"id":"810362087","name":"Machado de Assis","tags":"amenity:pharmacy","lat":-22.9311938,"lng":-43.1768404},{"id":"810362090","name":"Deli Sabores do Mundo","tags":"phone:+55-21-25585585,shop:convenience","lat":-22.9312061,"lng":-43.1769745},{"id":"810378103","name":"Drogasmil","tags":"amenity:pharmacy,drive_through:no,healthcare:pharmacy,phone:+55-21-24723000","lat":-22.9316507,"lng":-43.1804142},{"id":"810378107","name":"Real","tags":"amenity:bank,atm:yes","lat":-22.9316046,"lng":-43.1802656},{"id":"810378115","name":"Novo Cortiço","tags":"amenity:restaurant","lat":-22.9315591,"lng":-43.1800387},{"id":"810378165","name":"Ric","tags":"addr:city:Rio de Janeiro,addr:street:Rua das Laranjeiras,addr:suburb:Laranjeiras,amenity:pharmacy,drive_through:no,healthcare:pharmacy,phone:+55-21-22253953;+55-21-25568095","lat":-22.9325811,"lng":-43.1832414},{"id":"810378170","name":"Churrascaria Gaúcha","tags":"addr:city:Rio de Janeiro,addr:country:BR,addr:housenumber:114,addr:street:Rua das Laranjeiras,addr:suburb:Laranjeiras,amenity:restaurant,phone:+55-21-25582558,website:http://gauchachurrascaria.com.br/","lat":-22.9324489,"lng":-43.1829569},{"id":"823940115","name":"Escola Municipal Senador Corrêa","tags":"IPP:BAIRRO:Laranjeiras,IPP:CHAVE:19404,IPP:CODATIVIDA:0,IPP:CODBAIRRO:017,IPP:COD_INEP:33064261,IPP:COD_SMA:019404,IPP:CRE:02,IPP:DESIGNACAO:0204021,IPP:ENDNOVO:http://webapp.sme.rio.rj.gov.br/jcartela/publico/pesquisa.do?idSetor=19404&cmd=load,IPP:FLG_VALIDA:S,addr:city:Rio de Janeiro,addr:country:BR,addr:housenumber:42,addr:street:Rua Esteves Junior,amenity:school,phone:+55-21-25583159","lat":-22.9337219,"lng":-43.1810105},{"id":"946673768","tags":"addr:city:Rio de Janeiro,addr:country:BR,addr:housenumber:72,addr:postcode:22220-030,addr:street:Rua Buarque de Macedo,phone:+55-21-25561213,shop:books","lat":-22.9284964,"lng":-43.1765983},{"id":"946673769","name":"Palácio","tags":"addr:city:Rio de Janeiro,addr:country:BR,addr:housenumber:87,addr:street:Rua Buarque de Macedo,amenity:restaurant","lat":-22.9286249,"lng":-43.1768129},{"id":"946673785","name":"Bonfim","tags":"amenity:school","lat":-22.9289213,"lng":-43.1765232},{"id":"1686471196","name":"Oligoflora Studio de Estética e Bem-estar","tags":"addr:housenumber:Loja B,addr:postcode:22240-003,addr:street:Rua das Laranjeiras,description:Loja embaixo do condomínio do número 154,shop:beauty,website:https://oligoflora.com.br/","lat":-22.9329787,"lng":-43.1843537},{"id":"2860698513","name":"Katsushika","tags":"amenity:restaurant,cuisine:japanese","lat":-22.9306865,"lng":-43.1797871},{"id":"2860698514","name":"Edem","tags":"addr:city:Rio de Janeiro,addr:street:Rua Gago Coutinho,addr:suburb:Laranjeiras,amenity:school","lat":-22.9307569,"lng":-43.1802089},{"id":"2862594102","name":"Azevedo","tags":"addr:housenumber:56,addr:street:Rua Gago Coutinho,amenity:parking,fee:yes","lat":-22.9313434,"lng":-43.181585},{"id":"2862594104","name":"Vossa Mercê Mercearia","tags":"shop:convenience,wheelchair:no","lat":-22.9313868,"lng":-43.1820094},{"id":"3266080920","name":"Bioderme","tags":"amenity:pharmacy,drive_through:no,healthcare:pharmacy,level:0","lat":-22.9325116,"lng":-43.1805068},{"id":"3266080921","name":"Bif Bif","tags":"amenity:restaurant","lat":-22.9329181,"lng":-43.1803463},{"id":"3266080922","name":"Mistura Fina","tags":"amenity:restaurant","lat":-22.9329735,"lng":-43.1804183},{"id":"3266080923","name":"Grão Integral","tags":"level:0,organic:only,shop:supermarket","lat":-22.9324943,"lng":-43.1806034},{"id":"3266080924","name":"Cheiro de Minas","tags":"level:0,organic:only,shop:supermarket","lat":-22.9325635,"lng":-43.1805927},{"id":"3409783245","name":"Fagulha Grill & Pizza","tags":"addr:city:Rio de Janeiro,addr:housenumber:62,addr:postcode:22231-140,addr:street:Rua Conde de Baependi,addr:suburb:Laranjeiras,amenity:restaurant,cuisine:pizza,opening_hours:Mo-Su 11:00-24:00,phone:+55 21 2205-3488,smoking:no,website:http://www.fagulha.com.br","lat":-22.9328174,"lng":-43.1795908},{"id":"3608172869","name":"Bar Celona","tags":"amenity:bar","lat":-22.9284814,"lng":-43.1819166},{"id":"3608172870","tags":"amenity:bar","lat":-22.9285981,"lng":-43.1830666},{"id":"4451784100","name":"Rotisseria Sírio-Libanesa","tags":"amenity:restaurant","lat":-22.9314542,"lng":-43.1787676},{"id":"4651246204","name":"Bartman","tags":"addr:street:Rua Buarque de Macedo,amenity:bar,outdoor_seating:yes","lat":-22.9287642,"lng":-43.1765418},{"id":"5314845606","name":"Farmácia Pinheiro Machado","tags":"addr:city:Rio de Janeiro,addr:housenumber:9a,addr:street:Rua Pinheiro Machado,addr:suburb:Laranjeiras,amenity:pharmacy,healthcare:pharmacy","lat":-22.9336703,"lng":-43.184318},{"id":"6109903965","tags":"amenity:atm,level:-1,operator:Banco 24 Horas","lat":-22.931116,"lng":-43.1781442},{"id":"6121195286","name":"Mistura Casual","tags":"amenity:restaurant","lat":-22.9329443,"lng":-43.1803032},{"id":"6319497985","name":"Elias","tags":"amenity:cafe","lat":-22.9322568,"lng":-43.1774666},{"id":"6597447950","tags":"amenity:police","lat":-22.9331231,"lng":-43.1773037},{"id":"6600534901","name":"Brou","tags":"addr:city:Rio de Janeiro,addr:housenumber:2,addr:postcode:22230-001,addr:street:Rua Senador Vergueiro,addr:suburb:Flamengo,amenity:restaurant,opening_hours:Su-Th 11:30-24:00; Sa-Su 11:30-01:00,phone:+55 21 2556-0618,website:http://casabrou.com.br/","lat":-22.9334151,"lng":-43.1770946},{"id":"8078178298","name":"Itaú","tags":"amenity:bank,brand:Itaú Unibanco,brand:wikidata:Q1424293,brand:wikipedia:pt:Itaú Unibanco","lat":-22.932527,"lng":-43.1772762},{"id":"8078178299","name":"Bar do Elias","tags":"addr:city:Rio de Janeiro,amenity:restaurant,cuisine:arabic","lat":-22.9324284,"lng":-43.1772674},{"id":"8078197519","name":"Drogaria Venâncio","tags":"amenity:pharmacy,dispensing:yes,drive_through:no,healthcare:pharmacy","lat":-22.9295681,"lng":-43.1773466},{"id":"9351100617","name":"Refeições","tags":"amenity:restaurant","lat":-22.9321598,"lng":-43.1791763},{"id":"9563079117","name":"Tacaca do norte","tags":"amenity:restaurant","lat":-22.9330522,"lng":-43.176548},{"id":"9624416833","name":"Zona Sul","tags":"shop:supermarket","lat":-22.931045,"lng":-43.1765481},{"id":"454457367","name":"Mercado São José das Artes","tags":"addr:city:Rio de Janeiro,addr:street:Rua das Laranjeiras,addr:suburb:Laranjeiras,opening_hours:closed,shop:convenience","lat":-22.9321362,"lng":-43.1821075}]