[{"id":"1753566561","name":"Colégio Futuro VIP","tags":"amenity:school","lat":-22.7949186,"lng":-43.3051175},{"id":"1753580296","name":"Carrefour - Caxias Brigadeiro","tags":"shop:supermarket,website:https://www.carrefour.com.br/","lat":-22.7932994,"lng":-43.3006474},{"id":"1753580321","name":"Carrefour - 25 de Agosto","tags":"amenity:parking,parking:underground","lat":-22.7933735,"lng":-43.3005803},{"id":"1756766801","name":"Caixa Econômica Federal","tags":"addr:street:Avenida Brigadeiro Lima e Silva,amenity:bank,atm:yes","lat":-22.7921925,"lng":-43.3026608},{"id":"1756766803","name":"Itaú","tags":"addr:street:Avenida Brigadeiro Lima e Silva,amenity:bank,atm:yes","lat":-22.7917771,"lng":-43.3036988},{"id":"1756766808","name":"Banco do Brasil","tags":"addr:street:Avenida Brigadeiro Lima e Silva,amenity:bank,atm:yes,brand:Banco do Brasil,brand:wikidata:Q610817,brand:wikipedia:en:Banco do Brasil","lat":-22.7920343,"lng":-43.3025938},{"id":"1756871409","name":"Academia","tags":"leisure:sports_centre,sport:gymnastics","lat":-22.7921062,"lng":-43.300599},{"id":"1756884783","name":"BBB Grill - Churracaria e Pizzaria Estrela dos Pampas","tags":"amenity:restaurant,cuisine:regional","lat":-22.7914787,"lng":-43.3035213},{"id":"1756884791","name":"ChinaTop","tags":"amenity:restaurant,cuisine:chinese,website:http://www.chinatop.com.br/","lat":-22.7922131,"lng":-43.3039264},{"id":"1869721248","name":"Bradesco","tags":"amenity:bank,atm:yes","lat":-22.7914605,"lng":-43.3045651},{"id":"2242360283","name":"Domino's Pizza / Spoleto Comida Italiana - Duque de Caxias","tags":"amenity:restaurant,cuisine:pizza","lat":-22.7914078,"lng":-43.3038163},{"id":"2242360286","name":"Exclusiva","tags":"amenity:nightclub","lat":-22.7921941,"lng":-43.300426}]