[{"id":"4617155390","name":"Terra Prometida Pizzaria","tags":"addr:housenumber:134,addr:postcode:26116-460,addr:street:Rua Natuba, 2761-5580 / 3775-8633 ou 96602-9934 zap,email:marciahelena777@hotmail.com,internet_access:wlan,name:en:Terra Prometida Pizzaria,name:pt:Terra Prometida Pizzaria,opening_hours:Mo-Su 18:00-23:45,operator:Marcia Helena,phone:27615580,shop:convenience,website:http://www.facebook.com/novaterraprometida","lat":-22.7407021,"lng":-43.3898022},{"id":"10040439220","name":"Agência Itaú","tags":"addr:housenumber:1275,addr:postcode:26115-085,addr:street:Avenida Joaquim da Costa Lima,amenity:bank,opening_hours:Mo-Fr 10:00-16:00","lat":-22.7390473,"lng":-43.3881217},{"id":"10040448317","name":"Casa da Cultura","tags":"addr:housenumber:26115-560,addr:postcode:26115-560,addr:street:Avenida Bob Kennedy,amenity:library","lat":-22.7409122,"lng":-43.3945876},{"id":"10040448319","name":"Drogaria RedeMix","tags":"addr:housenumber:2991-4,addr:postcode:26115-315,addr:street:Avenida Joaquim da Costa Lima,opening_hours:Mo-Su 07:00-21:00,shop:chemist","lat":-22.7413763,"lng":-43.3906943},{"id":"10040448417","name":"Drogaria Reviva","tags":"addr:housenumber:2326,addr:street:Avenida Joaquim da Costa Lima,shop:chemist","lat":-22.7405068,"lng":-43.3899901},{"id":"10040479617","name":"Laticinios","tags":"addr:street:Avenida Joaquim da Costa Lima,name:pt:Laticinio,opening_hours:Mo-Sa 08:00-20:00; Su 08:00-13:00,shop:convenience","lat":-22.7416926,"lng":-43.3905033},{"id":"10040479618","name":"Laticinio e descartaveis Santa Amélia","tags":"addr:street:Avenida Joaquim da Costa Lima,opening_hours:Mo-Sa 08:00-20:00; Su 08:00-13:00,shop:convenience","lat":-22.7415477,"lng":-43.3907817}]