[{"id":"5307051955","name":"Supermercado Farol do Bilac","tags":"building:yes,entrance:yes,payment:cash:yes,payment:credit_cards:yes,shop:supermarket","lat":-22.7662739,"lng":-43.3231526},{"id":"5307051972","name":"Igreja Universal do Reino de Deus","tags":"amenity:place_of_worship,building:church,denomination:evangelical,entrance:main,landuse:religious,religion:christian","lat":-22.765316,"lng":-43.3229797},{"id":"6386459514","name":"Igreja Deus é Amor","tags":"amenity:place_of_worship,building:church,denomination:evangelical,entrance:main,landuse:religious,religion:christian","lat":-22.7681471,"lng":-43.3233537},{"id":"6386459515","name":"Ministerio Resgatando Ovelhas","tags":"amenity:place_of_worship,building:church,denomination:evangelical,entrance:main,landuse:religious,religion:christian","lat":-22.7685022,"lng":-43.3235707},{"id":"6386459516","name":"Assembléia de Deus","tags":"amenity:place_of_worship,building:church,denomination:evangelical,entrance:main,landuse:religious,religion:christian","lat":-22.7681757,"lng":-43.3227882},{"id":"6386459517","name":"Comunidade Evangélica Betel","tags":"amenity:place_of_worship,building:church,denomination:evangelical,entrance:main,landuse:religious,religion:christian","lat":-22.7684465,"lng":-43.3216933},{"id":"6386459518","name":"Assembléia de Deus - Freire Alemão","tags":"amenity:place_of_worship,building:church,denomination:evangelical,entrance:main,landuse:religious,religion:christian","lat":-22.7677231,"lng":-43.3221238},{"id":"6386459531","name":"Comunidade Evangélica Aliança Renovada","tags":"amenity:place_of_worship,building:church,denomination:evangelical,entrance:main,landuse:religious,religion:christian","lat":-22.7669117,"lng":-43.3231147},{"id":"6386459532","name":"Igreja Nova Vida","tags":"amenity:place_of_worship,building:church,denomination:evangelical,entrance:main,landuse:religious,religion:christian","lat":-22.7665069,"lng":-43.3232072},{"id":"6386459535","name":"Comunidade Católica Nossa Senhora do Carmo","tags":"amenity:place_of_worship,building:church,denomination:catholic,entrance:main,landuse:religious,religion:christian","lat":-22.7674262,"lng":-43.3235924},{"id":"6386459536","name":"Barraca da Maria","tags":"building:yes,entrance:main,payment:cards:yes,payment:credit_cards:yes,shop:convenience","lat":-22.7676747,"lng":-43.3222812},{"id":"6386532809","name":"Salão do Cleyton","tags":"beauty:hair,building:yes,entrance:main,landuse:residential,payment:cash:yes,payment:credit_cards:yes,shop:beauty","lat":-22.7679272,"lng":-43.3226253},{"id":"6387709579","name":"Mercearia do Bairro","tags":"building:yes,entrance:main,landuse:retail,payment:cash:yes,payment:credit_cards:yes,shop:convenience","lat":-22.768423,"lng":-43.3233659},{"id":"6387709787","name":"Salão da Duda","tags":"beauty:hair,building:yes,entrance:main,landuse:residential,payment:cash:yes,shop:beauty","lat":-22.7674542,"lng":-43.3217584},{"id":"6391781208","name":"Pizzaria Vitória","tags":"amenity:restaurant,building:yes,cuisine:pizza,entrance:main","lat":-22.7665903,"lng":-43.3232243},{"id":"6391781209","name":"Drogarias Qualidade","tags":"amenity:pharmacy,building:yes,dispensing:yes,drive_through:yes,entrance:main,healthcare:pharmacy,landuse:retail","lat":-22.7670364,"lng":-43.3232995},{"id":"6391781211","tags":"building:yes,entrance:main,landuse:retail,payment:cash:yes,payment:credit_cards:yes,shop:pet","lat":-22.7668256,"lng":-43.323267},{"id":"6391781217","tags":"building:yes,entrance:main,landuse:retail,leisure:fitness_centre,sport:fitness","lat":-22.7664173,"lng":-43.3231796},{"id":"6391781219","tags":"beauty:hair,building:yes,entrance:main,landuse:retail,payment:cash:yes,payment:credit_cards:yes,shop:beauty","lat":-22.7660428,"lng":-43.3229477},{"id":"6391781223","tags":"building:yes,entrance:main,landuse:retail,shop:beauty","lat":-22.7656756,"lng":-43.3230123},{"id":"6393739439","name":"Assembleia de Deus Terra da Promessa e Vitória","tags":"amenity:place_of_worship,building:church,denomination:evangelical,entrance:main,landuse:religious,religion:christian","lat":-22.7658423,"lng":-43.3236438},{"id":"6393739448","name":"Igreja Batista Renovada na Graça","tags":"amenity:place_of_worship,building:church,denomination:evangelical,entrance:main,landuse:religious,religion:christian","lat":-22.7646622,"lng":-43.3228502},{"id":"6393739451","tags":"amenity:restaurant,building:yes,cuisine:regional,entrance:main,landuse:retail","lat":-22.7644377,"lng":-43.3228171},{"id":"6394680234","name":"Farmácia Dias","tags":"amenity:pharmacy,building:yes,dispensing:yes,drive_through:yes,entrance:main,healthcare:pharmacy,landuse:retail","lat":-22.7652746,"lng":-43.3228063}]