[{"id":"823951404","name":"Escola Municipal Maria Baptistina Duffles Teixeira Lott","tags":"IPP:BAIRRO:Vista Alegre,IPP:CHAVE:10919,IPP:CODATIVIDA:0,IPP:CODBAIRRO:075,IPP:COD_INEP:33074550,IPP:COD_SMA:010919,IPP:CRE:05,IPP:DESIGNACAO:0514008,IPP:ENDNOVO:http://webapp.sme.rio.rj.gov.br/jcartela/publico/pesquisa.do?idSetor=10919&cmd=load,IPP:FLG_VALIDA:S,addr:housenumber:479,addr:street:Rua Ponta Porã,amenity:school,phone:+55-21-33910383","lat":-22.8319,"lng":-43.3162952},{"id":"2223016346","name":"ampm","tags":"brand:ampm,brand:wikidata:Q306960,brand:wikipedia:en:Ampm,operator:Ipiranga,shop:convenience","lat":-22.8350067,"lng":-43.3189138},{"id":"2223016362","name":"Caixa Econômica Federal","tags":"amenity:bank,atm:yes,brand:Caixa Econômica Federal,brand:wikidata:Q835283,brand:wikipedia:pt:Caixa Econômica Federal,description:Agência Vista Alegre","lat":-22.8345818,"lng":-43.3188388},{"id":"2283490326","name":"Jô","tags":"shop:convenience","lat":-22.830317,"lng":-43.3091544},{"id":"2356434359","name":"Academia Zanco","tags":"addr:housenumber:1441,addr:postcode:21250-150,addr:street:Rua Antônio João,leisure:sports_centre,phone:+55-21-33814798,website:http://www.academiazanco.com.br/","lat":-22.8304352,"lng":-43.3081592},{"id":"2913507001","name":"Brasil 500","tags":"amenity:restaurant","lat":-22.8309084,"lng":-43.318807},{"id":"3861585416","name":"Droganews","tags":"amenity:pharmacy,healthcare:pharmacy,phone:+55 21 3381-8000","lat":-22.8330366,"lng":-43.3190593},{"id":"4192566589","name":"Tablô","tags":"addr:housenumber:2656,addr:street:Avenida Brás de Pina,amenity:restaurant","lat":-22.8313972,"lng":-43.3187647},{"id":"4192661497","name":"Bar do Adão","tags":"amenity:restaurant","lat":-22.8313803,"lng":-43.3187724}]