[{"id":"823940212","name":"Escola Especial Municipal Rotary Club","tags":"IPP:BAIRRO:Jardim Guanabara,IPP:CHAVE:11304,IPP:CODATIVIDA:0,IPP:CODBAIRRO:099,IPP:COD_INEP:33085870,IPP:COD_SMA:011304,IPP:CRE:04,IPP:DESIGNACAO:0420023,IPP:ENDERECO:Rua Cambaúba, 159  ,IPP:ENDNOVO:http://webapp.sme.rio.rj.gov.br/jcartela/publico/pesquisa.do?idSetor=11304&cmd=load,IPP:FLG_VALIDA:S,IPP:TELEFONES:3393-4215,amenity:school","lat":-22.8023425,"lng":-43.2014944},{"id":"1969166057","name":"Hortifruti","tags":"addr:housenumber:2220,addr:postcode:21931-582,addr:street:Estrada do Galeão,opening_hours:Mo-Sa 08:00-21:00; Su 08:00-15:00,phone:+55-21-35118800,shop:supermarket,website:http://www.hortifruti.com.br/lojas/rio-de-janeiro/ilha-governador.html#lojas-detalhes","lat":-22.804016,"lng":-43.2032826},{"id":"2591254147","name":"Correio","tags":"amenity:post_office","lat":-22.8043505,"lng":-43.2044676},{"id":"2945793158","name":"Petz","tags":"addr:city:Rio de Janeiro,addr:housenumber:1770,addr:postcode:2931524,addr:street:Estrada do Galeão,addr:suburb:Jardim Carioca,brand:Petz,brand:wikidata:Q28680851,brand:wikipedia:pt:Petz (empresa),opening_hours:08:00-22:00,phone:552131617392,shop:pet,website:https://www.petz.com.br/","lat":-22.8059859,"lng":-43.1994716},{"id":"2945833235","name":"Itaú Personnalité","tags":"addr:housenumber:2781,addr:street:Estrada do Galeão,amenity:bank","lat":-22.8052058,"lng":-43.2085287},{"id":"8464177531","name":"Acarajé da Rose","tags":"amenity:restaurant,cuisine:regional","lat":-22.8035381,"lng":-43.2038574},{"id":"8479012216","name":"Alvorada Pet Shop","tags":"payment:cash:yes,payment:credit_cards:yes,phone:(21) 3367-2967,shop:pet","lat":-22.8042709,"lng":-43.2067995},{"id":"8479017425","name":"Siri Gaita","tags":"amenity:restaurant,cuisine:regional","lat":-22.8043872,"lng":-43.2073916},{"id":"8479017426","name":"Empada Mania","tags":"amenity:restaurant","lat":-22.8043322,"lng":-43.2071887},{"id":"8479017428","name":"Farmacia do Extra","tags":"healthcare:pharmacy,operator:Extra,shop:chemist","lat":-22.8041598,"lng":-43.2068356},{"id":"8480194302","tags":"shop:chemist","lat":-22.804887,"lng":-43.207156},{"id":"8480197285","tags":"amenity:bar","lat":-22.8048336,"lng":-43.2068305}]