[{"id":"1194314324","name":"Estação Cabernet","tags":"amenity:restaurant","lat":-22.8240419,"lng":-43.0492349},{"id":"6839201285","name":"Shopping Partage","tags":"addr:housenumber:425,addr:street:Presidente Kennedy,amenity:restaurant","lat":-22.8198815,"lng":-43.0458497},{"id":"6851431923","name":"Banquete de São Gonçalo Restaurante","tags":"amenity:restaurant","lat":-22.8233369,"lng":-43.0457091},{"id":"9221854320","tags":"shop:mall","lat":-22.8224085,"lng":-43.0465955},{"id":"9548061638","name":"Smart Fit","tags":"brand:Smart Fit,brand:wikidata:Q30930959,brand:wikipedia:pt:Smart Fit,leisure:fitness_centre","lat":-22.8233909,"lng":-43.0489773}]