[{"id":"452638331","name":"Brazuca","tags":"amenity:restaurant","lat":-22.7993297,"lng":-43.2026425},{"id":"633042110","tags":"amenity:pharmacy","lat":-22.7996082,"lng":-43.2025423},{"id":"633042111","name":"Banco 24hrs","tags":"amenity:atm","lat":-22.7996082,"lng":-43.2026644},{"id":"633042472","tags":"amenity:police","lat":-22.8003982,"lng":-43.2010016},{"id":"8463646106","name":"Pizza Hut","tags":"amenity:restaurant,brand:Pizza Hut,brand:wikidata:Q191615,brand:wikipedia:en:Pizza Hut,cuisine:pizza","lat":-22.8018099,"lng":-43.2016905},{"id":"8463646107","name":"Outback Steakhouse","tags":"amenity:restaurant,brand:Outback Steakhouse,brand:wikidata:Q1064893,brand:wikipedia:en:Outback Steakhouse,cuisine:american;steak","lat":-22.8016989,"lng":-43.2015796},{"id":"8463646109","name":"Vikings","tags":"amenity:restaurant,cuisine:sandwich;burger","lat":-22.8013719,"lng":-43.2017728},{"id":"8464149558","name":"Beluga","tags":"amenity:restaurant,cuisine:regional","lat":-22.8018635,"lng":-43.2016986},{"id":"8497210582","name":"pet do village","tags":"shop:pet","lat":-22.7996312,"lng":-43.2024621}]