[{"id":"6222180285","name":"Bar da aldeia restaurante comida caseira","tags":"amenity:restaurant","lat":-22.7776709,"lng":-41.9052103},{"id":"7280565986","name":"Quiosque do Mineiro","tags":"amenity:restaurant","lat":-22.7779867,"lng":-41.905561},{"id":"7280576285","name":"Restaurante Varanda de Geribá","tags":"amenity:restaurant","lat":-22.7777561,"lng":-41.9054926},{"id":"7894988586","name":"Empório de Geribá","tags":"addr:street:Rua Gerbert Périsse,shop:convenience","lat":-22.7782672,"lng":-41.9121262},{"id":"7894996285","name":"Restaurante Caminho da Praia","tags":"amenity:restaurant","lat":-22.77738,"lng":-41.905501},{"id":"7903361785","name":"Conveniência Geribá","tags":"shop:convenience","lat":-22.7757048,"lng":-41.9122168}]