[{"id":"6542575208","name":"Mercadona","tags":"brand:Mercadona,brand:wikidata:Q377705,brand:wikipedia:en:Mercadona,shop:supermarket","lat":-22.740383,"lng":-41.9743902},{"id":"6703576296","name":"Cantina da praça","tags":"addr:street:Estr. Bento Ribeiro Dantas, 499 - Rasa, Búzios - RJ, 28950-000,amenity:restaurant,phone:(22)2620-8941","lat":-22.7414505,"lng":-41.9711367},{"id":"7065013313","tags":"leisure:fitness_centre","lat":-22.7414858,"lng":-41.9706232},{"id":"7065107585","name":"Agropet","tags":"addr:city:Armação dos Búzios,addr:postcode:28950000,shop:pet","lat":-22.7416171,"lng":-41.9706065},{"id":"7065107616","name":"Delícia caseira hotdog","tags":"addr:city:Armação dos Búzios,addr:postcode:28950000,addr:street:R. Joaquina Justiliana de Souza, 20a - Lot. Praia Baia Formosa, Búzios - RJ, 28950-000,addr:suburb:Rasa,amenity:restaurant,opening_hours:Mo-Su 11:00-23:00,phone:(22) 99248-4285","lat":-22.7408055,"lng":-41.9722996},{"id":"7192362628","name":"Unidade de Urgência da Rasa Eva da Conceição Oliveira","tags":"addr:city:Armação dos Búzios,addr:street:Rua Justino de Souza,addr:suburb:Rasa,amenity:hospital,healthcare:hospital,operator:Prefeitura Municipal de Armação dos Búzios,operator:type:government","lat":-22.7398786,"lng":-41.9783471},{"id":"9013747590","name":"ampm","tags":"brand:ampm,brand:wikidata:Q306960,brand:wikipedia:en:Ampm,shop:convenience","lat":-22.7384611,"lng":-41.9737169}]