[{"id":"1737853316","name":"Noi","tags":"amenity:restaurant","lat":-22.7562744,"lng":-41.8883534},{"id":"1737853331","tags":"amenity:restaurant","lat":-22.756165,"lng":-41.8879184},{"id":"4311338890","name":"Mercado Santos Dumont","tags":"addr:street:Rua Manoel Turibio de Farias,shop:supermarket","lat":-22.7553867,"lng":-41.8860265},{"id":"4791870641","name":"Maria Maria Café","tags":"addr:city:Armação dos Búzios,addr:housenumber:151,addr:street:Rua das Pedras,addr:suburb:Centro,amenity:cafe,cuisine:regional,internet_access:wlan,opening_hours:10:00-00:30,outdoor_seating:yes,phone:+552226234581,website:http://www.mariamariacafe.com","lat":-22.7552488,"lng":-41.8876706},{"id":"4844277523","tags":"amenity:atm,operator:Banco24Horas","lat":-22.7558042,"lng":-41.8857757},{"id":"4949958523","name":"Restaurante do David","tags":"addr:housenumber:260,addr:postcode:28950-000,addr:street:Rua Manoel Turibio de Farias,amenity:restaurant,opening_hours:Mo-Su 12:00-00:00,phone:+55 22 2623-0982","lat":-22.7558271,"lng":-41.8870176},{"id":"4957675421","name":"Trento Gelateria Artesanal","tags":"addr:street:Avenida José Bento Ribeiro Dantas,amenity:restaurant","lat":-22.7561942,"lng":-41.888959},{"id":"5344817586","name":"Mundo Verde","tags":"addr:city:Armação dos Búzios,addr:street:Rua Manoel Turibio de Farias,addr:suburb:Centro,organic:only,shop:supermarket","lat":-22.7557066,"lng":-41.8864557},{"id":"5347220864","name":"Livraria Canto da Tartaruga","tags":"addr:city:Armação dos Búzios,addr:street:Travessa Renata Deschamps,addr:suburb:Centro,shop:books","lat":-22.7554728,"lng":-41.8889666},{"id":"5478989652","name":"Chez Michou","tags":"addr:housenumber:80,addr:street:Rua das Pedras,amenity:restaurant,cuisine:crepe","lat":-22.7555911,"lng":-41.8881313},{"id":"6252289685","name":"Pizza Pino","tags":"amenity:restaurant","lat":-22.7549127,"lng":-41.8866708},{"id":"6257055185","name":"Bananaland","tags":"amenity:restaurant,cuisine:regional","lat":-22.7563484,"lng":-41.8885577},{"id":"6262657985","name":"Finlandês","tags":"amenity:cafe,cuisine:coffee_shop;ice_cream","lat":-22.7560388,"lng":-41.8882309},{"id":"7084298889","name":"Las brasas churrasqueria","tags":"amenity:restaurant","lat":-22.7560195,"lng":-41.8889097},{"id":"7241038352","tags":"amenity:bar","lat":-22.7558683,"lng":-41.88902},{"id":"7349685885","name":"Buzin","tags":"addr:city:Armação dos Búzios,addr:housenumber:273,addr:street:Rua Manoel Turibio de Farias,addr:suburb:Centro,amenity:restaurant,phone:+55 22 2623-6518,start_date:2001-07-07,website:https://buzinbuzios.com/","lat":-22.7555885,"lng":-41.8867487},{"id":"7535539085","name":"Econômico Express","tags":"shop:supermarket","lat":-22.7579005,"lng":-41.8882417},{"id":"7535539185","name":"Drogaria Max","tags":"amenity:pharmacy,phone:+552226230997","lat":-22.7577178,"lng":-41.8884604},{"id":"7885073687","name":"Captain's Bar","tags":"amenity:bar","lat":-22.7550552,"lng":-41.886618},{"id":"7885077686","name":"Lorenzo","tags":"addr:housenumber:40,addr:street:Rua Manoel Turibio de Farias,amenity:restaurant","lat":-22.756405,"lng":-41.8888004},{"id":"7885089385","name":"Drogaria Búzios","tags":"addr:housenumber:345,addr:street:Rua Manoel Turibio de Farias,amenity:pharmacy","lat":-22.7554295,"lng":-41.8861341},{"id":"7897367286","name":"La Basque","tags":"addr:street:Rua das Pedras,amenity:cafe","lat":-22.7556079,"lng":-41.8886329},{"id":"7897369686","name":"BemBem Pizzas","tags":"amenity:restaurant","lat":-22.7562981,"lng":-41.8890294},{"id":"7897369885","name":"Pátio Michou","tags":"addr:city:Armação dos Búzios,addr:housenumber:101,addr:postcode:28950-000,addr:street:Rua das Pedras,addr:suburb:Centro,amenity:restaurant,cuisine:crepes;hamburgueria,phone:+55 22 2633-9400,website:https://www.facebook.com/patiomichou","lat":-22.7554731,"lng":-41.8881374},{"id":"7897370085","name":"Don Juan","tags":"addr:housenumber:178,addr:street:Rua das Pedras,amenity:restaurant","lat":-22.7553111,"lng":-41.8872298},{"id":"7897376085","name":"Samsara","tags":"addr:housenumber:684,addr:street:Travessa Oscar Lopes Campos,amenity:restaurant","lat":-22.7551503,"lng":-41.8865651},{"id":"7898144085","name":"Buda Bar","tags":"amenity:restaurant","lat":-22.7535383,"lng":-41.8844936},{"id":"7898152485","name":"Privilege","tags":"addr:housenumber:550,addr:street:Avenida José Bento Ribeiro Dantas,amenity:nightclub","lat":-22.7534809,"lng":-41.8844194},{"id":"7902821286","name":"Casa Sirena","tags":"addr:housenumber:468,addr:street:Avenida José Bento Ribeiro Dantas,amenity:restaurant","lat":-22.7538989,"lng":-41.885102},{"id":"7902821986","name":"La Bardot","tags":"amenity:restaurant","lat":-22.7540055,"lng":-41.8853508},{"id":"7902822387","tags":"shop:convenience","lat":-22.7559432,"lng":-41.8857585},{"id":"7914451185","name":"Zapata Mexican Bar","tags":"addr:street:Avenida José Bento Ribeiro Dantas,amenity:nightclub","lat":-22.7545929,"lng":-41.8859106},{"id":"7914451285","name":"Bar do Zé","tags":"addr:street:Avenida José Bento Ribeiro Dantas,amenity:restaurant","lat":-22.7544033,"lng":-41.8857198},{"id":"7914451386","name":"Bastidores","tags":"amenity:restaurant","lat":-22.7547762,"lng":-41.8859792},{"id":"7914577785","name":"Chamas Grill","tags":"amenity:restaurant","lat":-22.7546829,"lng":-41.8862912},{"id":"7923933486","name":"Jack Restaurante","tags":"amenity:restaurant","lat":-22.7571338,"lng":-41.8884925},{"id":"8214556142","name":"Pensão da Luderca","tags":"addr:city:Búzios - RJ,addr:country:BR,addr:housenumber:137,addr:postcode:28950-000,addr:street:Rue Manoel Turibio de Farinas,addr:suburb:Centro,amenity:restaurant,opening_hours:Th-Su 12:00-15:00, Mo closed","lat":-22.7559624,"lng":-41.8880815},{"id":"8958907034","tags":"amenity:pharmacy,dispensing:yes,healthcare:pharmacy","lat":-22.7571229,"lng":-41.8894929},{"id":"8958907035","name":"Sky Pizzas","tags":"addr:city:Armação dos Búzios,addr:housenumber:99,addr:street:Avenida José Bento Ribeiro Dantas,addr:suburb:Centro,amenity:restaurant,cuisine:pizza","lat":-22.7571582,"lng":-41.8895333},{"id":"9377691518","name":"Pimenta Síria","tags":"amenity:restaurant","lat":-22.7560158,"lng":-41.8869057},{"id":"9380626517","name":"Casa Valenciana Bistrô","tags":"amenity:restaurant","lat":-22.7558869,"lng":-41.8869656},{"id":"9380636817","name":"Mineiro Grill","tags":"amenity:restaurant","lat":-22.7556922,"lng":-41.8870692},{"id":"9383880917","name":"Chilenazo","tags":"amenity:restaurant","lat":-22.7554744,"lng":-41.8864348},{"id":"9384737117","name":"Havanna Búzios","tags":"amenity:cafe","lat":-22.7552804,"lng":-41.8858183},{"id":"9384741517","name":"Maria Italiana Ristorante","tags":"amenity:restaurant","lat":-22.7538046,"lng":-41.885093},{"id":"9879773818","name":"Me. Brad","tags":"amenity:restaurant","lat":-22.755789,"lng":-41.8872806}]