[{"id":"5478989653","name":"La Boheme","tags":"amenity:restaurant","lat":-22.7430644,"lng":-41.8770477},{"id":"7196506774","name":"A Pomba","tags":"amenity:restaurant","lat":-22.7428337,"lng":-41.8769221},{"id":"7196510331","name":"Recanto do Sol","tags":"amenity:restaurant","lat":-22.7426994,"lng":-41.8764554},{"id":"7295778198","name":"Restaurante Pinguim","tags":"amenity:restaurant,cuisine:regional","lat":-22.7465874,"lng":-41.8788929},{"id":"7295778199","tags":"shop:convenience","lat":-22.7465313,"lng":-41.8788424}]