[{"id":"4650410028","name":"Restaurante Gaivota","tags":"amenity:restaurant,cuisine:regional","lat":-22.7750404,"lng":-41.91683},{"id":"5377786841","name":"Santander","tags":"addr:city:Armação dos Búzios,addr:housenumber:5355,addr:street:Avenida José Bento Ribeiro Dantas,addr:suburb:Manguinhos,amenity:bank,atm:yes,brand:Santander,brand:wikidata:Q5835668,brand:wikipedia:en:Santander Bank","lat":-22.7747824,"lng":-41.92113},{"id":"7212497088","name":"Restaurante Gisele","tags":"addr:city:Armação dos Búzios,addr:housenumber:5100,addr:street:Avenida José Bento Ribeiro Dantas,amenity:restaurant","lat":-22.7749054,"lng":-41.9192673},{"id":"7902814786","name":"Bisteak","tags":"addr:street:Avenida José Bento Ribeiro Dantas,amenity:restaurant,cuisine:steak_house","lat":-22.7749831,"lng":-41.918166},{"id":"7903361085","name":"Varanda Grill","tags":"amenity:restaurant","lat":-22.7749353,"lng":-41.9177686},{"id":"7905885185","name":"Discapel Búzios","tags":"shop:supermarket","lat":-22.7748035,"lng":-41.9214848},{"id":"7905885285","name":"Canine Patrol","tags":"shop:pet","lat":-22.7748374,"lng":-41.9229142},{"id":"7906501385","name":"Tesouro Grill","tags":"addr:street:Avenida José Bento Ribeiro Dantas,amenity:restaurant","lat":-22.7748364,"lng":-41.9204431},{"id":"7906723185","name":"Drogaria Geribá","tags":"addr:street:Avenida José Bento Ribeiro Dantas,amenity:pharmacy","lat":-22.7748419,"lng":-41.9206148}]