[{"id":"2927465558","name":"Drogarias Pacheco","tags":"addr:city:São Pedro da Aldeia,addr:housenumber:19,addr:street:Rua Feliciano Sodré,addr:suburb:Centro,amenity:pharmacy,healthcare:pharmacy","lat":-22.8375431,"lng":-42.1025358},{"id":"8987885952","tags":"addr:city:São Pedro da Aldeia,addr:housenumber:232,addr:street:Rua Doutor Antônio Alves,addr:suburb:Centro,amenity:post_office,operator:Correios,operator:wikidata:Q3375004,operator:wikipedia:en:Correios","lat":-22.8359081,"lng":-42.1010323},{"id":"8987886145","tags":"shop:chemist","lat":-22.8402907,"lng":-42.1018295},{"id":"8987981902","name":"Itaú","tags":"addr:city:São Pedro da Aldeia,addr:housenumber:50,addr:street:Rua Doutor Antônio Alves,addr:suburb:Centro,amenity:bank,brand:Itaú Unibanco,brand:wikidata:Q1424293,brand:wikipedia:pt:Itaú Unibanco","lat":-22.8370444,"lng":-42.1022946},{"id":"8987981904","name":"Bradesco","tags":"amenity:bank,brand:Bradesco,brand:wikidata:Q806181,brand:wikipedia:en:Banco Bradesco","lat":-22.836625,"lng":-42.101926}]