[{"id":"1636157276","name":"Colégio Positiva","tags":"amenity:school","lat":-22.5912049,"lng":-41.991337},{"id":"1636160381","name":"Museu Casimiro de Abreu","tags":"fee:no,tourism:museum","lat":-22.5897453,"lng":-41.9939033},{"id":"1644491448","name":"Praça As Primaveras","tags":"addr:street:Travessa Noebel,leisure:park,opening_hours:24/7,opening_hours:covid19:same","lat":-22.5899913,"lng":-41.9931717},{"id":"1650666356","name":"Passeio de Barco pelo Rio São João","tags":"tourism:attraction,wheelchair:yes","lat":-22.5886742,"lng":-41.9938121},{"id":"2610252363","name":"Correios","tags":"amenity:post_office,brand:Correios,brand:wikidata:Q3375004,brand:wikipedia:en:Correios,opening_hours:Mo-Fr 09:00-17:00,opening_hours:covid19:closed","lat":-22.5904651,"lng":-41.9923667},{"id":"2610252368","tags":"amenity:pharmacy,dispensing:yes","lat":-22.5895864,"lng":-41.9925468},{"id":"2610252374","name":"Mercado Barros","tags":"shop:supermarket","lat":-22.591017,"lng":-41.992509},{"id":"2610252376","name":"O Casarão Restaurante","tags":"amenity:restaurant","lat":-22.593234,"lng":-41.99088},{"id":"2610252378","name":"Policlínica Vanir de Freitas da Prefeitura","tags":"amenity:hospital,wheelchair:yes","lat":-22.5880914,"lng":-41.9925038},{"id":"2610252380","name":"Polícia Militar 32 BPM","tags":"amenity:police,wheelchair:yes","lat":-22.5887426,"lng":-41.9922499},{"id":"7795133038","name":"Sabor Retrô","tags":"addr:city:Barra de São João,addr:postcode:28880000,addr:street:Rodovia Amaral Peixoto,addr:suburb:Centro,amenity:restaurant,brewery:yes,cuisine:pizza;regional,delivery:yes,opening_hours:Mo-Su 09:00-21:00,opening_hours:covid19:Mo-Su 08:00-20:00,takeaway:yes","lat":-22.5895827,"lng":-41.9921415},{"id":"7795201992","name":"Drogarias Pacheco","tags":"addr:city:Barra de São João,addr:postcode:28880000,addr:street:Rodovia Amaral Peixoto,addr:suburb:Centro,amenity:pharmacy,dispensing:yes,healthcare:pharmacy,opening_hours:Mo-Sa 09:00-20:00,opening_hours:covid19:open,wheelchair:yes","lat":-22.5909609,"lng":-41.9928008}]