[{"id":"3775784308","name":"Escola Municipal Vereador Pedro Moreira dos Santos","tags":"addr:city:Rio das Ostras,addr:housenumber:s/n,addr:postcode:28893-289,addr:street:Rua Rio Grande do Norte,addr:suburb:Extensão do Bosque,amenity:school,operator:SEMEDE,operator:type:public,website:E-mail: v.pedromoreira@yahoo.com.br","lat":-22.5230687,"lng":-41.9566661},{"id":"3778351470","name":"Escola Estadual Municipalizada Dom Bosco","tags":"addr:city:Rio das Ostras,addr:housenumber:72,addr:postcode:28893-349,addr:street:Rua do Grupo,addr:suburb:Operário,amenity:school,operator:SEMEDE,operator:type:public,website:E-mail: eedomboscomunicipalizada@gmail.com","lat":-22.5231743,"lng":-41.9529957},{"id":"3778354168","name":"E.M. Prefeito Célio Sarzedas","tags":"addr:city:Rio das Ostras,addr:housenumber:306,addr:postcode:28893-108,addr:street:Rua Guaporé,addr:suburb:Balneário Remanso,amenity:school,operator:SEMEDE,operator:type:public,website:E-mail: prefeitoceliosarzedas@gmail.com","lat":-22.5254835,"lng":-41.9503376},{"id":"3786368861","name":"Agência Central dos Correios","tags":"amenity:post_office","lat":-22.5266089,"lng":-41.9494451},{"id":"6195852401","name":"Feijoada do Vinicius","tags":"amenity:restaurant","lat":-22.5257816,"lng":-41.9463494},{"id":"10225767037","name":"Praça Arlinda da Silva Santos","tags":"leisure:park","lat":-22.5262347,"lng":-41.9497427}]