[{"id":"6044048249","name":"Casa da Cultura Liberato Torino","tags":"addr:postcode:37466-000,amenity:library,internet_access:yes","lat":-22.2858204,"lng":-44.8703116},{"id":"6044363355","name":"Terminal de Ônibus de Itamonte","tags":"addr:city:Itamonte,addr:postcode:37466-000,addr:street:Rua Presidente Vargas,amenity:bus_station,bus:yes,internet_access:no,network:Cidade do Açõ, Cometa, Delfim,public_transport:station","lat":-22.2889314,"lng":-44.8683812},{"id":"6379948554","name":"Parque Itamonte","tags":"addr:city:itamonte,addr:postcode:37466000,addr:street:Travessa Tia Ambrosia,addr:suburb:centro,dog:yes,leisure:park,opening_hours:24/7","lat":-22.2894711,"lng":-44.8686746},{"id":"6385639449","name":"Educandário São Francisco de Assis","tags":"addr:city:Itamonte,addr:housenumber:308,addr:postcode:37466-000,addr:street:Rua Presidente Vargas,addr:suburb:Centro,amenity:school,internet_access:no","lat":-22.2869942,"lng":-44.8705418},{"id":"6385639450","name":"Mercado Galego","tags":"addr:city:Itamonte,addr:housenumber:259-258,addr:postcode:37466-000,addr:street:Rua Presidente Vargas,addr:suburb:Centro,opening_hours:08:00-20:00,payment:coins:yes,payment:credit_cards:yes,payment:debit_cards:yes,payment:mastercard:yes,payment:visa:yes,shop:supermarket","lat":-22.2862642,"lng":-44.8703698},{"id":"6385639451","name":"Pracinha","tags":"addr:city:Itamonte,addr:postcode:37466-000,addr:street:Rua Presidente Vargas,addr:suburb:Centro,description:Praça de lazer e tranquilidade dos moradores locais,leisure:park,opening_hours:24/7","lat":-22.2863213,"lng":-44.8705817},{"id":"6385639458","name":"Barrica Pizzaria E Cantina","tags":"addr:city:Itamonte,addr:housenumber:258,addr:postcode:37466-000,addr:street:Rua Presidente Vargas,addr:suburb:Centro,amenity:restaurant,cuisine:pizza,outdoor_seating:yes","lat":-22.2864626,"lng":-44.8705371},{"id":"6385639461","name":"Restaurante Do Marcinho","tags":"addr:city:itamonte,addr:postcode:37466000,addr:street:Rua Lucas Francisco da Silva,amenity:restaurant,opening_hours:Mo-Su 08:00-23:00","lat":-22.2858853,"lng":-44.8682865},{"id":"6387896617","name":"Escola Padre Dr. João Scotti","tags":"addr:city:Itamonte,addr:postcode:37466-000,addr:street:Rua Presidente Vargas,addr:suburb:Centro,amenity:school,phone:+55 12 9 8250 5848","lat":-22.2872974,"lng":-44.8699157},{"id":"6405264095","name":"Restaurante Bem Bolado","tags":"addr:city:Itamonte,addr:housenumber:107,addr:postcode:37466-000,addr:street:BR-354,addr:suburb:Centro,amenity:restaurant,description:Comida feita no fogão de lenha, lugar espaçoso com mesas em ambientes externos.,internet_access:yes,opening_hours:24/7,outdoor_seating:yes","lat":-22.2877178,"lng":-44.868699}]