[{"id":"591764060","name":"Santander","tags":"amenity:bank,atm:yes,brand:Santander,brand:wikidata:Q5835668,brand:wikipedia:en:Santander Bank","lat":-22.4638698,"lng":-44.4472748},{"id":"2406394845","tags":"leisure:park","lat":-22.466686,"lng":-44.4405277},{"id":"4224671291","name":"ETAN - Escola Téc. Agulhas Negras","tags":"addr:housenumber:47,addr:street:Rua Henrique Sivore,amenity:school,email:contato@etan.com.br,phone:24 3354 0524,website:http://www.etan.com.br","lat":-22.4623811,"lng":-44.4492376},{"id":"4987423321","name":"TECNOMEDI RESENDE","tags":"addr:housenumber:118,addr:street:Rua Guilhot Rodrigues,name:pt:TECNOMEDI RESENDE,opening_hours:Mo-Fr 08:30-18:30; Sa 08:30-13:00,phone:2433601433,shop:convenience","lat":-22.4643308,"lng":-44.4451131},{"id":"5538895780","name":"Padaria Ktespero","tags":"addr:street:Rua Antonio Duizit,amenity:restaurant,capacity:20,delivery:no,outdoor_seating:no,smoking:no,takeaway:no","lat":-22.4649584,"lng":-44.4404366},{"id":"5540971203","name":"Praça Expedicionário Eurides Fortunato de Oliveira","tags":"leisure:park","lat":-22.4644357,"lng":-44.4433796},{"id":"5540975064","name":"Praça José Bonifácio","tags":"leisure:park","lat":-22.4642404,"lng":-44.443937},{"id":"5554421065","name":"Banco do Brasil","tags":"addr:city:Resende,addr:housenumber:182,addr:street:Avenida Albino de Almeida,addr:suburb:Campos Elioseos,amenity:bank,atm:yes,brand:Banco do Brasil,brand:wikidata:Q610817,brand:wikipedia:en:Banco do Brasil,opening_hours:Mo-Fr 09:00-15:00,phone:+55 24 4003 3001","lat":-22.4643493,"lng":-44.4478577},{"id":"5554421066","name":"Bradesco","tags":"amenity:bank,brand:Bradesco,brand:wikidata:Q806181,brand:wikipedia:en:Banco Bradesco","lat":-22.4646374,"lng":-44.4467386},{"id":"5554564898","name":"Itaú","tags":"amenity:bank,atm:yes,brand:Itaú Unibanco,brand:wikidata:Q1424293,brand:wikipedia:pt:Itaú Unibanco","lat":-22.464492,"lng":-44.4470682},{"id":"5554564899","name":"Itaú","tags":"amenity:bank,brand:Itaú Unibanco,brand:wikidata:Q1424293,brand:wikipedia:pt:Itaú Unibanco","lat":-22.4636663,"lng":-44.4462424},{"id":"5554564900","name":"Itaú","tags":"amenity:bank,brand:Itaú Unibanco,brand:wikidata:Q1424293,brand:wikipedia:pt:Itaú Unibanco","lat":-22.4628463,"lng":-44.447937},{"id":"5554566141","name":"Caixa Econômica Federal","tags":"amenity:bank,brand:Caixa Econômica Federal,brand:wikidata:Q835283,brand:wikipedia:pt:Caixa Econômica Federal","lat":-22.4657035,"lng":-44.4473828},{"id":"5554568087","tags":"amenity:parking","lat":-22.4636218,"lng":-44.4445981},{"id":"5554568529","tags":"amenity:parking","lat":-22.4631508,"lng":-44.4467983},{"id":"5554568530","tags":"access:customers,amenity:parking,fee:no,parking:surface","lat":-22.4628979,"lng":-44.4476116},{"id":"5554568531","tags":"amenity:parking","lat":-22.4641816,"lng":-44.4472107},{"id":"5554568532","tags":"amenity:parking","lat":-22.4622523,"lng":-44.4487522},{"id":"5554568533","tags":"amenity:parking","lat":-22.462401,"lng":-44.4487597},{"id":"5554572170","tags":"amenity:parking","lat":-22.4623629,"lng":-44.4483743},{"id":"5554572171","tags":"amenity:parking","lat":-22.4622627,"lng":-44.4475736},{"id":"5554572172","tags":"amenity:parking","lat":-22.4621624,"lng":-44.4480712},{"id":"5554572173","tags":"amenity:parking","lat":-22.4623733,"lng":-44.4490852},{"id":"5554572174","tags":"amenity:parking","lat":-22.4645274,"lng":-44.449594},{"id":"5554572176","tags":"amenity:parking","lat":-22.4643545,"lng":-44.4465746},{"id":"5554572177","tags":"amenity:parking","lat":-22.4640364,"lng":-44.4457178},{"id":"5554581241","name":"Restaurante Paulu's","tags":"amenity:restaurant,capacity:80,cuisine:regional,delivery:no,smoking:no","lat":-22.4648999,"lng":-44.4468643},{"id":"5554581355","name":"Padaria Sabor","tags":"amenity:restaurant,capacity:50,cuisine:regional,delivery:no,drive_through:no,outdoor_seating:no,smoking:no,takeaway:yes","lat":-22.4629868,"lng":-44.449798},{"id":"5554582834","name":"Royal Supermercados","tags":"shop:supermarket","lat":-22.4660671,"lng":-44.446536},{"id":"5785406157","name":"Praça do Trenzinho","tags":"leisure:park","lat":-22.4618905,"lng":-44.4485855},{"id":"9384442481","name":"Droga Raia","tags":"addr:street:Avenida Marechal Castelo Branco,amenity:pharmacy,brand:Droga Raia,healthcare:pharmacy,wheelchair:yes","lat":-22.4630705,"lng":-44.4476996},{"id":"9384445558","name":"Drogaria Moderna","tags":"addr:street:Avenida Marechal Castelo Branco,amenity:pharmacy,healthcare:pharmacy,opening_hours:Mo-Su 07:00-22:00,wheelchair:yes","lat":-22.4633651,"lng":-44.4475213}]