[{"id":"4584886890","name":"Drogaria Americana","tags":"amenity:pharmacy,opening_hours:24/7","lat":-21.9781821,"lng":-44.9330275},{"id":"4622416289","name":"Bistecão Gaúcho I","tags":"amenity:restaurant,name:pt:Bistecão Gaúcho I","lat":-21.9822079,"lng":-44.9234484},{"id":"5012466165","name":"Bradesco","tags":"amenity:bank","lat":-21.9798153,"lng":-44.9328869},{"id":"5012466166","name":"Sicoob","tags":"amenity:bank","lat":-21.979901,"lng":-44.9317222},{"id":"6677377310","name":"Mercearia Rangel","tags":"shop:supermarket","lat":-21.9824442,"lng":-44.9297476}]