[{"id":"854472052","name":"Escola Municipal John Kennedy","tags":"amenity:school","lat":-22.4980033,"lng":-44.0738575},{"id":"10025833289","name":"Mercado da Conquista","tags":"addr:city:Volta Redonda,addr:housenumber:635,addr:postcode:27212-280,addr:street:Rua Argentina,addr:suburb:Vila Americana,opening_hours:Mo-Su 08:00-20:00,payment:cash:yes,payment:credit_cards:yes,payment:debit_cards:yes,payment:visa:yes,phone:(24)3350-3300,shop:supermarket","lat":-22.4993814,"lng":-44.0736701},{"id":"854472298","name":"Colégio José Botelho de Athayde","tags":"addr:city:Volta Redonda,addr:housenumber:1186,addr:postcode:27212050,addr:street:Rua Doutor Guarnayr Horst,addr:suburb:Vila Americana,amenity:school","lat":-22.4963652,"lng":-44.0758799},{"id":"10178171074","name":"Drogaria Bem Popular Vila Americana","tags":"addr:city:Volta Redonda,addr:housenumber:689,addr:postcode:27212-280,addr:street:Rua Argentina,addr:suburb:Vila Americana,amenity:pharmacy,healthcare:pharmacy,opening_hours:Mo-Sa 08:00-18:00,payment:cards:yes,payment:cash:yes","lat":-22.4987518,"lng":-44.0736164},{"id":"10178207902","name":"Pet House","tags":"addr:city:Volta Redonda,addr:housenumber:37,addr:postcode:27212-280,addr:street:Rua Costa Rica,addr:suburb:Vila Americana,opening_hours:Mo-Sa 08:00-18:00,payment:cards:yes,payment:cash:yes,phone:(24) 98131-1218,shop:pet","lat":-22.4987106,"lng":-44.0738513}]