[{"id":"2720005707","name":"SINDUFLA","tags":"leisure:sports_centre,sport:soccer","lat":-21.2340273,"lng":-44.9906579},{"id":"2720038496","name":"Museu Bi-Moreira","tags":"tourism:museum","lat":-21.2327822,"lng":-44.9935922},{"id":"2720038503","tags":"amenity:school","lat":-21.2318897,"lng":-44.9942628},{"id":"2720038508","name":"Alvadora Hotel UFLA","tags":"addr:street:Campus Histórico da UFLA,amenity:restaurant,cuisine:regional,tourism:hotel","lat":-21.2335348,"lng":-44.9931684},{"id":"3710072617","name":"Museu de Ciências Naturais","tags":"addr:city:Lavras,addr:postcode:37200-000,addr:suburb:Campus Histórico da UFLA,operator:UFLA,tourism:museum","lat":-21.232225,"lng":-44.9935029},{"id":"4179676316","tags":"amenity:cafe","lat":-21.2340726,"lng":-44.9975968}]