[{"id":"2533094352","name":"Itaú","tags":"amenity:bank","lat":-22.4223791,"lng":-42.9770716},{"id":"2533094354","name":"Banco do Brasil","tags":"amenity:bank,brand:Banco do Brasil,brand:wikidata:Q610817,brand:wikipedia:en:Banco do Brasil","lat":-22.421975,"lng":-42.9766532},{"id":"2533096298","name":"Recanto dos Pescadores","tags":"amenity:restaurant,cuisine:fish","lat":-22.4214493,"lng":-42.9762187},{"id":"2533096299","name":"Casa da Picanha","tags":"amenity:restaurant,cuisine:steak_house","lat":-22.4213427,"lng":-42.9765164},{"id":"2533096300","name":"Recanto do Fondue","tags":"amenity:restaurant,cuisine:international","lat":-22.4212807,"lng":-42.9764279},{"id":"2887299460","name":"Caixa Econômica Federal","tags":"addr:city:Teresópolis,addr:housenumber:90,addr:street:Avenida Feliciano Sodré,amenity:bank,atm:yes,brand:Caixa Econômica Federal,brand:wikidata:Q835283,brand:wikipedia:pt:Caixa Econômica Federal","lat":-22.4226114,"lng":-42.9766789},{"id":"2887317777","name":"Multimarket","tags":"addr:city:Teresópolis,addr:housenumber:499,addr:postcode:25963082,addr:street:Avenida Feliciano Sodré,shop:supermarket","lat":-22.4192867,"lng":-42.9745948},{"id":"2887412746","name":"UPMarket","tags":"addr:city:Teresópolis,addr:street:Avenida Feliciano Sodré,shop:supermarket","lat":-22.4176145,"lng":-42.9729015},{"id":"4985070822","name":"Kilomania","tags":"amenity:restaurant,name:pt:Kilomania","lat":-22.4201772,"lng":-42.9760934}]