[{"id":"2498988562","tags":"amenity:bus_station","lat":-21.8820054,"lng":-42.6935914},{"id":"2498988563","name":"Bahamas","tags":"shop:supermarket","lat":-21.8812388,"lng":-42.6936182},{"id":"5257650607","name":"Correios","tags":"amenity:post_office","lat":-21.8822478,"lng":-42.6958481},{"id":"5257650617","name":"Restaurante e Pizzaria Rex","tags":"amenity:restaurant,cuisine:pizza;italian;regional","lat":-21.8834787,"lng":-42.6971858},{"id":"5257650618","name":"Sorveteria Sol e Neve","tags":"amenity:restaurant,cuisine:ice_cream","lat":-21.8834387,"lng":-42.6970733}]