[{"id":"3851490569","name":"Farmácia Farma","tags":"amenity:pharmacy","lat":-21.9867843,"lng":-42.2543739},{"id":"3851490570","name":"Banco do Brasil","tags":"addr:city:Macuco,addr:postcode:28545000,addr:street:Rua Doutor Mario Freire Martins,addr:suburb:Centro,amenity:bank,atm:yes,brand:Banco do Brasil,brand:wikidata:Q610817,brand:wikipedia:en:Banco do Brasil","lat":-21.9866532,"lng":-42.2545793},{"id":"3851490572","name":"Bar e Restaurante Sabor & Sonho","tags":"amenity:restaurant","lat":-21.9864843,"lng":-42.2543403},{"id":"3851490574","name":"Bradesco","tags":"addr:city:Macuco,addr:postcode:28545000,addr:street:Rua Doutor Mario Freire Martins,addr:suburb:Centro,amenity:bank,atm:yes,brand:Bradesco,brand:wikidata:Q806181,brand:wikipedia:en:Banco Bradesco","lat":-21.9863639,"lng":-42.2543675},{"id":"3851496115","name":"Mercado Novo Horizonte","tags":"shop:supermarket","lat":-21.985372,"lng":-42.2540051},{"id":"4003392408","name":"Drogaria Central","tags":"amenity:pharmacy","lat":-21.9852409,"lng":-42.2538328},{"id":"4008307468","name":"Farma Bon","tags":"addr:city:Macuco,addr:postcode:28545000,addr:street:Rua Doutor Mario Freire Martins,addr:suburb:Centro,amenity:pharmacy","lat":-21.9877629,"lng":-42.2546693},{"id":"4008307697","name":"Caixa Econômica Federal","tags":"addr:city:Macuco,addr:postcode:28545000,addr:street:Rua Doutor Mario Freire Martins,addr:suburb:Centro,amenity:bank,atm:no","lat":-21.9869733,"lng":-42.2543957},{"id":"4008307698","name":"Economia do Lar","tags":"addr:city:Macuco,addr:housenumber:223,addr:postcode:28545000,addr:street:Rua Doutor Mario Freire Martins,addr:suburb:Centro,phone:222554-2298,shop:supermarket","lat":-21.9871312,"lng":-42.2543206},{"id":"4035716285","name":"DPO 11º Batalhão da Polícia Militar","tags":"addr:city:Macuco,addr:postcode:28545000,addr:street:Rodovia Presidente João Goulart,amenity:police","lat":-21.9869032,"lng":-42.2552127}]