[{"id":"2473686496","name":"Banco do Brasil","tags":"amenity:atm","lat":-21.7709978,"lng":-43.378891},{"id":"2473691819","name":"Banco 24hs","tags":"amenity:atm","lat":-21.7710646,"lng":-43.378867},{"id":"2474028825","tags":"amenity:pharmacy","lat":-21.7729143,"lng":-43.3798245},{"id":"2474029883","tags":"amenity:pharmacy","lat":-21.7724699,"lng":-43.3783199},{"id":"2656083068","name":"Idade da Pedra","tags":"addr:city:Juiz de Fora,addr:housenumber:2499,addr:postcode:36037-500,addr:street:Avenida Presidente Costa e Silva,amenity:bar","lat":-21.7732373,"lng":-43.381142},{"id":"2656087243","name":"Bar Universitario","tags":"addr:city:Juiz de Fora,addr:street:Rua Roberto Stiegert,amenity:bar","lat":-21.7717067,"lng":-43.3816831},{"id":"2656087244","name":"Samurai - Japanese Food","tags":"addr:city:juiz de Fora,addr:street:Rua Roberto Stiegert,amenity:restaurant,cuisine:japanese","lat":-21.7714053,"lng":-43.3818092}]