[{"id":"4117871885","name":"Praça Domiciano Dutra","tags":"leisure:park","lat":-20.9464754,"lng":-44.9128517},{"id":"4117871886","name":"Praça Ananias Paiva","tags":"leisure:park","lat":-20.9471342,"lng":-44.9142894},{"id":"4117872790","name":"Hospital Universitário","tags":"amenity:hospital","lat":-20.9478381,"lng":-44.9205685},{"id":"4117872791","name":"Praça Governador Valadares","tags":"leisure:park","lat":-20.9464404,"lng":-44.9196404},{"id":"4117872792","name":"Praça Joaquim Ferreira Aguiar","tags":"leisure:park","lat":-20.9468136,"lng":-44.9184978},{"id":"4330055676","name":"E. E. Doutor Cícero Freitas","tags":"amenity:school","lat":-20.9459562,"lng":-44.9173029}]