[{"id":"5362535676","name":"Laboratório Vila Rica","tags":"amenity:pharmacy","lat":-20.5267694,"lng":-43.6934142},{"id":"5362544243","name":"Banco do Brasil","tags":"amenity:bank,atm:yes,brand:Banco do Brasil","lat":-20.5248478,"lng":-43.6929676},{"id":"5390213421","tags":"amenity:post_office","lat":-20.5231846,"lng":-43.693583},{"id":"5390213482","name":"Escola Municiapal Pio XII","tags":"amenity:school","lat":-20.523746,"lng":-43.6999508},{"id":"5394504378","name":"CESEC","tags":"amenity:school","lat":-20.5227769,"lng":-43.6930856},{"id":"6192107673","name":"Banco Bradesco","tags":"amenity:bank,atm:yes","lat":-20.5254569,"lng":-43.6935335},{"id":"6192107674","tags":"amenity:police","lat":-20.5228897,"lng":-43.6959261},{"id":"6192109435","name":"Caixa Econômica Federal","tags":"amenity:bank,atm:yes","lat":-20.5263135,"lng":-43.6967897}]