[{"id":"5524080186","tags":"access:customers,amenity:parking,fee:no,parking:surface,surface:paved","lat":-19.8766181,"lng":-44.9955817},{"id":"5971750733","name":"Escola Estadual Maria Manso","tags":"amenity:school","lat":-19.8755159,"lng":-44.9934398},{"id":"6381960117","tags":"shop:mall","lat":-19.876453,"lng":-44.9966143},{"id":"6381960118","tags":"shop:supermarket","lat":-19.8762554,"lng":-44.9959978},{"id":"6381960119","name":"Praça jadins do lago","tags":"addr:city:Nova Serrana,addr:postcode:35519000,addr:street:Avenida Antônio Araújo,addr:suburb:Frei Paulo,leisure:park,opening_hours:24/7,operator:Prefeitura","lat":-19.8775088,"lng":-44.9907143},{"id":"6381961416","name":"Praça jadins do lago","tags":"addr:city:Nova Serrana,addr:postcode:35519000,addr:suburb:Frei Paulo,leisure:park","lat":-19.8773301,"lng":-44.9899444}]