[{"id":"320218260","name":"Banco do Brasil","tags":"amenity:atm","lat":-19.9569622,"lng":-44.0623319},{"id":"320218264","name":"Real","tags":"amenity:atm","lat":-19.9569622,"lng":-44.0624499},{"id":"320218268","name":"Bradesco","tags":"amenity:atm","lat":-19.9569572,"lng":-44.0625625},{"id":"320218272","name":"Itaú","tags":"amenity:atm","lat":-19.9569381,"lng":-44.0626846},{"id":"320218289","tags":"amenity:restaurant","lat":-19.9568966,"lng":-44.0641128},{"id":"320218297","tags":"amenity:pharmacy","lat":-19.9568966,"lng":-44.0638661},{"id":"320404282","name":"Carretão Trevo","tags":"amenity:restaurant,wheelchair:limited","lat":-19.9583639,"lng":-44.0649872},{"id":"2011657475","name":"Makro","tags":"shop:supermarket","lat":-19.9574786,"lng":-44.0657411},{"id":"5885281285","name":"Supermercado Mart Minas","tags":"addr:city:Contagem,addr:housenumber:77,addr:street:Avenida Cruzeiro do Sul,addr:suburb:Jardim Riacho Das Pedras,name:en:Mart Minas story,opening_hours:Mo-Sa 08:00-21:00; Su 08:00-14:00,shop:supermarket","lat":-19.9594017,"lng":-44.0604921}]