[{"id":"1120711861","name":"Pizzarella","tags":"amenity:restaurant,cuisine:pizza","lat":-19.9547779,"lng":-43.9504435},{"id":"3325576218","name":"Sushi Japa São Bento","tags":"amenity:restaurant","lat":-19.9551601,"lng":-43.95002},{"id":"3325970881","name":"Projeto Sabor","tags":"amenity:restaurant","lat":-19.9549706,"lng":-43.9500239},{"id":"3329975152","name":"Drogaria Araújo","tags":"amenity:pharmacy,dispensing:yes,drive_through:no,healthcare:pharmacy,wheelchair:yes","lat":-19.9539766,"lng":-43.9499135},{"id":"3329986337","name":"Greenwich Schools","tags":"amenity:school","lat":-19.9539966,"lng":-43.9495685},{"id":"3329986880","name":"Academia Alta Energia","tags":"leisure:sports_centre","lat":-19.9539849,"lng":-43.9492853},{"id":"7375540241","name":"Lisboa","tags":"description:Hortifrute,organic:only,shop:supermarket","lat":-19.9529262,"lng":-43.9489483},{"id":"7375540243","name":"Verdinho","tags":"amenity:restaurant","lat":-19.9552453,"lng":-43.9503263}]