[{"id":"711915760","tags":"amenity:parking","lat":-19.9749394,"lng":-43.9444125},{"id":"711915769","tags":"amenity:pharmacy,healthcare:pharmacy","lat":-19.9750805,"lng":-43.9449382},{"id":"1183085991","name":"Parada Carioca","tags":"addr:housenumber:673,amenity:bar,brewery:yes;various,smoking:outside","lat":-19.9747705,"lng":-43.9416915},{"id":"1681727694","name":"Araújo","tags":"amenity:pharmacy,healthcare:pharmacy","lat":-19.9752792,"lng":-43.9431525},{"id":"1681727697","name":"Bradesco","tags":"amenity:bank,brand:Bradesco,brand:wikidata:Q806181,brand:wikipedia:en:Banco Bradesco","lat":-19.9751028,"lng":-43.9426536},{"id":"1681727699","name":"Santander","tags":"amenity:bank,brand:Santander,brand:wikidata:Q5835668,brand:wikipedia:en:Santander Bank","lat":-19.9752086,"lng":-43.9429111},{"id":"1683189559","tags":"amenity:restaurant","lat":-19.975828,"lng":-43.9450709},{"id":"4756280545","name":"Epa Plus","tags":"addr:city:Belo Horizonte,addr:housenumber:251,addr:street:Avenida Luíz Paulo Franco,addr:suburb:Belvedere,shop:supermarket","lat":-19.9742071,"lng":-43.9397083},{"id":"5115437663","name":"Drogaria Araujo","tags":"amenity:pharmacy,brand:Drogaria Araujo,brand:wikidata:Q10268807,healthcare:pharmacy","lat":-19.9752357,"lng":-43.9381575},{"id":"5678464418","name":"Duke 'n Duke","tags":"addr:city:Nova Lima,addr:housenumber:1033,addr:street:Alameda Oscar Niemeyer,addr:suburb:Vila da Serra,amenity:bar,payment:bitcoin:yes","lat":-19.976759,"lng":-43.9408277},{"id":"9586733717","name":"Bar do Dorival","tags":"amenity:restaurant","lat":-19.9785112,"lng":-43.9425113}]