[{"id":"324498110","name":"Kahlua","tags":"amenity:cafe","lat":-19.9257347,"lng":-43.9379873},{"id":"324498111","name":"La Greppia","tags":"amenity:restaurant,cuisine:italian","lat":-19.9254246,"lng":-43.9376923},{"id":"324498114","tags":"amenity:cafe","lat":-19.9259037,"lng":-43.9372953},{"id":"324654718","name":"Conexão Aeroporto","tags":"amenity:bus_station,bus:yes,public_transport:station","lat":-19.9265744,"lng":-43.9384943},{"id":"324773916","tags":"amenity:restaurant","lat":-19.9245169,"lng":-43.9427161},{"id":"324773920","name":"Matriz","tags":"amenity:nightclub","lat":-19.9251792,"lng":-43.9416945},{"id":"353133222","tags":"amenity:restaurant","lat":-19.9254952,"lng":-43.9359354},{"id":"895180515","name":"Butecando","tags":"amenity:restaurant,cuisine:brazilian;italian","lat":-19.9245832,"lng":-43.9382569},{"id":"895180519","name":"Cantina do Lucas","tags":"addr:city:Belo Horizonte,addr:housenumber:233,addr:street:Avenida Augusto de Lima,addr:suburb:Centro,amenity:restaurant,cuisine:Mineira and Italiana","lat":-19.9247161,"lng":-43.9375956},{"id":"895185618","name":"All Face","tags":"amenity:restaurant,opening_hours:Sa-Su 11:00-14:00","lat":-19.9243866,"lng":-43.9377339},{"id":"998928244","name":"Correios - Goiás","tags":"amenity:post_office,operator:Correios,operator:wikidata:Q3375004,operator:wikipedia:en:Correios","lat":-19.9241143,"lng":-43.9364526},{"id":"998928249","name":"Correios - Rua da Bahia","tags":"addr:city:Belo Horizonte,addr:housenumber:1155,addr:postcode:30160-011,addr:street:Rua da Bahia,addr:suburb:Centro,amenity:post_office,operator:Correios,operator:wikidata:Q3375004,operator:wikipedia:en:Correios","lat":-19.9252148,"lng":-43.9374462},{"id":"998928250","name":"Correios - Ag. Central","tags":"amenity:post_office,operator:Correios,operator:wikidata:Q3375004,operator:wikipedia:en:Correios","lat":-19.9240798,"lng":-43.9359082},{"id":"1234307378","tags":"amenity:cafe","lat":-19.9275312,"lng":-43.9365739},{"id":"1234307379","name":"Itaú","tags":"amenity:bank,branch:Personalité,brand:Itaú Unibanco,brand:wikidata:Q1424293,brand:wikipedia:pt:Itaú Unibanco","lat":-19.9277308,"lng":-43.9369466},{"id":"1234307383","name":"Itaú","tags":"amenity:bank,brand:Itaú Unibanco,brand:wikidata:Q1424293,brand:wikipedia:pt:Itaú Unibanco","lat":-19.9270472,"lng":-43.9364315},{"id":"1234307389","name":"Tonel de Pinga","tags":"amenity:bar","lat":-19.9275036,"lng":-43.9352378},{"id":"1234307394","name":"Editora Vozes","tags":"shop:books","lat":-19.9276236,"lng":-43.9354515},{"id":"1234307397","name":"Lanches Primos","tags":"amenity:cafe","lat":-19.9277328,"lng":-43.9357299},{"id":"1234307399","name":"Safra","tags":"amenity:bank","lat":-19.9273928,"lng":-43.9365121},{"id":"1243162887","name":"Banco do Brasil","tags":"amenity:bank,atm:yes,brand:Banco do Brasil,brand:wikidata:Q610817,brand:wikipedia:en:Banco do Brasil","lat":-19.9278165,"lng":-43.9380776},{"id":"1243162895","name":"Caixa Econômica Federal","tags":"amenity:bank,brand:Caixa Econômica Federal,brand:wikidata:Q835283,brand:wikipedia:pt:Caixa Econômica Federal","lat":-19.9271457,"lng":-43.9372891},{"id":"1243162896","name":"Autopark","tags":"amenity:parking","lat":-19.9267357,"lng":-43.9380221},{"id":"1243162897","name":"Empada Caipira","tags":"amenity:cafe","lat":-19.9261724,"lng":-43.9376002},{"id":"1243162898","name":"Saga Seasons","tags":"amenity:nightclub","lat":-19.9266651,"lng":-43.9377271},{"id":"1243162899","tags":"amenity:cafe","lat":-19.9271962,"lng":-43.9381205},{"id":"1243162903","name":"Café Coado","tags":"amenity:cafe","lat":-19.9269072,"lng":-43.9385853},{"id":"1243162904","name":"Restaurante Rossi","tags":"amenity:restaurant","lat":-19.9272567,"lng":-43.9379006},{"id":"1261240628","name":"Arcangelo Cafe","tags":"amenity:cafe","lat":-19.9250471,"lng":-43.9375596},{"id":"1262298934","name":"Itaú","tags":"amenity:bank,brand:Itaú Unibanco,brand:wikidata:Q1424293,brand:wikipedia:pt:Itaú Unibanco","lat":-19.925013,"lng":-43.936844},{"id":"1481198070","name":"Sabor e Saúde","tags":"amenity:restaurant","lat":-19.9270732,"lng":-43.9368018},{"id":"1520492090","name":"Chxico do Churrasco","tags":"amenity:restaurant","lat":-19.9290148,"lng":-43.9415489},{"id":"1521156896","name":"Stop & Shop","tags":"shop:convenience","lat":-19.9254875,"lng":-43.9429489},{"id":"1521156903","tags":"amenity:car_wash","lat":-19.9256413,"lng":-43.9427322},{"id":"1561391356","tags":"amenity:pharmacy,healthcare:pharmacy","lat":-19.9247747,"lng":-43.9374471},{"id":"1561391357","name":"Drogaria Araujo","tags":"amenity:pharmacy,healthcare:pharmacy","lat":-19.9242451,"lng":-43.937431},{"id":"1561391358","name":"Benzadeus Café","tags":"amenity:cafe,cuisine:coffee_shop","lat":-19.9243763,"lng":-43.9371091},{"id":"1571405980","tags":"amenity:bar","lat":-19.923755,"lng":-43.940009},{"id":"1746775793","name":"Chinna Food","tags":"addr:housenumber:305,addr:street:Rua Goiás,amenity:restaurant,cuisine:chinese","lat":-19.9259749,"lng":-43.9353059},{"id":"1755069039","name":"NKL","tags":"amenity:restaurant","lat":-19.9270313,"lng":-43.938205},{"id":"1755070540","name":"Itaú","tags":"amenity:bank,brand:Itaú Unibanco,brand:wikidata:Q1424293,brand:wikipedia:pt:Itaú Unibanco,operator:Itaú","lat":-19.9239429,"lng":-43.9370462},{"id":"1755072011","tags":"amenity:pharmacy,healthcare:pharmacy","lat":-19.9240847,"lng":-43.9373479},{"id":"1849301292","name":"O Fabuloso","tags":"addr:housenumber:834,addr:street:Avenida Álvares Cabral,amenity:cafe","lat":-19.9282358,"lng":-43.9421441},{"id":"1849662587","name":"Casa Antiga","tags":"amenity:bar","lat":-19.9269714,"lng":-43.9406726},{"id":"1849662596","tags":"amenity:parking","lat":-19.9272505,"lng":-43.9406775},{"id":"2409265642","name":"Estacionamento Aventura Parking","tags":"addr:housenumber:426,addr:street:Rua dos Guajajaras,amenity:parking,fee:yes,supervised:yes","lat":-19.9256294,"lng":-43.9383568},{"id":"2429287183","name":"Van Damme","tags":"addr:city:Belo Horizonte,addr:country:BR,addr:housenumber:505,addr:postcode:30180-100,addr:street:Rua dos Guajajaras,shop:books,website:http://www.vandammelivraria.com.br/","lat":-19.9254969,"lng":-43.9400118},{"id":"2635538565","name":"Z's Estacionamento","tags":"access:yes,addr:city:Belo Horizonte,addr:housenumber:450,addr:postcode:30180-100,addr:street:Rua dos Guajajaras,addr:suburb:Centro,amenity:parking,capacity:45,maxstay:15 min,opening_hours:Mo-Su 07:00-22:00,operator:Z's Estacionamento,parking:surface,surface:asphalt","lat":-19.9256109,"lng":-43.9384355},{"id":"3725525290","name":"Museu da Imagem e do Som","tags":"addr:city:Belo Horizonte,addr:housenumber:560,addr:street:Avenida Álvares Cabral,addr:suburb:Lourdes,alt_name:MIS - BH,contact:email:mis.fmc@pbh.gov.br,contact:facebook:www.facebook.com/museudaimagenedosombh,contact:phone:+55 31 32774131,contact:youtube:www.youtube.com/c/CanalMISBH,opening_hours:Mo 08:00-18:00; Tu 09:00-21:00; We-Fr 08:00-18:00,tourism:museum","lat":-19.9269169,"lng":-43.9401038},{"id":"3831385059","name":"Arroba","tags":"addr:city:Belo Horizonte,addr:street:Av. Bias Fortes,amenity:restaurant,cuisine:Churrascaria","lat":-19.926744,"lng":-43.9424},{"id":"4529110400","name":"Dia","tags":"addr.source:street:survey,addr:housenumber:802,addr:street:Avenida Bias Fortes,brand:Dia,brand:wikidata:Q925132,brand:wikipedia:es:Supermercados DIA,name:pt:Supermercado Dia,shop:supermarket","lat":-19.9261031,"lng":-43.942764},{"id":"5001839122","name":"Fonte","tags":"addr:housenumber:619,addr:postcode:30180-100,addr:street:Rua dos Guajajaras,amenity:restaurant,diet:vegetarian:yes,name:pt:Fonte,opening_hours:Mo-Su 11:00-17:00,phone:+55 31 3224 9630","lat":-19.9259519,"lng":-43.9396431},{"id":"5049662665","name":"Mania Gostosa","tags":"amenity:restaurant","lat":-19.9254284,"lng":-43.9357062},{"id":"5070227705","tags":"addr:city:Belo Horizonte,addr:housenumber:1397,addr:postcode:30170-121,addr:street:Rua Curitiba,addr:suburb:Lourdes,amenity:bank,atm:yes,branch:Comércio,brand:Banco Mercantil do Brasil,operator:Banco Mercantil do Brasil S/A","lat":-19.9250088,"lng":-43.9429019},{"id":"5157330721","name":"Corleone","tags":"amenity:bar","lat":-19.9281294,"lng":-43.9367155},{"id":"5223172801","name":"Caixa Econômica Federal","tags":"addr:city:Belo Horizonte,addr:housenumber:476,addr:street:Avenida Álvares Cabral,addr:suburb:Lourdes,amenity:bank,atm:yes,brand:Caixa Econômica Federal,brand:wikidata:Q835283,brand:wikipedia:pt:Caixa Econômica Federal,operator:CAIXA ECONÔMICA FEDERAL","lat":-19.9265583,"lng":-43.9393249},{"id":"5635104483","name":"Las Chicas Vegan","tags":"addr:city:Belo Horizonte,addr:housenumber:233 - Sobreloja 20,addr:postcode:31190-000,addr:street:Av. Augusto de Lima,addr:suburb:Centro,amenity:restaurant,contact:facebook:https://www.facebook.com/laschicasvegan/,contact:instagram:https://www.instagram.com/laschicasvegan/,delivery:yes,diet:vegan:only,level:2,opening_hours:Mo-Sa 11:00-23:30,phone:+55 31 3309-3746","lat":-19.9248337,"lng":-43.9377065},{"id":"5678464420","name":"Duke 'n Duke","tags":"addr:city:Belo Horizonte,addr:housenumber:245,addr:street:Avenida Augusto de Lima,addr:suburb:Centro,amenity:bar,payment:bitcoin:yes","lat":-19.9246052,"lng":-43.937906},{"id":"6414829885","name":"Roça Grande","tags":"addr:street:Rua dos Timbiras,amenity:restaurant,cuisine:brazilian;local","lat":-19.9262559,"lng":-43.9412806},{"id":"6481481685","name":"Pé de Couve","tags":"addr:housenumber:307,addr:street:Rua Goiás,amenity:restaurant,contact:facebook:https://pt-br.facebook.com/pedecouvebh/,diet:vegan:only,internet_access:wlan,opening_hours:Mo-Fr 11:00-20:00; Sa 11:00-15:00,phone:+55 31 3234-1226,self_service:yes","lat":-19.9261782,"lng":-43.9350932},{"id":"7323928356","tags":"access:private,leisure:fitness_centre,level:0,sport:fitness","lat":-19.9286434,"lng":-43.9365195},{"id":"8558067074","name":"Santander","tags":"addr:housenumber:1500,addr:street:Avenida Afonso Pena,amenity:bank,atm:yes,brand:Santander,brand:wikidata:Q5835668,brand:wikipedia:en:Santander Bank","lat":-19.9258389,"lng":-43.9346024},{"id":"8821213432","name":"Bar Aqui Tudo é Bom - Lourdes","tags":"addr:city:Belo Horizonte,addr:housenumber:776,addr:postcode:30170-012,addr:street:Avenida Bias Fortes,addr:suburb:Lourdes,amenity:restaurant,cuisine:regional,opening_hours:Mo-Su 11:00-23:00,phone:+55 31 3274 1019,website:https://baraquitudoebom.com.br/","lat":-19.9267304,"lng":-43.9424001}]