[{"id":"504709867","name":"Araújo","tags":"amenity:pharmacy,healthcare:pharmacy","lat":-19.9490255,"lng":-43.9204779},{"id":"504709870","name":"Néctar da Serra","tags":"addr:city:Belo Horizonte,addr:housenumber:1839,addr:street:Avenida Bandeirantes,addr:suburb:Mangabeiras,amenity:restaurant,phone:+55 31 3281-1466,source:name:survey","lat":-19.9491691,"lng":-43.9207032},{"id":"573382930","name":"Escola da Serra","tags":"addr:city:Belo Horizonte,addr:housenumber:1900,addr:street:Rua do Ouro,addr:suburb:Serra,amenity:school","lat":-19.9472994,"lng":-43.9187066},{"id":"861830733","name":"Santander","tags":"amenity:bank,atm:yes,operator:Santander","lat":-19.9461501,"lng":-43.9215345},{"id":"983345954","name":"Espeto's","tags":"amenity:restaurant,cuisine:brazilian","lat":-19.9459696,"lng":-43.918649},{"id":"1113912290","tags":"amenity:bus_station","lat":-19.9511196,"lng":-43.9222296},{"id":"1357854553","name":"Caixa Econômica Federal","tags":"amenity:bank,atm:yes,brand:Caixa Econômica Federal,brand:wikidata:Q835283,brand:wikipedia:pt:Caixa Econômica Federal,drive_through:no","lat":-19.945858,"lng":-43.921756},{"id":"1746160774","name":"Cassis","tags":"amenity:restaurant","lat":-19.9457663,"lng":-43.9203102},{"id":"1746161760","name":"No Arco da Lapa","tags":"addr:street:Rua Professor Estevão Pinto,amenity:restaurant,cuisine:mineira;local","lat":-19.9463177,"lng":-43.9204092},{"id":"3305726159","name":"Academia Alta Energia","tags":"leisure:sports_centre","lat":-19.9506235,"lng":-43.9221236},{"id":"3305731088","name":"Pizzaria Mangabeiras","tags":"addr:city:Belo Horizonte,addr:housenumber:4200,addr:street:Avenida Afonso Pena,addr:suburb:Mangabeiras,amenity:restaurant,cuisine:pizza","lat":-19.9469112,"lng":-43.921493},{"id":"4360858466","name":"Santander","tags":"amenity:bank","lat":-19.9486707,"lng":-43.9203455}]