[{"id":"4925040289","name":"Restaurante Mais Sabor","tags":"amenity:restaurant","lat":-20.6845425,"lng":-43.3011586},{"id":"4925058202","tags":"amenity:bank,brand:Banco do Brasil","lat":-20.6848415,"lng":-43.3011011},{"id":"4925058318","name":"Farmare Drogaria E Manipulação","tags":"amenity:pharmacy","lat":-20.6860014,"lng":-43.300575},{"id":"4925063840","name":"Churrascaria e Restaurante- Nosso Butequim","tags":"amenity:restaurant","lat":-20.6843453,"lng":-43.3011656},{"id":"4925072324","name":"Comercial e Transportadora do Afonço","tags":"shop:supermarket","lat":-20.685216,"lng":-43.2996723},{"id":"4925140015","name":"Mercearia Barbosa","tags":"shop:supermarket","lat":-20.6862632,"lng":-43.2974369},{"id":"4925152220","name":"Bar Do Roberto Prosa","tags":"amenity:bar","lat":-20.6862915,"lng":-43.2976766},{"id":"4925152221","name":"Bar E Lanchonete Do Osvaldo","tags":"amenity:bar","lat":-20.6863055,"lng":-43.2979572},{"id":"4931272483","name":"Drogaria São Pedro","tags":"amenity:pharmacy","lat":-20.6855195,"lng":-43.3006294},{"id":"4931361815","name":"Podium Lava Rápido","tags":"amenity:car_wash","lat":-20.6819975,"lng":-43.3015789},{"id":"4931445326","name":"Juca's Supermercados","tags":"shop:supermarket","lat":-20.6830879,"lng":-43.3023558},{"id":"4931445349","name":"Academia Bem Estar","tags":"leisure:fitness_centre","lat":-20.6861907,"lng":-43.2981371},{"id":"4931465613","name":"Supermercado Oliveira","tags":"shop:supermarket","lat":-20.6871,"lng":-43.3007239},{"id":"4931465614","name":"Supermercado Cardoso Vidigal","tags":"shop:supermarket","lat":-20.685115,"lng":-43.2987278},{"id":"4931465616","name":"Drogaria Dora","tags":"amenity:pharmacy","lat":-20.6839131,"lng":-43.3011557},{"id":"4931465617","name":"Easy School Center","tags":"amenity:school","lat":-20.6842988,"lng":-43.301322},{"id":"4931555285","name":"Drogary","tags":"amenity:pharmacy","lat":-20.6858264,"lng":-43.3004184},{"id":"4931555286","name":"Drogaria Guarápiranga","tags":"amenity:pharmacy","lat":-20.6852789,"lng":-43.2999679},{"id":"4931578920","name":"Correios","tags":"amenity:post_office","lat":-20.6853811,"lng":-43.3009638},{"id":"4931579221","name":"Bradesco","tags":"amenity:atm","lat":-20.68542,"lng":-43.300717}]