[{"id":"1623107045","name":"Colégio Carmo","tags":"amenity:school","lat":-20.7530705,"lng":-42.8831814},{"id":"1623117355","name":"Livraria Nobel","tags":"shop:books","lat":-20.7529643,"lng":-42.8807851},{"id":"2966429907","name":"Colégio Gênesis","tags":"amenity:school","lat":-20.751593,"lng":-42.884401},{"id":"3150733976","name":"CoffeeBitt Cafeteria Gourmet","tags":"amenity:cafe","lat":-20.7530139,"lng":-42.8808165},{"id":"6976677185","tags":"amenity:bar","lat":-20.7519424,"lng":-42.8821089},{"id":"6976840885","tags":"amenity:bar","lat":-20.7525239,"lng":-42.8804897}]