[{"id":"2029290424","name":"Restaurante Quinto do Ouro","tags":"amenity:restaurant","lat":-20.3853044,"lng":-43.5044819},{"id":"2029290431","tags":"amenity:restaurant","lat":-20.3857364,"lng":-43.5038951},{"id":"2029290453","name":"Tropea Cantina Armazem","tags":"addr:city:Ouro Preto,addr:housenumber:15,addr:street:Rua Coronel Alves,amenity:restaurant,website:https://www.opassopizzajazz.com.br/tropea","lat":-20.3859174,"lng":-43.5052523},{"id":"2029290470","name":"Farmácia Itacolomy","tags":"amenity:pharmacy,healthcare:pharmacy","lat":-20.3852522,"lng":-43.5048075},{"id":"2041182483","name":"Restaurante Bené da Flauta","tags":"amenity:restaurant","lat":-20.386535,"lng":-43.5024517},{"id":"2041225135","name":"Chafariz do Largo de Marília","tags":"amenity:fountain,tourism:attraction","lat":-20.3875365,"lng":-43.4995032},{"id":"2044485106","name":"Satélite Pizzaria & Lanchonete","tags":"amenity:restaurant,cuisine:brazilian;pizza;burger,internet_access:wlan,name:en:Satélite Pizzaria & Lanchonete","lat":-20.3853769,"lng":-43.5047446},{"id":"2044485132","name":"Armazém Vila Rica","tags":"shop:convenience","lat":-20.385311,"lng":-43.505368},{"id":"2044485176","name":"Cafe Cultural Ouro Preto","tags":"amenity:cafe,cuisine:cake,description:cafeteria e livraria,name:en:Cafe Cultural Ouro Preto","lat":-20.385594,"lng":-43.5033553},{"id":"2044485279","name":"Restaurante Spaghetti","tags":"amenity:restaurant","lat":-20.3852069,"lng":-43.5053015},{"id":"2044485349","name":"O Sotão - Casa de Panquecas","tags":"amenity:restaurant","lat":-20.385222,"lng":-43.5051619},{"id":"2051427664","name":"Posto de Saúde do Antônio Dias","tags":"amenity:hospital,healthcare:hospital","lat":-20.3870956,"lng":-43.4995166},{"id":"2366005665","name":"Fábrica de Chocolates Ouro Preto","tags":"amenity:cafe","lat":-20.3855551,"lng":-43.5038736},{"id":"2687180785","name":"Mina do Chico Rei","tags":"addr:city:Ouro Preto,addr:housenumber:108,addr:street:Rua Dom Silvério,tourism:attraction","lat":-20.3862658,"lng":-43.4992531},{"id":"3967047948","name":"Casa do Ouvidor","tags":"amenity:restaurant,cuisine:regional","lat":-20.3853285,"lng":-43.504323},{"id":"4181842990","name":"Casa de Alejandinho","tags":"addr:housenumber:18,addr:street:Praça Antônio Dias,tourism:attraction","lat":-20.3867053,"lng":-43.5008271},{"id":"4421888089","name":"Opera Cafe","tags":"amenity:cafe,name:en:Opera Cafe","lat":-20.3854034,"lng":-43.504612},{"id":"4422692889","name":"Mama Roma","tags":"addr:housenumber:285,amenity:restaurant,cuisine:italian,name:en:Mama Roma","lat":-20.3861505,"lng":-43.5049824},{"id":"4422917689","name":"Braúnas Restaurante & Pub","tags":"amenity:restaurant,cuisine:brazilian;regional","lat":-20.3851646,"lng":-43.5037696},{"id":"4423847589","name":"Satélite Pizzaria Anexo","tags":"amenity:restaurant,cuisine:pizza","lat":-20.3854613,"lng":-43.5048805},{"id":"4537761557","name":"Museu Casa Guignard","tags":"addr:housenumber:110,tourism:museum,wikidata:Q10333424","lat":-20.3852705,"lng":-43.5047324},{"id":"4537764384","name":"Parada do Conde","tags":"addr:housenumber:135,amenity:restaurant","lat":-20.3853195,"lng":-43.5052278},{"id":"4576235390","name":"Minas do palacio velho","tags":"name:pt:Minas do palacio velho,tourism:attraction","lat":-20.3860557,"lng":-43.4989867},{"id":"4794002619","name":"Monsieur Café","tags":"amenity:cafe","lat":-20.3862014,"lng":-43.5049516},{"id":"5893258796","name":"Restaurante do Airson","tags":"amenity:restaurant","lat":-20.3894329,"lng":-43.5007753},{"id":"6319445381","name":"Mina Jeje","tags":"tourism:attraction","lat":-20.385976,"lng":-43.4952749},{"id":"6319445615","name":"Oratório do Vira-Saia","tags":"tourism:attraction","lat":-20.38771,"lng":-43.4980272},{"id":"6320862676","name":"Jacubas  Livros e Artes","tags":"shop:books","lat":-20.3856011,"lng":-43.5032963},{"id":"6594845385","name":"Tiradentes (bufet 15rs)","tags":"amenity:restaurant","lat":-20.3860885,"lng":-43.5030055},{"id":"9770171785","name":"Mina do Bijoca","tags":"tourism:attraction","lat":-20.3855109,"lng":-43.499598}]