[{"id":"2644895049","name":"Escola Municipal Inayá Moraes D'Couto","tags":"addr:city:Rio das Ostras,addr:housenumber:414,addr:postcode:28895-614,addr:street:Rua Frei Galvão,addr:suburb:Village Rio das Ostras,amenity:school,operator:SEMEDE,operator:type:public,website:E-mail: escola@escolamunicipalinaya.com.br","lat":-22.4925843,"lng":-41.9210815},{"id":"3778340616","name":"E.M. Nadir da Silva Salvador","tags":"addr:city:Rio das Ostras,addr:housenumber:384,addr:postcode:28895-614,addr:street:Rua Frei Galvão,addr:suburb:Village Rio das Ostras,amenity:school,operator:SEMEDE,operator:type:public,website:E-mail: emnadirss@gmail.com","lat":-22.4930332,"lng":-41.9205329},{"id":"8942109144","name":"Farmacia Viva Bem","tags":"amenity:pharmacy,dispensing:yes,healthcare:pharmacy","lat":-22.4907354,"lng":-41.9182132},{"id":"8942109146","name":"Pizaria e lanchonete dos Amigos","tags":"amenity:restaurant,cuisine:pizza;sandwich;burger","lat":-22.491174,"lng":-41.9177948},{"id":"9334493836","name":"Lava a Jato Nota 10","tags":"addr:city:Rio das Ostras,addr:housenumber:594,addr:postcode:28899-419,addr:street:Avenida das Flores,addr:suburb:Residencial Praia Âncora,amenity:car_wash","lat":-22.4900304,"lng":-41.9154035}]