[{"id":"1232303291","name":"Colégio Batista Fluminense","tags":"amenity:school","lat":-21.7531335,"lng":-41.3305034},{"id":"2587347983","tags":"amenity:bank,atm:no,brand:Banco do Brasil","lat":-21.7553302,"lng":-41.3229789},{"id":"2587347984","name":"Campos Shopping","tags":"shop:mall","lat":-21.7557182,"lng":-41.3223031},{"id":"3141094153","tags":"amenity:parking","lat":-21.7572974,"lng":-41.3214513},{"id":"3141094154","tags":"amenity:parking","lat":-21.7575301,"lng":-41.3216421},{"id":"3141094155","tags":"amenity:parking","lat":-21.7577873,"lng":-41.3216945},{"id":"7853617347","name":"Academia Slim Fit","tags":"addr:city:Campos dos Goytacazes,addr:housenumber:155,addr:street:Avenida Alberto Torres,addr:suburb:Centro,email:contato.slimfit@gmail.com,leisure:fitness_centre,opening_hours:Mo-Fr 06:00-22:00,opening_hours:covid19:same,phone:+55 22 99608-1284,sport:fitness;musculação;aeróbico;funcional,website:https://academiaslimfit.com/","lat":-21.7540551,"lng":-41.3278747},{"id":"9579555611","name":"Polícia Federal do Brasil","tags":"addr:city:Campos dos Goytacazes,addr:housenumber:158,addr:postcode:28035-300,addr:street:Rua Barão de Miracema,addr:suburb:Centro,amenity:police,operator:Polícia Federal do Brasil,operator:en:Federal Police of Brazil,operator:wikidata:Q2289697,operator:wikipedia:pt:Polícia Federal do Brasil,phone:+55 22 2726 8700","lat":-21.7566451,"lng":-41.3284647}]