[{"id":"1232303276","name":"Instituto Federal Fluminense (IFF)","tags":"addr:city:Campos dos Goytacazes,addr:housenumber:273,addr:postcode:28030-130,addr:street:Rua Doutor Siqueira,addr:suburb:Parque Dom Bosco,amenity:university,internet_access:wlan,internet_access:fee:customers,operator:Governo Federal,operator:type:public,website:http://www.iff.edu.br,wheelchair:yes","lat":-21.7621733,"lng":-41.3368542},{"id":"1246396486","name":"Salesiano","tags":"amenity:school","lat":-21.759932,"lng":-41.3388815},{"id":"1246396507","name":"Supermecado Ferreirão","tags":"shop:supermarket","lat":-21.7586861,"lng":-41.3350169},{"id":"1264394903","tags":"amenity:bank,atm:no,brand:Banco do Brasil","lat":-21.7598515,"lng":-41.3334253},{"id":"2466831912","tags":"amenity:bank,brand:Bradesco","lat":-21.760582,"lng":-41.3322689},{"id":"2466831919","tags":"amenity:bank,brand:Itaú","lat":-21.7600488,"lng":-41.3334559},{"id":"2516822237","name":"Girafas","tags":"amenity:restaurant,cuisine:regional","lat":-21.7620707,"lng":-41.3327528},{"id":"2516822240","name":"Pizza Buzz","tags":"amenity:restaurant,cuisine:pizza","lat":-21.7592232,"lng":-41.3352153},{"id":"2516822241","name":"Antônio","tags":"amenity:restaurant,cuisine:regional","lat":-21.7591889,"lng":-41.3348629},{"id":"2516822243","name":"Spoleto","tags":"amenity:restaurant,cuisine:italian","lat":-21.7599527,"lng":-41.3331659},{"id":"2793911706","name":"Colégio Estadua Julião Nogueira","tags":"amenity:school","lat":-21.7637642,"lng":-41.338549},{"id":"6758334957","name":"Santander","tags":"amenity:bank,brand:Santander,brand:wikidata:Q5835668,brand:wikipedia:en:Santander Bank","lat":-21.7596863,"lng":-41.3336023}]