[{"id":"1500957167","tags":"shop:convenience","lat":-20.8546613,"lng":-41.1174219},{"id":"3477820306","name":"EEEFM Fraternidade e Luz","tags":"IJSN:administra:Estadual,IJSN:classeCnae:Fundamental e Médio,addr:city:Cachoeiro de Itapemirim,addr:country:BR,addr:housenumber:2,addr:place:Sumaré,addr:postcode:29304-540,addr:state:ES,addr:street:Praça João Santana,alt_name:Escola Estadual de Ensino Fundamental e Médio,amenity:school,contact:phone:+55 28 3522-4539;+55 28 3511-1542","lat":-20.8540883,"lng":-41.1119984},{"id":"3477820424","name":"Meta","tags":"IJSN:administra:Privada,IJSN:classeCnae:Infantil e Fundamental,addr:city:Cachoeiro de Itapemirim,addr:housenumber:4,addr:place:Gilberto Machado,addr:postcode:29303-270,addr:street:Rua Konrad Adenauer,amenity:school,contact:phone:(28) 3511-0305/3521-8200","lat":-20.8524437,"lng":-41.1146998},{"id":"9456211473","name":"Pague Menos","tags":"addr:city:Cachoeiro de Itapemirim,addr:postcode:29306-500,addr:street:Avenida Francisco Lacerda de Aguiar,addr:suburb:Gilberto Machado,amenity:pharmacy,brand:Pague Menos,brand:wikidata:Q7124466,brand:wikipedia:pt:Pague Menos,dispensing:yes,healthcare:pharmacy","lat":-20.8532717,"lng":-41.1163795},{"id":"9456211478","name":"Sicoob","tags":"addr:city:Cachoeiro de Itapemirim,addr:housenumber:75,addr:postcode:29.303-300,addr:street:Avenida Francisco Lacerda de Aguiar,addr:suburb:Gilberto Machado,amenity:bank,brand:Sicoob,brand:wikidata:Q28679754,brand:wikipedia:pt:Sistema de Cooperativas de Crédito do Brasil,phone:+55 28 3521 6822","lat":-20.8536097,"lng":-41.116405},{"id":"9456211479","name":"Drogasil","tags":"addr:city:Cachoeiro de Itapemirim,addr:street:Avenida Francisco Lacerda de Aguiar,addr:suburb:Gilberto Machado,amenity:pharmacy,brand:Drogasil,brand:wikidata:Q5308185,brand:wikipedia:pt:Drogasil,dispensing:yes,healthcare:pharmacy,wheelchair:yes","lat":-20.8547676,"lng":-41.1182552}]