[{"id":"2683804238","name":"D'Angelis","tags":"amenity:restaurant","lat":-20.8434887,"lng":-40.7338138},{"id":"3804175689","tags":"amenity:restaurant","lat":-20.8423549,"lng":-40.7300844},{"id":"3804175690","name":"Piúma Palace","tags":"amenity:restaurant,cuisine:seafood;barbecue;fish","lat":-20.8421092,"lng":-40.7294568},{"id":"4353372682","name":"Polícia Militar","tags":"addr:city:Piúma,addr:postcode:29285000,addr:street:Avenida Beira Mar,amenity:police","lat":-20.8418043,"lng":-40.7288433},{"id":"5253488822","name":"Restaurante Onda de Peixe","tags":"amenity:restaurant,cuisine:fish;barbecue;brazilian","lat":-20.841669,"lng":-40.7265872}]