[{"id":"4024904454","name":"EEEF Itaoca","tags":"IJSN:administra:Estadual,IJSN:classeCnae:Fundamental,addr:city:Itapemirim,addr:postcode:29330-000,addr:street:Avenida Itapemirim,addr:suburb:Itaoca,alt_name:Escola Estadual de Ensino Fundamental,amenity:school,contact:phone:(28) 3529-1003","lat":-20.9030305,"lng":-40.7792415},{"id":"6035358781","name":"Pedras da Praia de Itaoca","tags":"description:As Pedras de Itaoca são um ponto turístico visitado por milhares de pessoas anualmente.,leisure:park,tourism:attraction","lat":-20.9047449,"lng":-40.7766622},{"id":"6035419492","name":"Praça da Praia","tags":"addr:city:Itapemirim,addr:postcode:29330-000,addr:street:Avenida Beira-Mar,addr:suburb:Itaoca,backrest:yes,description:A Praça da Praia de Itaoca é um local da orla que possui alguns bancos sombreados para descanso e lazer, contando também com coqueiros e conectada a ciclovia e calçadão da orla.,leisure:park","lat":-20.9033871,"lng":-40.7774877},{"id":"6083821380","name":"Jardim da Igreja São Sebastião","tags":"addr:city:Itapemirim,addr:postcode:29330-000,addr:street:Avenida Itapemirim,addr:suburb:Itaoca,description:Em frente a Igreja São Sebastião encontra-se um jardim arborizado e florido com a presença de bancos. É um local movimentado após a realização da missa.,leisure:park","lat":-20.9043235,"lng":-40.7800479},{"id":"6083837490","name":"Restaurante Tropeiro Mineiro","tags":"addr:city:Itapemirim,addr:postcode:29330-000,addr:street:Avenida Beira-Mar,addr:suburb:Itaoca,amenity:restaurant,cuisine:regional,smoking:outside","lat":-20.9042356,"lng":-40.777577}]