[{"id":"6074665868","name":"Praça do Bairro Bela Vista","tags":"addr:city:Itapemirim,addr:postcode:29330-000,addr:street:Rua Maria dos Santos,description:Praça revitalizada, com local para prática de esportes e brinquedos para diversão e lazer das crianças. Além disso, também conta com diversos assentos e locais sombreados para descanso.,leisure:park","lat":-20.8864992,"lng":-40.770825},{"id":"6083893920","name":"1ª Igreja Batista em Itaipava","tags":"addr:city:Itapemirim,addr:postcode:29330-000,addr:street:Avenida Itapemirim,addr:suburb:Itaipava,amenity:place_of_worship,building:church,denomination:baptist,religion:christian","lat":-20.8894149,"lng":-40.7744841},{"id":"6083893926","name":"Praça de Antônio Bianchi","tags":"addr:city:Itapemirim,addr:postcode:29330-000,addr:street:Rua Timóteo,addr:suburb:Itaipava,description:Principal ponto de encontro de Itaipava. Recentemente reformada, conta com diversos locais para alimentação e lazer, com muitos assentos e um parquinho com brinquedos para as crianças.,leisure:park","lat":-20.8885441,"lng":-40.7748208},{"id":"9349522739","name":"Sicoob","tags":"addr:city:Itapemirim,addr:postcode:29338-000,addr:street:Avenida Itapemirim,addr:suburb:Itaipava,amenity:bank,atm:yes,brand:Sicoob Sul Litorâneo,drive_through:no,phone:+552835291139","lat":-20.8897254,"lng":-40.7744303},{"id":"9349522743","name":"Caixa","tags":"addr:city:Itapemirim,addr:postcode:29338-000,addr:street:Avenida Itapemirim,addr:suburb:Itaipava,amenity:bank,atm:yes,brand:Caixa Econômica Federal,drive_through:no","lat":-20.8896512,"lng":-40.7744182}]