[{"id":"3358897218","tags":"amenity:place_of_worship,building:church,religion:christian","lat":-20.6483539,"lng":-40.5006102},{"id":"3358897219","name":"Farmácia Opção","tags":"amenity:pharmacy","lat":-20.6471455,"lng":-40.4996415},{"id":"3358897262","name":"Mercado Oliveira","tags":"shop:convenience","lat":-20.6473982,"lng":-40.4997141},{"id":"3358897264","name":"Mercado Pai & Filho","tags":"shop:convenience","lat":-20.6475555,"lng":-40.4996594},{"id":"3358899670","name":"Mercado Malini","tags":"shop:convenience","lat":-20.6469583,"lng":-40.4994443},{"id":"3358902383","name":"Mercearia do Beto","tags":"shop:convenience","lat":-20.6460127,"lng":-40.4991831},{"id":"5667560861","name":"Igreja Adventista do Sétimo Dia Adalberto Simão Nader","tags":"amenity:place_of_worship,building:church,denomination:seventh_day_adventist,religion:christian,service_times:We,Su 19:30-20:30; Sa 08:45-11:30","lat":-20.6481143,"lng":-40.4992452}]