[{"id":"1483908625","name":"Le Cave","tags":"amenity:restaurant,cuisine:italian;pizza","lat":-20.6520423,"lng":-40.4859819},{"id":"1483908755","name":"Buffalo Grill","tags":"addr:city:Guarapari,addr:country:BR,addr:state:ES,addr:street:Avenida Praiana,amenity:restaurant,cuisine:regional","lat":-20.6519896,"lng":-40.486194},{"id":"4459484013","name":"Farmácia Beira Mar","tags":"amenity:pharmacy,contact:phone:3362-4249","lat":-20.654092,"lng":-40.4875365},{"id":"4497223493","name":"Empório Bacutia Pizzaria e Lanchonete","tags":"amenity:restaurant","lat":-20.6524497,"lng":-40.4853176},{"id":"4497223494","name":"Mercado Guarapraia","tags":"shop:convenience","lat":-20.6524134,"lng":-40.4856415},{"id":"4536306784","name":"Farmácia Santo Antônio","tags":"amenity:pharmacy,contact:phone:3361-3319,operator:Anasol","lat":-20.6519996,"lng":-40.4858718},{"id":"9419585971","name":"Sicoob","tags":"addr:city:Guarapari,addr:housenumber:3610,addr:street:Avenida Padre José de Anchieta,addr:suburb:Aeroporto,amenity:bank,atm:yes,operator:Sicoob Sul-litorâneo","lat":-20.6502772,"lng":-40.4937055}]