[{"id":"4418254597","name":"Aconchego da Barra Butecaria","tags":"addr:city:Vila Velha,addr:housenumber:337,addr:street:Rua Antônio Souza Leão,addr:suburb:Barra do Jucu,amenity:bar,contact:instagram:aconchegodabarra_butecaria,contact:mobile:+55 27 999223132,opening_hours:Tu-Su 16:00-03:00,outdoor_seating:yes,smoking:outside","lat":-20.4234632,"lng":-40.3261931},{"id":"5937090285","tags":"amenity:pharmacy,healthcare:pharmacy","lat":-20.4229514,"lng":-40.3263072},{"id":"5937090286","tags":"amenity:pharmacy","lat":-20.4231374,"lng":-40.3264075},{"id":"5937090485","tags":"amenity:pharmacy","lat":-20.4232492,"lng":-40.3263618},{"id":"9487408205","name":"Vilarejo Pet Store","tags":"contact:instagram:vilarejo.petstore,contact:mobile:+55 27 995014662,contact:phone:+55 27 35347945,shop:pet","lat":-20.4233141,"lng":-40.3263339},{"id":"9487408207","name":"Osteria Della Rosa","tags":"amenity:restaurant,contact:instagram:osteria.dellarosa,contact:mobile:+55 27 992818954,cuisine:italian,delivery:yes,opening_hours:We-Su 11:00-22:00","lat":-20.4235215,"lng":-40.3263983}]