[{"id":"3353357550","name":"CE Gauss","tags":"IJSN:administra:Privada,IJSN:classeCnae:Fundamental e Médio,addr:city:Vila Velha,addr:country:BR,addr:housenumber:1374,addr:place:Soteco,addr:postcode:29106-010,addr:state:ES,addr:street:Avenida Ministro Salgado Filho,alt_name:Centro Educacional,amenity:school,contact:phone:+55 27 3319-0927","lat":-20.3513519,"lng":-40.3076033},{"id":"3353357576","name":"Colégio Santa Catarina","tags":"IJSN:administra:Privada,IJSN:classeCnae:Fundamental,addr:city:Vila Velha,addr:country:BR,addr:housenumber:139,addr:place:Santa Inês,addr:postcode:29106-240,addr:state:ES,addr:street:Rua Olegário Mariano,amenity:school,contact:phone:+55 27 3339-5799;+55 27 3320-5900;3340-4103","lat":-20.3519611,"lng":-40.3084622},{"id":"3353357583","name":"EEEF Desembargador Cândido Marinho","tags":"IJSN:administra:Estadual,IJSN:classeCnae:Fundamental,addr:city:Vila Velha,addr:country:BR,addr:place:Soteco,addr:postcode:29106-010,addr:state:ES,addr:street:Avenida Ministro Salgado Filho,alt_name:Escola Estadual de Ensino Fundamental,amenity:school,contact:phone:+55 27 3339-5519;+55 27 3339-3601,operator:SEDU","lat":-20.3487406,"lng":-40.3072528},{"id":"3353361405","name":"EPG Meu Pequeno Mundo","tags":"IJSN:administra:Privada,IJSN:classeCnae:Fundamental,addr:city:Vila Velha,addr:country:BR,addr:housenumber:225,addr:place:Soteco,addr:postcode:29106-100,addr:state:ES,addr:street:Rua Alberto de Oliveira,alt_name:Escola de Primeiro Grau,amenity:school,contact:phone:+55 27 3340-5582","lat":-20.3508299,"lng":-40.3048132},{"id":"3353361422","name":"Ponto Educacional","tags":"IJSN:administra:Privada,IJSN:classeCnae:Médio,addr:city:Vila Velha,addr:country:BR,addr:housenumber:139,addr:place:Santa Inês,addr:postcode:29106-240,addr:state:ES,addr:street:Rua Olegário Mariano,amenity:school,contact:phone:+55 27 3339-5799;+55 27 3320-5900;3340-4103","lat":-20.3519083,"lng":-40.3084022},{"id":"3882246012","name":"Carrefour Vila Velha","tags":"addr:city:Vila Velha,addr:country:BR,addr:housename:Shopping Vila Velha,addr:place:Shopping Vila Velha,addr:state:ES,addr:suburb:Divino Espirito Santo,level:1,opening_hours:Mo-Sa 08:00-23:00,shop:supermarket","lat":-20.3509115,"lng":-40.2985566},{"id":"3882246018","name":"Saraiva","tags":"addr:city:Vila Velha,addr:country:BR,addr:housename:Shopping Vila Velha,addr:place:Shopping Vila Velha,addr:state:ES,addr:suburb:Divino Espirito Santo,level:2,opening_hours:Mo-Sa 10:00-22:00; Su 15:00-21:00,shop:books","lat":-20.351118,"lng":-40.2987804},{"id":"3882246026","name":"Promessas","tags":"addr:city:Vila Velha,addr:country:BR,addr:housename:Shopping Vila Velha,addr:place:Shopping Vila Velha,addr:state:ES,addr:suburb:Divino Espirito Santo,level:2,opening_hours:Mo-Sa 10:00-22:00; Su 15:00-21:00,shop:books","lat":-20.3512319,"lng":-40.298921},{"id":"4425334098","name":"Bifão Steakhouse","tags":"addr:city:Vila Velha,addr:country:BR,addr:housename:Shopping Vila Velha,addr:place:Shopping Vila Velha,addr:state:ES,addr:suburb:Divino Espirito Santo,amenity:restaurant,level:2,opening_hours:Mo-We 10:00-22:00; Th-Sa 11:00-23:00; Su 11:00-22:00","lat":-20.3518186,"lng":-40.2978853},{"id":"4425334118","name":"Dona Conceição","tags":"addr:city:Vila Velha,addr:country:BR,addr:housename:Shopping Vila Velha,addr:place:Shopping Vila Velha,addr:state:ES,addr:suburb:Divino Espirito Santo,amenity:restaurant,cuisine:regional,level:2,opening_hours:Mo-We 10:00-22:00; Th-Sa 11:00-23:00; Su 11:00-22:00","lat":-20.3517493,"lng":-40.2979324},{"id":"4425334143","name":"Morana","tags":"addr:city:Vila Velha,addr:country:BR,addr:housename:Shopping Vila Velha,addr:place:Shopping Vila Velha,addr:state:ES,addr:suburb:Divino Espirito Santo,level:2,opening_hours:Mo-Sa 10:00-22:00; Su 15:00-21:00,shop:beauty","lat":-20.3517681,"lng":-40.2985868},{"id":"4425334161","name":"Viva Leve","tags":"addr:city:Vila Velha,addr:country:BR,addr:housename:Shopping Vila Velha,addr:place:Shopping Vila Velha,addr:state:ES,addr:suburb:Divino Espirito Santo,amenity:restaurant,diet:vegetarian:yes,level:2,opening_hours:Mo-We 10:00-22:00; Th-Sa 11:00-23:00; Su 11:00-22:00","lat":-20.3517155,"lng":-40.2978575},{"id":"4427064221","name":"Banco Daycoval","tags":"addr:city:Vila Velha,addr:country:BR,addr:housename:Shopping Vila Velha,addr:place:Shopping Vila Velha,addr:state:ES,addr:suburb:Divino Espirito Santo,amenity:bank,level:0","lat":-20.3509164,"lng":-40.2981009},{"id":"4427064225","name":"Beleza Natural","tags":"addr:city:Vila Velha,addr:country:BR,addr:housename:Shopping Vila Velha,addr:place:Shopping Vila Velha,addr:state:ES,addr:suburb:Divino Espirito Santo,level:1,opening_hours:Mo-Sa 10:00-22:00; Su 15:00-21:00,shop:beauty","lat":-20.3511395,"lng":-40.2983777},{"id":"4427064240","name":"Drogaria Carrefour","tags":"addr:city:Vila Velha,addr:country:BR,addr:housename:Shopping Vila Velha,addr:place:Shopping Vila Velha,addr:state:ES,addr:suburb:Divino Espirito Santo,amenity:pharmacy,level:1","lat":-20.3510353,"lng":-40.2983986},{"id":"4427064241","name":"Drogasil","tags":"addr:city:Vila Velha,addr:country:BR,addr:housename:Shopping Vila Velha,addr:place:Shopping Vila Velha,addr:state:ES,addr:suburb:Divino Espirito Santo,amenity:pharmacy,level:1","lat":-20.3521067,"lng":-40.2983756}]