[{"id":"2415416377","name":"Spaghetti & Cia","tags":"amenity:restaurant,cuisine:italian","lat":-20.3119056,"lng":-40.3024439},{"id":"4990306591","name":"Banestes","tags":"addr:city:Vitória,addr:postcode:29050705,addr:street:Rua Padre Antônio Ribeiro,amenity:bank,drive_through:no,opening_hours:Mo-Fr 10:00-16:00","lat":-20.311938,"lng":-40.3020518},{"id":"5058893220","name":"Praça Romário Gouvêia de Oliveira","tags":"addr:street:Escadaria Manoel Pereira,description:A praça é uma boa opção de lazer para os moradores e turistas, o local oferece quadra poliesportiva e é rodeada de comércios como bares e lanchonetes, o que contribui para a comodidade dos usuários.,image:http://backend-mapabem.rhcloud.com/static/media/None/31bb347740dc439db314d75dffcaf17e.jpg,leisure:sports_centre,sport:multi,surface:concrete","lat":-20.3084044,"lng":-40.3060737},{"id":"6545777004","name":"Caixa Econômica Federal","tags":"addr:city:Vitória,addr:housenumber:900,addr:street:Avenida César Hilal,addr:suburb:Bento Ferreira,air_conditioning:yes,amenity:bank,atm:yes,brand:Caixa Econômica Federal,brand:wikidata:Q835283,brand:wikipedia:pt:Caixa Econômica Federal,currency:BRL:yes,drive_through:no,opening_hours:Mo-Fr 10:00-16:00,wheelchair:yes","lat":-20.3116266,"lng":-40.3028917},{"id":"7060279186","tags":"amenity:atm,check_date:2022-05-04,operator:Banestes","lat":-20.3117647,"lng":-40.300979},{"id":"7066395502","name":"Universidade de Vila Velha - Polo Vitória","tags":"addr:city:Vitória,addr:housenumber:91,addr:postcode:29050-685,addr:street:Rua Doutor Bolívar de Abreu,addr:suburb:Bento Ferreira,amenity:university,phone:+55 27 3311-2341,website:https://uvv.br/ead/vitoria/","lat":-20.3111461,"lng":-40.3057759}]