[{"id":"3353357564","name":"CEAE Centro de Ensino Albert Eistein","tags":"IJSN:administra:Privada,IJSN:classeCnae:Fundamental e Médio,addr:housenumber:1181,addr:postcode:29102-000,addr:street:Avenida Saturnino Rangel Mauro,alt_name:Centro de Ensino Albert Eistein,amenity:school,contact:phone:+55 27 3289 1830","lat":-20.3728735,"lng":-40.306049},{"id":"3353361420","name":"NEP Núcleo Educacional Piaget","tags":"IJSN:administra:Privada,IJSN:classeCnae:Fundamental e Médio,addr:country:BR,addr:housenumber:670,addr:postcode:29105-200,addr:street:Avenida João Mendes,alt_name:Núcleo Educacional Piaget,amenity:school,contact:phone:+55 27 3339-2705,short_name:NEP","lat":-20.3727535,"lng":-40.3088109},{"id":"3855155861","name":"Top Gym","tags":"addr:city:Vila Velha,addr:housenumber:212,addr:street:Avenida Santa Leopoldina,addr:suburb:Coqueiral de Itaparica,contact:instagram:topgymitaparica,contact:mobile:+55 27 996872538,contact:phone:+55 27 3062 8018,leisure:fitness_centre,level:2","lat":-20.3698587,"lng":-40.3055632},{"id":"4814299621","name":"Pizzaria Roberta","tags":"addr:city:Vila Velha,addr:postcode:29102-041,addr:street:Avenida Santa Leopoldina,addr:suburb:Coqueiral de Itaparica,amenity:restaurant,contact:instagram:pizzariaroberta,contact:mobile:+55 27 997515739,contact:phone:+55 27 3339 2461,cuisine:pizza,delivery:yes,outdoor_seating:yes,phone:+55 27 3339-2461,takeaway:yes","lat":-20.3699147,"lng":-40.3055891},{"id":"9500689269","name":"Rede Inova Drogarias","tags":"amenity:pharmacy","lat":-20.3689201,"lng":-40.3050238},{"id":"9514402135","name":"SPA Gisele Valliengo","tags":"contact:instagram:giselevalliengospa,contact:mobile:+55 27 997215454,shop:beauty","lat":-20.3706953,"lng":-40.3048226},{"id":"9514402136","name":"Karoliny Lima Beauty & Academy","tags":"contact:mobile:+55 27 997822585,shop:beauty","lat":-20.370767,"lng":-40.3048655},{"id":"9514402157","name":"Vini Tennis","tags":"contact:email:contato@vinitennis.com.br,contact:facebook:vinitennis,contact:instagram:vini_tennis,contact:mobile:+55 27 988053808,contact:phone:+55 27 3082 1653,contact:website:https://www.vinitennis.com.br/,leisure:fitness_centre,sport:tennis","lat":-20.3716867,"lng":-40.304546},{"id":"9524477950","name":"Kokai Sushi Itaparica","tags":"amenity:restaurant,contact:instagram:kokaisushiitaparica,contact:mobile:+55 27 998276040,cuisine:sushi,delivery:yes","lat":-20.3734914,"lng":-40.3078529},{"id":"9530029751","name":"Cross Hero Vila Velha","tags":"contact:instagram:crossherovilavelha,contact:mobile:+55 27 992750282,leisure:fitness_centre","lat":-20.3696141,"lng":-40.3053953},{"id":"9530029759","name":"Smart Fit","tags":"contact:instagram:smart.itaparica,contact:website:https://www.smartfit.com.br/academias/praia-de-itaparica,leisure:fitness_centre","lat":-20.3691628,"lng":-40.3043103}]