[{"id":"1943704906","name":"Twins","tags":"amenity:bar","lat":-20.3010379,"lng":-40.2951391},{"id":"1943704911","name":"Salsa Pizza","tags":"amenity:restaurant,cuisine:italian","lat":-20.300721,"lng":-40.2953322},{"id":"3639871387","tags":"amenity:bank,atm:yes,brand:Banco do Brasil","lat":-20.297574,"lng":-40.2954587},{"id":"6718921509","name":"Café Pepi","tags":"amenity:restaurant","lat":-20.3005915,"lng":-40.2955797},{"id":"6732713489","name":"Caixa Econômica Federal","tags":"amenity:bank","lat":-20.2988185,"lng":-40.294106},{"id":"9542951317","name":"Casa Graviola","tags":"amenity:restaurant","lat":-20.3007285,"lng":-40.2958328},{"id":"9554036617","name":"O Quintal Parrilha Bar","tags":"amenity:restaurant","lat":-20.297565,"lng":-40.294},{"id":"9554040317","name":"Major Forest","tags":"amenity:restaurant","lat":-20.298702,"lng":-40.2948133},{"id":"9607673517","name":"Bistrô Joaquim","tags":"amenity:restaurant","lat":-20.3008419,"lng":-40.2957495},{"id":"9609442917","name":"Wine Garden","tags":"amenity:restaurant","lat":-20.2993789,"lng":-40.2936465}]