[{"id":"1943704912","tags":"amenity:bank,atm:yes,brand:Santander","lat":-20.2984343,"lng":-40.3000314},{"id":"3551779744","name":"Banco Bem","tags":"addr:city:Vitória,addr:housenumber:93,addr:postcode:29047850,addr:street:Rua Carnaval,addr:suburb:São Benedito,amenity:bank,atm:no,operator:Ateliê de Ideias,phone:+55 27 3227 7235,website:http://www.ateliedeideias.org.br/","lat":-20.3012178,"lng":-40.3064952},{"id":"3658146815","tags":"amenity:bank,atm:yes,brand:Bradesco","lat":-20.301441,"lng":-40.2982218},{"id":"4762895964","name":"Restaurante Mundial","tags":"addr:housenumber:296,addr:street:Rua Vitor Finamore,addr:suburb:São Benedito,amenity:restaurant,description:O Restaurante e Lanchonete Mundial oferece a seus clientes deliciosas opções de saladas e pratos à sua escolha em seu self-service e também em marmitex. Aceita encomendas para pratos e salgados diversos, sendo o empadão o mais famoso!,image:http://backend-mapabem.rhcloud.com/static/media/None/96013a32fc3b4189b88468625b265a1a.jpg,phone:055 027 99739-5894","lat":-20.3012587,"lng":-40.305394},{"id":"4768226830","name":"EMEF Otto Ewald Junior","tags":"addr:housenumber:302,addr:street:Rua Daniel Abreu Machado,addr:suburb:Itararé,amenity:school,description:Escola Municipal de Ensino Fundamental,image:http://backend-mapabem.rhcloud.com/static/media/None/49b4f9ea0c2a4bcba10f253b9f04d72d.png","lat":-20.2989717,"lng":-40.3064654},{"id":"7626233035","name":"EPA","tags":"shop:supermarket","lat":-20.3027106,"lng":-40.2986187}]