[{"id":"1151667625","name":"Star Cerimonial","tags":"amenity:bar","lat":-20.3334852,"lng":-40.3610576},{"id":"2409017474","name":"Correios Jardim América","tags":"amenity:post_office","lat":-20.3333496,"lng":-40.363212},{"id":"2409033260","name":"Farmácia Guarujá","tags":"amenity:pharmacy","lat":-20.3324957,"lng":-40.3635344},{"id":"2409038633","name":"Farmácia Lydia","tags":"amenity:pharmacy","lat":-20.3325548,"lng":-40.3632629},{"id":"2409038678","name":"Restaurante Bom Apetite","tags":"amenity:restaurant","lat":-20.3326793,"lng":-40.3627539},{"id":"3743499981","name":"Delegacia de Crimes Contra a Vida - Cariacica","tags":"addr:city:Cariacica,addr:housenumber:Km 0,addr:place:Jardim América,addr:postcode:29140-261,addr:street:Rodovia 262 - lado impar,amenity:police,contact:phone:+55 27 3382-5992,short_name:DCCV","lat":-20.3306985,"lng":-40.3562493},{"id":"3743500008","name":"Delegacia de Proteção ao Meio Ambiente e Patrimônio","tags":"addr:city:Cariacica,addr:housenumber:Km 0,addr:place:Jardim América,addr:postcode:29140-261,addr:street:Rodovia 262 - lado impar,amenity:police,contact:phone:+55 27 3236-8136,short_name:DPMAP","lat":-20.3307498,"lng":-40.3562265},{"id":"4391553292","tags":"addr:street:Rua Humaitá,amenity:school","lat":-20.3304431,"lng":-40.3622112},{"id":"8830648534","name":"Cariacica","tags":"tourism:attraction","lat":-20.3319369,"lng":-40.3548572}]