[{"id":"3178822384","name":"Rede Show","tags":"addr:city:Serra,addr:country:BR,addr:housenumber:44,addr:state:ES,addr:street:Avenida Todos os Santos,addr:suburb:das laranjeiras,opening_hours:08:00-20:00,shop:supermarket","lat":-20.1291504,"lng":-40.1923107},{"id":"3410443874","tags":"shop:supermarket","lat":-20.1311242,"lng":-40.1896352},{"id":"3414496694","name":"Igreja Pentecostal Remanescentes da Fé","tags":"addr:city:Serra,addr:country:BR,addr:housenumber:552,addr:state:ES,addr:street:Rua São Paulo,amenity:place_of_worship,building:church,denomination:pentecostal,religion:christian","lat":-20.1305979,"lng":-40.1906908},{"id":"3859868259","tags":"amenity:pharmacy","lat":-20.1284295,"lng":-40.1920897},{"id":"5595044933","tags":"shop:beauty","lat":-20.1287346,"lng":-40.1922217},{"id":"5595044934","tags":"addr:city:Serra,addr:street:Avenida Todos os Santos,addr:suburb:bairro das laranjeiras,amenity:pharmacy,dispensing:yes,healthcare:pharmacy","lat":-20.1291932,"lng":-40.1925597}]