[{"id":"2757556735","name":"Bar São Benedito","tags":"amenity:bar","lat":-19.4437765,"lng":-44.2445875},{"id":"2757557163","name":"Bar do Jacaré","tags":"amenity:bar","lat":-19.4436159,"lng":-44.244558},{"id":"2757559508","name":"Shop Dog & Cia","tags":"shop:pet","lat":-19.4432757,"lng":-44.2445044},{"id":"2789614394","name":"Pexim","tags":"addr:city:Sete Lagoas,addr:housenumber:206,addr:street:Praça Clarindo Cassimiro Silva,amenity:bar","lat":-19.4452991,"lng":-44.2518091},{"id":"6821250243","name":"Pizzaria Millenium","tags":"addr:city:Sete Lagoas,addr:street:Praça Clarindo Cassimiro Silva,amenity:restaurant,cuisine:pizza","lat":-19.4457097,"lng":-44.2509215},{"id":"6821250244","name":"Speteria","tags":"addr:city:Sete Lagoas,addr:street:Praça Clarindo Cassimiro Silva,amenity:restaurant","lat":-19.4454089,"lng":-44.2518717}]