[{"id":"2789601802","name":"Praça Alexandre Lanza","tags":"leisure:park","lat":-19.4650596,"lng":-44.2483175},{"id":"2789619956","name":"Banco Itaú","tags":"amenity:bank","lat":-19.4631746,"lng":-44.2436618},{"id":"2789621461","name":"Escola Estadual Professor Maurilo de Jesus Peixoto","tags":"amenity:school,loc_name:Colégio Estadual,operator:Secretaria de Estado de Educação de Minas Gerais","lat":-19.4626537,"lng":-44.243399},{"id":"2789630310","name":"Museu Histórico Municipal","tags":"tourism:museum","lat":-19.4673568,"lng":-44.2471731},{"id":"2789639769","name":"Drogaria Araújo","tags":"amenity:pharmacy","lat":-19.4651759,"lng":-44.2480566},{"id":"2789677277","name":"Escola Estadual Doutor Ulisses Vasconcelos","tags":"amenity:school,operator:Secretaria de Estado de Educação de Minas Gerais","lat":-19.4631714,"lng":-44.2459799},{"id":"2789677893","name":"Colégio Dom Silvério","tags":"amenity:school","lat":-19.4627554,"lng":-44.2462803},{"id":"2797582769","name":"Sacolão Popular","tags":"shop:supermarket","lat":-19.4629395,"lng":-44.24248},{"id":"2803900906","name":"Santander","tags":"amenity:bank","lat":-19.4632814,"lng":-44.2439011},{"id":"2803900907","name":"Banco Bradesco","tags":"amenity:bank","lat":-19.4634142,"lng":-44.2438059},{"id":"2803900908","name":"Sacolão Abastecer","tags":"shop:supermarket","lat":-19.4631385,"lng":-44.2440459},{"id":"2806205407","name":"Quiosque Polícia Militar","tags":"amenity:police","lat":-19.4649306,"lng":-44.2483685},{"id":"2806205410","name":"Caixa Econômica Federal","tags":"amenity:bank","lat":-19.4647909,"lng":-44.2495333},{"id":"2830455757","name":"SICOOB - Credisete","tags":"addr:city:Sete Lagoas,addr:housenumber:94 LJ 1,addr:street:Praça Alexandre Lanza,amenity:bank","lat":-19.4650746,"lng":-44.2485334},{"id":"2830455758","name":"SICOOB - Credisete","tags":"addr:city:Sete Lagoas,addr:housenumber:170,addr:street:Praça Barão do Rio Branco,amenity:bank,atm:yes","lat":-19.4642881,"lng":-44.2450854},{"id":"2866669788","name":"Restaurante Paiol Mineiro","tags":"addr:city:Sete Lagoas,addr:housenumber:152,addr:street:Rua Paulo Frontin,amenity:restaurant","lat":-19.4632249,"lng":-44.2482204},{"id":"2866700130","name":"Restaurante Vida Saudável","tags":"addr:city:Sete Lagoas,addr:housenumber:41,addr:street:Rua Coronel Emílio Vasconcelos,amenity:restaurant","lat":-19.4665024,"lng":-44.2488909},{"id":"2873390008","name":"Galeto do Ceará","tags":"addr:housenumber:185,addr:street:Avenida Raquel Teixeira Viana,amenity:restaurant","lat":-19.4641914,"lng":-44.2516064},{"id":"2894388102","name":"Drogaria Fonseca","tags":"amenity:pharmacy","lat":-19.4643271,"lng":-44.2477409},{"id":"2894388103","name":"Farmácia Pague Menos","tags":"amenity:pharmacy","lat":-19.4644144,"lng":-44.2475424},{"id":"2894388104","name":"Farmácia do Trabalhador do Brasil","tags":"amenity:pharmacy","lat":-19.464147,"lng":-44.2470503},{"id":"2900132271","name":"Drogaria do Ponto","tags":"addr:housenumber:279,addr:street:Rua Professor Fernandino Júnior,amenity:pharmacy","lat":-19.4629648,"lng":-44.2431104},{"id":"2900132491","name":"Drogaria Ultra Popular","tags":"addr:street:Rua Monsenhor Messias,amenity:pharmacy","lat":-19.4634415,"lng":-44.2466617},{"id":"2905757969","name":"DrogaReis","tags":"addr:housenumber:70,addr:street:Rua Coronel Américo Teixeira Guimarães,amenity:pharmacy","lat":-19.4664422,"lng":-44.2433398},{"id":"2905757970","name":"Frigideira Restaurante","tags":"addr:city:Sete Lagoas,addr:housenumber:96,addr:street:Praca Martiniano Carvalho,amenity:restaurant","lat":-19.4654091,"lng":-44.2524285},{"id":"2916274178","name":"Colégio Franciscano Regina Pacis","tags":"addr:city:Sete Lagoas,addr:housenumber:34,addr:street:Praça Tiradentes,amenity:school","lat":-19.4665029,"lng":-44.2480239},{"id":"2925016594","name":"Farmagel","tags":"addr:city:Sete Lagoas,addr:housenumber:112,addr:street:Rua Major Campos,amenity:pharmacy","lat":-19.4626461,"lng":-44.2430178},{"id":"2927561105","name":"BooKafé","tags":"addr:city:Sete Lagoas,addr:housenumber:183,addr:street:Rua Souza Viana,amenity:cafe","lat":-19.464184,"lng":-44.2426508},{"id":"3368546893","name":"Restaurante Sabor","tags":"addr:city:Sete Lagoas,addr:housenumber:33,addr:street:Rua Melo Viana,addr:suburb:Centro,amenity:restaurant","lat":-19.4630174,"lng":-44.245524}]