[{"id":"2968743172","name":"Restaurante do Daniel","tags":"amenity:restaurant,cuisine:fish_and_chips","lat":-19.2307016,"lng":-42.3277787},{"id":"5685362111","name":"Calçadão 21 de Dezembro","tags":"leisure:park","lat":-19.2261132,"lng":-42.3290367},{"id":"5685409678","name":"Pração Santo Antônio","tags":"leisure:park","lat":-19.229353,"lng":-42.3273119},{"id":"5685409680","name":"Escola E D. H. M. Hugo","tags":"amenity:school","lat":-19.2282795,"lng":-42.327774},{"id":"5687511553","name":"Rest. Beira Rio","tags":"amenity:restaurant","lat":-19.2306457,"lng":-42.326804},{"id":"5687511555","name":"Correios","tags":"amenity:post_office","lat":-19.2263924,"lng":-42.3298643},{"id":"5687566965","name":"Cemitério Santo Antônio","tags":"amenity:grave_yard","lat":-19.2280368,"lng":-42.3250914}]