[{"id":"5007349638","tags":"amenity:school","lat":-18.6700648,"lng":-43.0818232},{"id":"6012616712","tags":"shop:supermarket","lat":-18.6687349,"lng":-43.0783573},{"id":"7804666517","name":"Bradesco","tags":"amenity:bank,brand:Bradesco,brand:wikidata:Q806181,brand:wikipedia:en:Banco Bradesco","lat":-18.6671758,"lng":-43.0811377},{"id":"10069651354","name":"Banco do Brasil","tags":"addr:city:Sabinópolis,addr:housenumber:79,addr:postcode:39750-000,addr:street:Rua Alencar José Pimenta,addr:suburb:Centro,amenity:bank,atm:yes,brand:Banco do Brasil,brand:wikidata:Q610817","lat":-18.6664729,"lng":-43.0830077},{"id":"10069718706","name":"Sicoob","tags":"addr:city:Sabinópolis,addr:housenumber:49,addr:postcode:39750-000,addr:street:Praça Monsenhor Amantino,addr:suburb:Centro,amenity:bank,atm:yes,email:sicoobcredicenm@sicoobcredicenm.coop.br,operator:Cooperativa de Credito de Livre Admissao do Centro Nordeste Mineiro Limitada","lat":-18.6660463,"lng":-43.0838614},{"id":"10072689624","name":"Agência dos Correios de Sabinópolis","tags":"addr:city:Sabinópolis,addr:housenumber:55,addr:postcode:39750-000,addr:street:Rua Alencar José Pimenta,addr:suburb:Centro,amenity:post_office,operator:Correios,operator:wikidata:Q3375004","lat":-18.6663341,"lng":-43.082927},{"id":"10072689625","tags":"addr:city:Sabinópolis,addr:postcode:39750-000,addr:street:Rua Terezinha Generoso,addr:suburb:Centro,shop:supermarket","lat":-18.6688473,"lng":-43.083993},{"id":"10075189139","name":"Via Real Supermercados","tags":"addr:city:Sabinópolis,addr:housenumber:60,addr:postcode:39750-000,addr:street:Rua Euxenita,addr:suburb:Centro,operator:Supermercado Irmãos Pinho Limitada,shop:supermarket","lat":-18.666597,"lng":-43.0820206},{"id":"10075189140","name":"Hiper Pinho","tags":"addr:city:Sabinópolis,addr:postcode:39750-000,addr:street:Rua Balbino Cândido Araújo,addr:suburb:Centro,shop:supermarket","lat":-18.6676562,"lng":-43.0824922},{"id":"10075189143","name":"Supermercado Paladar","tags":"addr:city:Sabinópolis,addr:housenumber:146,addr:postcode:39750-000,addr:street:Rua Morel Maria de Pinho,addr:suburb:Centro,operator:Supermercado Paladar Limitada,phone:+55,shop:supermarket","lat":-18.6660241,"lng":-43.082314},{"id":"10075189144","name":"Drogaria Almeida Barroso","tags":"addr:city:Sabinópolis,addr:housenumber:91,addr:postcode:39750-000,addr:street:Rua Balbino Cândido Araújo,addr:suburb:Centro,amenity:pharmacy,dispensing:yes,healthcare:pharmacy,operator:Farmácia Barroso Limitada","lat":-18.6671213,"lng":-43.0830869},{"id":"10075189146","name":"Drogaria Sabinópolis","tags":"addr:city:Sabinópolis,addr:housenumber:141,addr:postcode:39750-000,addr:street:Rua Alencar José Pimenta,addr:suburb:Centro,amenity:pharmacy,dispensing:yes,healthcare:pharmacy,operator:Drogaria N & A Limitada","lat":-18.6670011,"lng":-43.0832866},{"id":"10075189147","name":"Drogaria Azevedo","tags":"addr:city:Sabinópolis,addr:housenumber:51,addr:postcode:39750-000,addr:street:Rua Alencar José Pimenta,addr:suburb:Centro,amenity:pharmacy,dispensing:yes,healthcare:pharmacy,operator:Drogaria Azevedo Sabinopolis LTDA","lat":-18.6662247,"lng":-43.0828645},{"id":"10075189148","name":"Drogaria Fernandes Guerra","tags":"addr:city:Sabinópolis,addr:housenumber:145,addr:postcode:39750-000,addr:street:Rua Morel Maria de Pinho,addr:suburb:Centro,amenity:pharmacy,dispensing:yes,healthcare:pharmacy","lat":-18.6659389,"lng":-43.0823013}]