[{"id":"992966690","tags":"amenity:place_of_worship,building:church,denomination:roman_catholic,religion:christian","lat":-18.3647088,"lng":-42.6030086},{"id":"5931170834","name":"Escola Estadual João Pinheiro","tags":"amenity:school","lat":-18.3646982,"lng":-42.6019461},{"id":"10130356162","name":"Centro Municipal de Educação Infantil Dona Mariquita Leão","tags":"addr:city:São Pedro do Suaçuí,addr:postcode:39784-000,addr:street:Rua Dezoito,addr:suburb:Humaitá,amenity:school,operator:Município de São Pedro do Suaçuí","lat":-18.3639605,"lng":-42.5946466},{"id":"10130356215","name":"Bradesco","tags":"addr:city:São Pedro do Suaçuí,addr:housenumber:02,addr:postcode:39784-000,addr:street:Praça Prefeito Francisco Viriato da Rocha,addr:suburb:Centro,amenity:bank,atm:yes,brand:Bradesco,brand:wikidata:Q806181","lat":-18.3646395,"lng":-42.6033846},{"id":"10130387054","name":"Terminal Rodoviário de São Pedro do Suaçuí","tags":"amenity:bus_station","lat":-18.364329,"lng":-42.6020595}]