[{"id":"2051789090","name":"Caixa Econômica Federal","tags":"amenity:bank","lat":-17.3518011,"lng":-44.9495943},{"id":"2051789298","name":"Itaú","tags":"amenity:bank,brand:Itaú Unibanco,brand:wikidata:Q1424293,brand:wikipedia:pt:Itaú Unibanco","lat":-17.3498321,"lng":-44.9505886},{"id":"2051872328","name":"Correios","tags":"amenity:post_office","lat":-17.3497402,"lng":-44.9467431},{"id":"2054851904","tags":"amenity:parking","lat":-17.3526891,"lng":-44.9457764},{"id":"2263445611","name":"Banco do Brasil","tags":"amenity:bank,atm:yes","lat":-17.3526905,"lng":-44.9489511},{"id":"2263447090","name":"Kaka's Bar","tags":"amenity:restaurant","lat":-17.3510597,"lng":-44.9508984},{"id":"2263449103","name":"Restaurante Egnaldo","tags":"amenity:restaurant,cuisine:regional","lat":-17.3475957,"lng":-44.9530039}]