[{"id":"3225049289","name":"Igreja Assembléia de Deus","tags":"amenity:place_of_worship,building:church,denomination:pentecostal,religion:christian","lat":-19.3943121,"lng":-41.2240471},{"id":"3225049683","name":"Igreja Luterana de Itueta","tags":"amenity:place_of_worship,building:church,denomination:lutheran,religion:christian","lat":-19.3944282,"lng":-41.2255977},{"id":"3225049739","tags":"amenity:bank,atm:yes,brand:Caixa Econômica Federal","lat":-19.3958963,"lng":-41.225605},{"id":"3271458823","name":"Igreja Presbiteriana de Itueta","tags":"amenity:place_of_worship,building:church,denomination:presbyterian,religion:christian","lat":-19.3961306,"lng":-41.2281398},{"id":"3998382058","name":"Correios de Itueta","tags":"amenity:post_office","lat":-19.3959941,"lng":-41.2256549},{"id":"4412518796","name":"Supermercado Gaede","tags":"shop:supermarket","lat":-19.3954812,"lng":-41.2253761},{"id":"4564248614","tags":"amenity:bank,atm:yes,brand:Itaú","lat":-19.3959176,"lng":-41.2255508},{"id":"4564248623","name":"Casa de Ração","tags":"shop:pet","lat":-19.3923566,"lng":-41.2232414}]