[{"id":"3332952345","name":"Itaú","tags":"amenity:bank,brand:Itaú Unibanco,brand:wikidata:Q1424293,brand:wikipedia:pt:Itaú Unibanco","lat":-18.7099562,"lng":-40.399763},{"id":"3460746408","name":"EMEF Professora Maria Rodrigues Leite","tags":"IJSN:administra:Municipal,IJSN:classeCnae:Fundamental,addr:city:Nova Venécia,addr:housenumber:325,addr:postcode:29830-000,addr:street:Rua Cariacica,addr:suburb:Centro,alt_name:Escola Municipal de Ensino Fundamental,amenity:school,contact:phone:+55 27 3752-3729","lat":-18.7098752,"lng":-40.4035491},{"id":"4024904859","name":"EEEM Dom Daniel Comboni","tags":"IJSN:administra:Estadual,IJSN:classeCnae:Médio,addr:city:Nova Venécia,addr:housenumber:163,addr:postcode:29830-000,addr:street:Avenida Mateus Toscano,addr:suburb:Municipal I,alt_name:Escola Estadual de Ensino Médio,amenity:school,contact:phone:(27) 3752-1152","lat":-18.7131276,"lng":-40.3985238},{"id":"4024905431","name":"EMEF Doutor Adalto Santos","tags":"IJSN:administra:Municipal,IJSN:classeCnae:Fundamental,addr:city:Nova Venécia,addr:housenumber:363,addr:postcode:29830-000,addr:street:Avenida Mateus Toscano,addr:suburb:Municipal I,alt_name:Escola Municipal de Ensino Fundamental,amenity:school,contact:phone:(27) 3752-2845","lat":-18.7136234,"lng":-40.399229},{"id":"4024905670","name":"EMEF Professora Claudina Barbosa","tags":"IJSN:administra:Municipal,IJSN:classeCnae:Fundamental,addr:city:Nova Venécia,addr:housenumber:194,addr:postcode:29830-000,addr:street:Avenida Mateus Toscano,addr:suburb:Municipal I,alt_name:Escola Municipal de Ensino Fundamental,amenity:school,contact:phone:(27) 3752-1526","lat":-18.712883,"lng":-40.3989697},{"id":"5302283570","name":"CMEI Lar de Fatima","tags":"addr:city:Nova Venécia,addr:postcode:29830-000,addr:street:Rua Ipiranga,addr:suburb:Bonfim,amenity:school,operator:Escola","lat":-18.7125756,"lng":-40.4062426},{"id":"9400938082","name":"Banco do Nordeste","tags":"addr:city:Nova Venécia,addr:housenumber:68,addr:postcode:29830-000,addr:street:Praça Jones Santos Neves,addr:suburb:Centro,amenity:bank,brand:Banco do Nordeste,brand:wikidata:Q4854137,brand:wikipedia:en:Banco do Nordeste","lat":-18.7097788,"lng":-40.40092},{"id":"9400938091","name":"Banco do Brasil","tags":"addr:city:Nova Venécia,addr:housenumber:160,addr:postcode:29830-000,addr:street:Avenida Vitória,addr:suburb:Centro,amenity:bank,brand:Banco do Brasil,brand:wikidata:Q610817,brand:wikipedia:en:Banco do Brasil","lat":-18.7104812,"lng":-40.3986938},{"id":"9400938092","name":"Caixa Econômica Federal","tags":"addr:city:Nova Venécia,addr:housenumber:112,addr:postcode:29830-000,addr:street:Avenida Vitória,addr:suburb:Centro,amenity:bank,branch:economica,brand:Caixa Econômica Federal,brand:wikidata:Q835283,brand:wikipedia:pt:Caixa Econômica Federal","lat":-18.7107259,"lng":-40.3983257}]