[{"id":"2826434659","name":"Banco do Brasil","tags":"addr:city:Teófilo Otoni,addr:housename:250,addr:postcode:39800-224,addr:street:Avenida Sidônio Otoni,addr:suburb:Joaquim Pedroso,amenity:bank,atm:yes,brand:Banco do Brasil,brand:wikidata:Q610817","lat":-17.8520934,"lng":-41.511697},{"id":"2826452200","name":"Epa","tags":"amenity:atm,operator:Banco do Brasil","lat":-17.8516952,"lng":-41.510197},{"id":"2826455558","name":"Epa","tags":"amenity:atm,operator:Banco Bradesco","lat":-17.8515323,"lng":-41.5085146},{"id":"2826459533","name":"Epa","tags":"amenity:atm,operator:Banco Itau","lat":-17.8515458,"lng":-41.5088037},{"id":"2826507727","name":"Farmácia Indiana 24H","tags":"addr:city:Teófilo Otoni,addr:housenumber:464,addr:postcode:39800,addr:street:Avenida Sidônio Otoni,amenity:pharmacy,healthcare:pharmacy,opening_hours:24/7,phone:+55 33 3521-1666","lat":-17.8522396,"lng":-41.5106921},{"id":"6833241388","name":"Farmácia Aparecida","tags":"amenity:pharmacy,dispensing:yes,healthcare:pharmacy","lat":-17.8521606,"lng":-41.5113837}]