[{"id":"1682708572","name":"Minas Brasil","tags":"amenity:pharmacy,healthcare:pharmacy","lat":-16.7249066,"lng":-43.8697733},{"id":"1682708634","name":"Santa Casa","tags":"amenity:hospital,emergency:yes,healthcare:hospital","lat":-16.7253587,"lng":-43.8702561},{"id":"1682710434","name":"Madre","tags":"amenity:bar","lat":-16.7249831,"lng":-43.8723858},{"id":"1682711257","name":"Louv Club","tags":"amenity:bar","lat":-16.7248886,"lng":-43.8723992},{"id":"1682712160","name":"Mapa de Minas","tags":"amenity:restaurant,cuisine:regional","lat":-16.7251069,"lng":-43.8724233},{"id":"1682712457","name":"Quero-Pizza","tags":"amenity:restaurant,cuisine:pizza","lat":-16.7252816,"lng":-43.8724797},{"id":"1682716418","name":"Terraço","tags":"amenity:restaurant,cuisine:regional","lat":-16.7252244,"lng":-43.8728125},{"id":"1682716431","name":"Itaú","tags":"amenity:bank,atm:no,brand:Itaú Unibanco,brand:wikidata:Q1424293,brand:wikipedia:pt:Itaú Unibanco","lat":-16.7251093,"lng":-43.8721599},{"id":"1682718640","name":"Rei da Empada","tags":"amenity:cafe","lat":-16.7254999,"lng":-43.8720398},{"id":"1682719223","name":"Papaula","tags":"amenity:restaurant,cuisine:pizza","lat":-16.7241465,"lng":-43.8723989},{"id":"1682720135","name":"Uai-Tchê","tags":"amenity:restaurant","lat":-16.7239715,"lng":-43.8721819},{"id":"1682720974","name":"Parrila","tags":"amenity:restaurant","lat":-16.723766,"lng":-43.8721229},{"id":"1682721355","name":"Biotécnico Fundamental","tags":"amenity:school","lat":-16.723441,"lng":-43.8723411},{"id":"1682723095","name":"Churrascaria Trevo","tags":"amenity:restaurant,cuisine:sandwich","lat":-16.7225036,"lng":-43.8720928},{"id":"1682725166","name":"Chico's","tags":"amenity:restaurant,cuisine:pizza","lat":-16.723298,"lng":-43.8715355},{"id":"4566862965","name":"Casa da Esfirra","tags":"amenity:restaurant","lat":-16.7221004,"lng":-43.8719615},{"id":"4566893997","name":"Banco do Brasil","tags":"amenity:bank,brand:Banco do Brasil,brand:wikidata:Q610817,brand:wikipedia:en:Banco do Brasil","lat":-16.7227934,"lng":-43.8715749},{"id":"4566893998","name":"Caixa Econômica Federal","tags":"amenity:bank,brand:Caixa Econômica Federal,brand:wikidata:Q835283,brand:wikipedia:pt:Caixa Econômica Federal","lat":-16.7229688,"lng":-43.8716334},{"id":"4566896301","name":"Banco do Brasil","tags":"amenity:bank,brand:Banco do Brasil,brand:wikidata:Q610817,brand:wikipedia:en:Banco do Brasil","lat":-16.7231385,"lng":-43.8721636},{"id":"4889932693","name":"FUNORTE","tags":"amenity:school","lat":-16.7253076,"lng":-43.8787845}]