[{"id":"3548915692","name":"Mercearia Yara","tags":"addr:city:Caetité,addr:housenumber:167,addr:postcode:46400-000,addr:street:Avenida Monte das Oliveiras,addr:suburb:Alto do Cristo,shop:convenience","lat":-14.075937,"lng":-42.4903684},{"id":"3548915693","name":"Menara Estética e Beleza","tags":"addr:postcode:46400-000,addr:street:Avenida Dom Manoel Raimundo,phone:+55 77 3454 2902,phone_1:+55 77 9 9915 6684,shop:beauty","lat":-14.0741949,"lng":-42.490234},{"id":"3564761924","name":"Bar Bananão","tags":"addr:postcode:46400-000,amenity:bar","lat":-14.0744536,"lng":-42.4896772},{"id":"3870332118","name":"Mercearia Oliveira","tags":"addr:housenumber:426,addr:street:Avenida Divino Espirito Santo,alt_name:Bar do Rogério,shop:convenience,survey:date:2015-11-30","lat":-14.0775015,"lng":-42.4919565},{"id":"3898815345","name":"Escola de Educação Infantil Crescendo e aprendendo","tags":"addr:city:Caetité,addr:housenumber:55,addr:postcode:46400-000,addr:street:Avenida Monte das Oliveiras,addr:suburb:Alto do Cristo,amenity:school,phone:+55 77 9 9912 4596,survey:date:2015-12-07","lat":-14.0749487,"lng":-42.489929},{"id":"3946808007","name":"Bar e Mercearia São Mateus","tags":"addr:housenumber:68,addr:street:Rua Professor Nivaldo Oliveira,shop:convenience,survey:date:2016-01-14","lat":-14.0787676,"lng":-42.493159},{"id":"3946808781","tags":"shop:beauty,survey:date:2016-01-14","lat":-14.076441,"lng":-42.4914},{"id":"4381160725","name":"Salão Bunita","tags":"shop:beauty","lat":-14.0750681,"lng":-42.4929121},{"id":"4495014882","name":"Bar e Mercearia Castro","tags":"addr:city:Caetité,addr:housenumber:133,addr:postcode:46400-000,addr:street:Rua Vale do Jordão,addr:suburb:Observatório,phone:+55 77 9 9933 7596,shop:convenience","lat":-14.0746722,"lng":-42.4891244},{"id":"4499136415","name":"Studio Lanne","tags":"addr:city:Caetité,addr:housenumber:19,addr:postcode:46400-000,addr:street:Rua Francisco Alves da Rocha Guimarães,addr:suburb:Observatório,phone:+55 77 9 9813 5314,phone_1:+77 77 9 9123 2195,shop:beauty","lat":-14.0737763,"lng":-42.4895792},{"id":"4646204181","name":"Mercearia Luíza","tags":"shop:convenience","lat":-14.077791,"lng":-42.4927204},{"id":"4646204182","name":"Salão Estylu e Elegância","tags":"shop:beauty","lat":-14.0778717,"lng":-42.492648},{"id":"9143452431","name":"Buenna Pizza","tags":"addr:city:Caetité,addr:housenumber:280,addr:postcode:46400-000,addr:street:Avenida Divino Espirito Santo,addr:suburb:Alto do Cristo,amenity:restaurant,contact:whatsapp:+55 77 9 9916 9492,cuisine:pizza,delivery:only,mobile:+55 77 9 9916 9492,operator:rosana Lima,takeaway:only","lat":-14.076422,"lng":-42.4912193}]