[{"id":"1774210838","name":"CETEPSII","tags":"amenity:school","lat":-16.375639,"lng":-39.5728338},{"id":"1774210862","tags":"amenity:hospital,healthcare:hospital","lat":-16.3754022,"lng":-39.5818353},{"id":"1774210877","tags":"amenity:school","lat":-16.3773374,"lng":-39.5825327},{"id":"5373608940","tags":"amenity:hospital,healthcare:hospital","lat":-16.3766332,"lng":-39.5817071},{"id":"5675809221","name":"Padaria e lanchonet super pao","tags":"addr:street:Avenida das Américas,shop:supermarket","lat":-16.3802181,"lng":-39.5742301},{"id":"6854163077","name":"Colégio Adventista","tags":"amenity:school","lat":-16.3794863,"lng":-39.5833297}]