[{"id":"488570001","tags":"amenity:cafe","lat":-14.8923698,"lng":-40.8451109},{"id":"5637211021","name":"Luiz carlos bahia fort","tags":"addr:housenumber:3650,addr:street:Avenida Juracy Magalhães,shop:supermarket","lat":-14.8957618,"lng":-40.8443855},{"id":"5888692985","name":"Ivaneide","tags":"shop:supermarket","lat":-14.8971818,"lng":-40.8398437},{"id":"6545556886","name":"Caixa Econômica Federal","tags":"amenity:bank","lat":-14.8946409,"lng":-40.8443033},{"id":"9411315035","name":"Alpha Fitness","tags":"leisure:fitness_centre,phone:+55 77 3424-5627,website:https://www.redealphafitness.com.br/","lat":-14.8927456,"lng":-40.8454226},{"id":"9411315036","name":"GBarbosa","tags":"brand:GBarbosa,brand:wikidata:Q10287817,brand:wikipedia:pt:GBarbosa,shop:supermarket","lat":-14.8940373,"lng":-40.8450943},{"id":"9411315043","name":"Bradesco","tags":"amenity:bank,brand:Bradesco,brand:wikidata:Q806181,brand:wikipedia:en:Banco Bradesco","lat":-14.893111,"lng":-40.8448546},{"id":"9411315044","name":"Pague Menos","tags":"amenity:pharmacy,brand:Pague Menos,brand:wikidata:Q7124466,brand:wikipedia:pt:Pague Menos,dispensing:yes,healthcare:pharmacy","lat":-14.8928415,"lng":-40.8448546},{"id":"9411315052","name":"Nobel","tags":"shop:books","lat":-14.892513,"lng":-40.8452076}]