[{"id":"1256673528","name":"Rede 7","tags":"addr:housenumber:266,addr:street:Rua Tenente Amarílio Silva Leite,old_name:Disbahia,shop:supermarket,wheelchair:yes","lat":-14.2081619,"lng":-41.6733283},{"id":"1256673544","name":"Mercadinho Predileto","tags":"addr:housenumber:159,addr:street:Rua Coronel Fidelcino Santos,phone:+55 77 34412002,shop:supermarket,wheelchair:yes","lat":-14.2072119,"lng":-41.6729168},{"id":"1326512201","name":"FACINTER","tags":"addr:housenumber:157,addr:street:Avenida Otávio Mangabeira,amenity:university","lat":-14.2055645,"lng":-41.6726106},{"id":"1326985959","name":"Supermercado Ataíde","tags":"addr:housenumber:188,addr:street:Rua Floriza Viana Cardoso,shop:supermarket","lat":-14.2071649,"lng":-41.6711899},{"id":"1326985968","name":"Super Bom Preço","tags":"addr:housenumber:162,addr:street:Rua Sargento Antenor Santos,shop:supermarket,wheelchair:yes","lat":-14.2097089,"lng":-41.6727837},{"id":"1326985970","name":"Mercadinho Íris","tags":"addr:housenumber:158,addr:street:Rua Felipe dos Santos,shop:supermarket,wheelchair:yes","lat":-14.2104908,"lng":-41.6750223},{"id":"1326985974","name":"Standard Courses","tags":"addr:housenumber:140,addr:street:Rua José Meira Leite,amenity:school,training:language","lat":-14.2056651,"lng":-41.6761236},{"id":"1333603678","name":"Mercadinho Canguçu","tags":"shop:supermarket","lat":-14.2091445,"lng":-41.6742379},{"id":"1348241675","name":"Bar do Peixe","tags":"amenity:restaurant,cuisine:regional,internet_access:no","lat":-14.2097322,"lng":-41.6734075},{"id":"1413454265","name":"Point's bar e restaurante","tags":"amenity:restaurant,wheelchair:limited","lat":-14.2094798,"lng":-41.677329},{"id":"1562841013","name":"Centro Educacional Paulo Freire","tags":"addr:housenumber:771,addr:street:Avenida Mestre Eufrásio,amenity:school","lat":-14.208901,"lng":-41.6764489},{"id":"2073896549","tags":"amenity:bar","lat":-14.2057156,"lng":-41.6716399},{"id":"2541900301","name":"Genes Academia","tags":"addr:housenumber:126,addr:street:Rua Valdomiro Alves Luz,leisure:sports_centre,phone:+55 77 34415016","lat":-14.2065831,"lng":-41.6770317},{"id":"2596181612","tags":"shop:convenience","lat":-14.2103764,"lng":-41.6756762},{"id":"2698804940","name":"Biblioteca do Colégio Modelo","tags":"amenity:library","lat":-14.210229,"lng":-41.6762935},{"id":"3497664752","name":"Polícia Rodoviária Estadual","tags":"amenity:police,police:traffic_police","lat":-14.2105189,"lng":-41.6714363},{"id":"5305529821","name":"La Belle de Jour","tags":"amenity:cafe,wheelchair:yes","lat":-14.2054664,"lng":-41.6724914},{"id":"5322078213","tags":"amenity:childcare","lat":-14.2072735,"lng":-41.6739531},{"id":"5829401588","name":"Gileno da paixao novais supermercado bom preco","tags":"addr:street:Rua Sargento Antenor Santos,shop:supermarket","lat":-14.2098393,"lng":-41.6728261},{"id":"5829463886","name":"Zilmar oliveira cangucu","tags":"addr:street:Rua Sargento Antenor Santos,shop:supermarket","lat":-14.2092218,"lng":-41.6743167},{"id":"5968438587","name":"Marcia roberta","tags":"addr:street:Rua Felipe dos Santos,shop:supermarket","lat":-14.2104001,"lng":-41.6755273}]