[{"id":"1216931131","name":"Policia Civil","tags":"amenity:police","lat":-15.2570338,"lng":-40.2405277},{"id":"1253010037","tags":"amenity:parking","lat":-15.2572578,"lng":-40.2400481},{"id":"3639541706","name":"Canto Lindo","tags":"addr:city:Itapetinga,addr:country:BR,addr:housenumber:71A,addr:postcode:45700-000,addr:street:Avenida Tancredo Neves,phone:+55 77 3261 9217;+55 77 8828 3429;+55 77 8105 2133;+55 77 9192 2835,shop:pet","lat":-15.2550806,"lng":-40.2405879},{"id":"3713827287","name":"Biblioteca pública do Colegio Modelo","tags":"amenity:library","lat":-15.2584875,"lng":-40.2417759},{"id":"5936952086","name":"Rudolf giger","tags":"addr:street:Avenida Tancredo Neves,shop:pet","lat":-15.2552233,"lng":-40.240481},{"id":"5936952987","name":"Borges e Perreira ltda","tags":"addr:street:Avenida Tancredo Neves,shop:supermarket","lat":-15.255597,"lng":-40.2351115},{"id":"6265725986","name":"1205 doralice mártires dos santos","tags":"shop:supermarket","lat":-15.2551564,"lng":-40.2399326},{"id":"7223595044","tags":"shop:supermarket","lat":-15.2562439,"lng":-40.2391143}]