[{"id":"6025935785","tags":"addr:street:Praça feira,shop:supermarket","lat":-15.4643731,"lng":-39.6533726},{"id":"6349856386","tags":"shop:pet","lat":-15.463412,"lng":-39.6535239},{"id":"6350119985","tags":"shop:supermarket","lat":-15.4642755,"lng":-39.6518268},{"id":"6350119987","tags":"shop:supermarket","lat":-15.4670175,"lng":-39.650968},{"id":"6352068885","tags":"shop:supermarket","lat":-15.464217,"lng":-39.652245},{"id":"6524109486","name":"Célia mercearia e açougue","tags":"addr:street:Travessa João velozo,shop:supermarket","lat":-15.4638879,"lng":-39.6526326},{"id":"6524109786","tags":"shop:supermarket","lat":-15.4636194,"lng":-39.653391},{"id":"6524109986","name":"Brandão","tags":"addr:street:Rua João velozo,name:en:Brandão,shop:supermarket","lat":-15.4639858,"lng":-39.6530128},{"id":"6524110085","tags":"shop:supermarket","lat":-15.4639783,"lng":-39.6523262}]