[{"id":"5700149532","name":"Paulo bento rocha deus te ama","tags":"shop:supermarket","lat":-14.1436595,"lng":-39.7301229},{"id":"5700149533","name":"A o varejao","tags":"addr:street:Praça salvador da mata,shop:supermarket","lat":-14.1429789,"lng":-39.7301002},{"id":"5711708136","name":"Campos versos mercado gardim","tags":"addr:street:Praça salvador da mata,shop:supermarket","lat":-14.1430773,"lng":-39.7300072},{"id":"6399420187","name":"6876 j silva Néri minemecado","tags":"shop:supermarket","lat":-14.1430305,"lng":-39.7300534},{"id":"6399431786","name":"6116 valdeir da silva soares","tags":"addr:street:Rua domingos de Castro,shop:supermarket","lat":-14.1437336,"lng":-39.7300553},{"id":"6399443285","name":"5358 cleber jhon passos dias","tags":"addr:street:Praça Virgílio damasio,shop:pet","lat":-14.1410956,"lng":-39.7321084},{"id":"10036643111","name":"Acarajé de Mainha","tags":"amenity:restaurant,cuisine:regional","lat":-14.1423085,"lng":-39.7311446}]