[{"id":"5116551839","name":"Bradesco","tags":"amenity:bank,atm:yes","lat":-13.0188199,"lng":-42.6951944},{"id":"5136858194","name":"Farm치cia do Povo","tags":"amenity:pharmacy,dispensing:yes,healthcare:pharmacy,operator:privad","lat":-13.0190069,"lng":-42.6938308},{"id":"5136858198","name":"Supermecado Jackson","tags":"shop:supermarket","lat":-13.0188773,"lng":-42.6936595},{"id":"5139105179","name":"Farm치cia Azevedo","tags":"amenity:pharmacy","lat":-13.0202894,"lng":-42.6949447},{"id":"5139105180","name":"Farm치cia Senhor do Bonfim","tags":"amenity:pharmacy","lat":-13.0202178,"lng":-42.6949527},{"id":"5148099207","name":"Farm치cia FTB","tags":"amenity:pharmacy","lat":-13.0210681,"lng":-42.6945534},{"id":"5989419585","name":"Adalgisa silva freitas","tags":"addr:street:Acesso Bela Vista,shop:supermarket","lat":-13.0199609,"lng":-42.6985063},{"id":"5989881930","name":"Panela Cheia","tags":"addr:street:Avenida Manoel Messias de Figueredo,shop:supermarket","lat":-13.0212651,"lng":-42.6947004}]