[{"id":"4844003121","name":"Niveia de sa teles","tags":"addr:street:rua sao tome,name:pt:Niveia de sa teles,shop:supermarket","lat":-12.1373279,"lng":-44.9889297},{"id":"4887903521","name":"J f lima mercado nazare","tags":"addr:street:Rua Joaquim Neto,name:pt:J f lima mercado nazare,shop:supermarket","lat":-12.1385888,"lng":-44.9881056},{"id":"4913648721","name":"Mc da silva mercado tradição","tags":"addr:street:rua maracana,name:pt:Mc da silva mercado tradição,shop:supermarket","lat":-12.1361378,"lng":-44.9865722},{"id":"5009992846","name":"Mercado soma","tags":"addr:street:Rua Vila Lobos,name:pt:Mercado soma,shop:supermarket","lat":-12.1364717,"lng":-44.9781157},{"id":"5029459121","name":"Manoel rocha Teixeira comercial rocha","tags":"addr:street:Rua Vila Lobos,name:pt:Manoel rocha Teixeira comercial rocha,shop:supermarket","lat":-12.13589,"lng":-44.9783529}]