[{"id":"5739351421","name":"C c Rodrigues","tags":"addr:street:Rua José Marcelino,name:pt:C c Rodrigues rianna supermercado,shop:supermarket","lat":-15.6734913,"lng":-38.9507991},{"id":"5739459622","name":"Anderson dos santos araujo","tags":"addr:street:Prca joao perelo 40,name:pt:Anderson dos santos araujo salsa supermercado,shop:supermarket","lat":-15.6769146,"lng":-38.9491729},{"id":"5739717222","name":"Hipermercado Alana","tags":"addr:street:Avenida Osmário Batista,shop:supermarket","lat":-15.6729624,"lng":-38.9543557},{"id":"5750189026","name":"Raimundo alberto s santana mercadinho avenida","tags":"addr:housenumber:364,addr:street:Avenida Osmário Batista,shop:supermarket","lat":-15.6720993,"lng":-38.9512118},{"id":"5750261021","name":"Djeane mercado frangao","tags":"addr:street:Avenida Osmário Batista,shop:supermarket","lat":-15.6724811,"lng":-38.9523963}]