[{"id":"4399535189","tags":"amenity:restaurant,cuisine:brazilian,name:en:Restaurante Comida Quilo","lat":-14.4678594,"lng":-39.0348091},{"id":"6146485385","name":"Sangia ribeiro silva","tags":"addr:street:estrada não pavimentada Uruçuca-Serra Grande,shop:supermarket","lat":-14.4643946,"lng":-39.0387171},{"id":"6373343693","name":"Bar do Miguel","tags":"amenity:bar","lat":-14.4677254,"lng":-39.0356906},{"id":"6373343694","name":"Rick Mercearia","tags":"shop:supermarket","lat":-14.466937,"lng":-39.035786},{"id":"6520925588","name":"3496 neles Brito eireli","tags":"name:en:Ofertao,shop:supermarket","lat":-14.4677079,"lng":-39.0352785}]