[{"id":"2072171130","name":"Terminal Hidroviário de Valença","tags":"amenity:ferry_terminal,cargo:passengers;bicycle,ferry:yes,public_transport:station","lat":-13.3699468,"lng":-39.07165},{"id":"4396675294","tags":"leisure:fitness_centre","lat":-13.3664412,"lng":-39.0705851},{"id":"4500300300","name":"Cesta do Povo","tags":"name:pt:Cesta do Povo,shop:supermarket","lat":-13.3685226,"lng":-39.0750185},{"id":"4639717109","name":"Dagosto","tags":"amenity:restaurant","lat":-13.3687692,"lng":-39.0716762},{"id":"4639717269","name":"União","tags":"amenity:pharmacy,healthcare:pharmacy","lat":-13.3698466,"lng":-39.0721351},{"id":"4732546776","name":"Feira Livre","tags":"shop:supermarket","lat":-13.3679055,"lng":-39.0759254},{"id":"4732546777","name":"GBarbosa","tags":"brand:GBarbosa,brand:wikidata:Q10287817,brand:wikipedia:pt:GBarbosa,shop:supermarket","lat":-13.3675602,"lng":-39.0762896},{"id":"6718398890","tags":"amenity:restaurant","lat":-13.3652123,"lng":-39.0696584},{"id":"6718399285","name":"Salão do Tibuço","tags":"shop:beauty","lat":-13.3654317,"lng":-39.0697637}]