[{"id":"2065574194","name":"Terminal Hidroviário de Morro de São Paulo","tags":"amenity:ferry_terminal,cargo:passengers;bicycle,ferry:yes,public_transport:station","lat":-13.3766536,"lng":-38.9186205},{"id":"2065574217","name":"Banco do Brasil","tags":"amenity:atm,brand:Banco do Brasil,brand:wikidata:Q610817,brand:wikipedia:en:Banco do Brasil,operator:Banco do Brasil,operator:wikidata:Q610817,operator:wikipedia:en:Banco do Brasil","lat":-13.3780042,"lng":-38.917155},{"id":"2067458970","name":"Morena Bela","tags":"amenity:restaurant,cuisine:regional","lat":-13.3787233,"lng":-38.917156},{"id":"2067458981","name":"Toca do Morcego","tags":"amenity:nightclub,website:www.tocadomorro.com","lat":-13.3766787,"lng":-38.9172057},{"id":"2067459071","name":"Posto Medico 24hs","tags":"addr:street:Caminho do Farol,amenity:hospital,denomination:catholic,healthcare:hospital,religion:christian","lat":-13.37733,"lng":-38.9171671},{"id":"2068759544","name":"Basílico","tags":"amenity:restaurant,cuisine:italian;pizza","lat":-13.3784237,"lng":-38.9168768},{"id":"2068759555","name":"Ki Massa","tags":"amenity:restaurant","lat":-13.3776254,"lng":-38.9149403},{"id":"2068759558","name":"Polícia Militar","tags":"amenity:police,operator:Polícia Militar da Bahia,operator:short:PMBA,operator:wikidata:Q10351014,operator:wikipedia:pt:Polícia Militar de Alagoas,phone:+55 75 3652 1647;+55 75 9 9925 0856","lat":-13.3775926,"lng":-38.9150414},{"id":"2070680760","name":"Banana da Terra","tags":"amenity:cafe","lat":-13.3779367,"lng":-38.9145979},{"id":"2070680761","name":"Café Caramelo","tags":"amenity:cafe","lat":-13.3776515,"lng":-38.9148984},{"id":"2070680765","name":"Tempeiro Caseiro","tags":"amenity:restaurant,cuisine:regional","lat":-13.3785007,"lng":-38.9165185},{"id":"2072171112","name":"Bizu","tags":"amenity:restaurant,cuisine:regional","lat":-13.3786053,"lng":-38.914091},{"id":"2072171502","tags":"shop:convenience","lat":-13.3779345,"lng":-38.9160934},{"id":"2072171504","tags":"amenity:pharmacy,healthcare:pharmacy","lat":-13.378116,"lng":-38.9167171},{"id":"2072171506","tags":"amenity:pharmacy,dispensing:yes,healthcare:pharmacy","lat":-13.3784024,"lng":-38.9141713},{"id":"2072258647","name":"Forno a Lenha de Mercedes","tags":"amenity:restaurant","lat":-13.3782428,"lng":-38.9167199},{"id":"2072258654","name":"Ponto G","tags":"amenity:restaurant","lat":-13.3779031,"lng":-38.9159823},{"id":"2072258661","name":"Ponto 9,99","tags":"amenity:restaurant,cuisine:regional","lat":-13.3776986,"lng":-38.9152394},{"id":"2072671035","tags":"amenity:ferry_terminal,ferry:yes,public_transport:station","lat":-13.377062,"lng":-38.9182673},{"id":"2232478112","name":"Patricia","tags":"amenity:restaurant","lat":-13.3796798,"lng":-38.9185071},{"id":"2232479995","name":"dizi 10","tags":"amenity:restaurant","lat":-13.3798625,"lng":-38.917681},{"id":"2232481890","name":"Papoula","tags":"amenity:restaurant,cuisine:international","lat":-13.3800138,"lng":-38.9176327},{"id":"2232489949","name":"ONE LOVE","tags":"amenity:nightclub","lat":-13.3798351,"lng":-38.9201714},{"id":"2239204339","tags":"shop:convenience","lat":-13.379282,"lng":-38.9176285},{"id":"2239278961","name":"Sabor da terra","tags":"amenity:restaurant,cuisine:regional","lat":-13.3779873,"lng":-38.9162855},{"id":"2239278964","name":"Bradesco","tags":"amenity:atm,brand:Bradesco,brand:wikidata:Q806181,brand:wikipedia:en:Banco Bradesco,operator:Bradesco,operator:wikidata:Q806181,operator:wikipedia:en:Banco Bradesco","lat":-13.3777976,"lng":-38.9157011},{"id":"2239278969","name":"Branco&Negro","tags":"amenity:restaurant,cuisine:international","lat":-13.3780582,"lng":-38.9165422},{"id":"2239278975","name":"Pulsar","tags":"amenity:nightclub","lat":-13.3766178,"lng":-38.9178967},{"id":"4394203889","tags":"amenity:restaurant,cuisine:brazilian;burger;seafood,name:en:Bodeguita Restaurante - Lanchonete","lat":-13.3776858,"lng":-38.91463},{"id":"4394203892","tags":"amenity:cafe,cuisine:coffee_shop;sandwich,name:en:Cafe 41","lat":-13.3778683,"lng":-38.9158229},{"id":"4394203893","tags":"amenity:restaurant,cuisine:brazilian,internet_access:wlan,name:en:Restaurante e Lanchonete Frigadeira de Barro","lat":-13.3781941,"lng":-38.9152743},{"id":"4394203989","tags":"amenity:restaurant,cuisine:italian_pizza,name:en:Massas Ditalia","lat":-13.3778015,"lng":-38.9158879},{"id":"5012229852","name":"Bar e Restaurante da Morena","tags":"amenity:restaurant","lat":-13.378306,"lng":-38.9153863},{"id":"5140298823","name":"Restaurante Alecrim","tags":"amenity:restaurant,opening_hours:Mo-Su 11:00-00:00","lat":-13.3779464,"lng":-38.9160303},{"id":"5393989722","name":"Andina Cozinha Latina","tags":"amenity:restaurant","lat":-13.3792418,"lng":-38.9183595},{"id":"6286706385","name":"Papoula Culinária Artesanal","tags":"addr:housenumber:06,addr:street:Rua da Lagoa,amenity:restaurant,email:papoulaculinariaartesanal@hotmail.com,internet_access:wlan,name:en:Papoula Artesanal Culinary,operator:Christina,phone:+557536521295","lat":-13.3806731,"lng":-38.9176579},{"id":"6312902985","name":"Farmácia São Lucas","tags":"amenity:pharmacy,healthcare:pharmacy","lat":-13.3781735,"lng":-38.916514},{"id":"6325890623","name":"Farmácia Nossa Senhora da Luz","tags":"amenity:pharmacy,healthcare:pharmacy","lat":-13.3784077,"lng":-38.9143277},{"id":"6329527839","name":"Bradesco","tags":"amenity:atm,brand:Bradesco,brand:wikidata:Q806181,brand:wikipedia:en:Banco Bradesco,operator:Bradesco,operator:wikidata:Q806181,operator:wikipedia:en:Banco Bradesco","lat":-13.3783623,"lng":-38.9166519},{"id":"6329528605","name":"Café das Artes","tags":"amenity:restaurant","lat":-13.3780708,"lng":-38.9168545}]