[{"id":"619006478","tags":"amenity:restaurant","lat":-13.011307,"lng":-38.4732357},{"id":"619006487","name":"Salsas Bar e Restaurante","tags":"amenity:restaurant","lat":-13.0114017,"lng":-38.4694345},{"id":"619006493","name":"DPM Bahia","tags":"amenity:pharmacy,healthcare:pharmacy","lat":-13.0118229,"lng":-38.4720392},{"id":"619006500","tags":"amenity:pharmacy,healthcare:pharmacy","lat":-13.0105567,"lng":-38.466805},{"id":"619006501","name":"Kilo Grama","tags":"amenity:restaurant,cuisine:buffet,internet_access:no","lat":-13.0109648,"lng":-38.4674207},{"id":"619006502","name":"Puro Sabor","tags":"amenity:restaurant","lat":-13.0105023,"lng":-38.4680809},{"id":"740234318","name":"Itaú","tags":"amenity:bank,atm:yes,brand:Itaú Unibanco,brand:wikidata:Q1424293,brand:wikipedia:pt:Itaú Unibanco","lat":-13.0090409,"lng":-38.4647068},{"id":"740234371","name":"Pague Menos","tags":"amenity:pharmacy,brand:Pague Menos,brand:wikidata:Q7124466,brand:wikipedia:pt:Pague Menos,dispensing:yes,healthcare:pharmacy","lat":-13.0083381,"lng":-38.4641641},{"id":"1207695352","name":"Cantina Cheiro de Pizza","tags":"amenity:restaurant,cuisine:pizza,opening_hours:Mo-Sa 19:00-23:00","lat":-13.0088255,"lng":-38.4631681},{"id":"2548590957","name":"Bradesco","tags":"amenity:bank,atm:yes,brand:Bradesco,brand:wikidata:Q806181,brand:wikipedia:en:Banco Bradesco","lat":-13.0092694,"lng":-38.4655076},{"id":"2826567009","name":"Grão","tags":"addr:city:Salvador,addr:housenumber:112H,addr:postcode:41830-020,addr:street:Rua Minas Gerais,amenity:restaurant,cuisine:natural,opening_hours:Mo-Sa 11:00-15:00,phone:+55 71 3240-1644,smoking:no","lat":-13.009173,"lng":-38.4642853},{"id":"4317590558","name":"Banco do Brasil","tags":"addr:housenumber:103,addr:street:Rua Pará,amenity:bank,atm:yes,brand:Banco do Brasil,brand:wikidata:Q610817,brand:wikipedia:en:Banco do Brasil","lat":-13.0097148,"lng":-38.465528},{"id":"5159998121","name":"Ki-Mukeka","tags":"amenity:restaurant","lat":-13.0105369,"lng":-38.4657125},{"id":"5167983803","name":"Hiper Ideal","tags":"shop:supermarket,website:https://hiperideal.com.br","lat":-13.0087185,"lng":-38.4652527},{"id":"5325562041","name":"Farmácia do Trabalhador Brasileiro","tags":"amenity:pharmacy,healthcare:pharmacy","lat":-13.0083291,"lng":-38.4635232},{"id":"5325562044","name":"Farmácia Ultraeconômica","tags":"amenity:pharmacy,healthcare:pharmacy","lat":-13.0085951,"lng":-38.4639568},{"id":"5330230324","name":"O Rei da Carne do Sol","tags":"amenity:restaurant","lat":-13.0129642,"lng":-38.4698126},{"id":"5330230325","name":"Sertão Bom","tags":"amenity:restaurant","lat":-13.0106187,"lng":-38.4658501},{"id":"5330230326","tags":"shop:convenience","lat":-13.0102662,"lng":-38.4655356},{"id":"5738671135","name":"Quinta Avenida Grill","tags":"addr:housenumber:844,addr:street:Avenida Manoel Dias da Silva,amenity:restaurant","lat":-13.0109927,"lng":-38.467538},{"id":"5738671324","name":"Drogasil","tags":"amenity:pharmacy,brand:Drogasil,brand:wikidata:Q5308185,brand:wikipedia:pt:Drogasil,healthcare:pharmacy,wheelchair:yes","lat":-13.0080803,"lng":-38.4631736},{"id":"5866265286","name":"Itaú","tags":"amenity:bank,branch:Personnalité,brand:Itaú Unibanco,brand:wikidata:Q1424293,brand:wikipedia:pt:Itaú Unibanco","lat":-13.0094932,"lng":-38.4657641},{"id":"5866265786","name":"Su Café Bar","tags":"amenity:cafe","lat":-13.0080744,"lng":-38.4638766},{"id":"5866266185","name":"Escola Professor Bernadino Moreira","tags":"amenity:school","lat":-13.0104275,"lng":-38.4731251},{"id":"6001005410","name":"Le Vin Empório","tags":"shop:convenience","lat":-13.0088572,"lng":-38.4638029},{"id":"6001020438","name":"Tijuana","tags":"amenity:restaurant,cuisine:mexican","lat":-13.0085468,"lng":-38.463249},{"id":"6217227585","name":"4Pets 4You","tags":"shop:pet","lat":-13.0096654,"lng":-38.4639628},{"id":"6259967655","name":"Restaurante D'Chef","tags":"amenity:restaurant","lat":-13.0095168,"lng":-38.4648494},{"id":"7218335197","tags":"amenity:parking,fee:yes,operator:Well Park","lat":-13.0092786,"lng":-38.465898},{"id":"8042797802","name":"Well","tags":"leisure:fitness_centre","lat":-13.0108194,"lng":-38.469836},{"id":"8142851857","name":"Bar Restaurante Grill na Brasa","tags":"addr:street:Rua do Norte,amenity:bar","lat":-13.0105273,"lng":-38.4733917},{"id":"8142851862","name":"Escola Professor Bernadinho de Moreira","tags":"amenity:school","lat":-13.0104881,"lng":-38.4732575},{"id":"8223091919","name":"Dona Cida","tags":"amenity:restaurant","lat":-13.0097571,"lng":-38.4648536},{"id":"8369131259","name":"One Sushi","tags":"amenity:restaurant,cuisine:sushi","lat":-13.0078903,"lng":-38.464028},{"id":"9518125917","name":"Petz","tags":"shop:pet","lat":-13.0086408,"lng":-38.4645741}]