[{"id":"2508336322","name":"Manoel Devoto","tags":"addr:street:Rua Osvaldo Cruz,amenity:school,operator:Governo Estadual","lat":-13.0120805,"lng":-38.4825653},{"id":"5167983926","name":"Drogasil","tags":"amenity:pharmacy,brand:Drogasil,brand:wikidata:Q5308185,brand:wikipedia:pt:Drogasil,dispensing:yes,healthcare:pharmacy,wheelchair:yes","lat":-13.012506,"lng":-38.4837747},{"id":"5866265586","name":"Novo Bom Ponto","tags":"shop:supermarket","lat":-13.0100436,"lng":-38.4758977},{"id":"5866266385","name":"Multimais","tags":"amenity:pharmacy,healthcare:pharmacy","lat":-13.0099941,"lng":-38.4761255},{"id":"5902459173","tags":"shop:convenience","lat":-13.0131072,"lng":-38.483408},{"id":"6441431769","name":"Drogaria São Paulo","tags":"amenity:pharmacy,brand:Drogaria São Paulo,brand:wikidata:Q5308184,brand:wikipedia:en:Grupo DPSP,dispensing:yes,healthcare:pharmacy","lat":-13.0131952,"lng":-38.4831417},{"id":"7600230330","tags":"shop:pet","lat":-13.0118341,"lng":-38.4833192}]