[{"id":"619006528","name":"Multiplus","tags":"amenity:restaurant","lat":-12.9833525,"lng":-38.4532127},{"id":"898928142","tags":"shop:convenience","lat":-12.9851297,"lng":-38.4615868},{"id":"898928145","name":"Multimais","tags":"amenity:pharmacy,dispensing:yes,healthcare:pharmacy","lat":-12.9855821,"lng":-38.4611895},{"id":"898928180","name":"Escola Tempo de Crescer","tags":"addr:housenumber:92,addr:street:Alameda dos Umbuzeiros,amenity:school,phone:+55 71 32703810","lat":-12.9845908,"lng":-38.4606084},{"id":"1031571143","name":"Correios","tags":"amenity:post_office,brand:Correios,brand:wikidata:Q3375004,brand:wikipedia:en:Correios,network:Correios,operator:Correios","lat":-12.9823399,"lng":-38.4552197},{"id":"3708701931","name":"Shopping Sumaré","tags":"shop:mall","lat":-12.982445,"lng":-38.4551133},{"id":"3708701934","tags":"amenity:parking,fee:yes,parking:surface","lat":-12.9816554,"lng":-38.4559729},{"id":"3708701938","tags":"amenity:parking","lat":-12.9805457,"lng":-38.4555174},{"id":"4446693491","name":"Cebollas","tags":"amenity:restaurant,name:pt:Cebollas","lat":-12.9828151,"lng":-38.4536735},{"id":"5160017126","name":"Banco do Nordeste","tags":"amenity:bank,brand:Banco do Nordeste,brand:wikidata:Q4854137,brand:wikipedia:en:Banco do Nordeste","lat":-12.9839489,"lng":-38.4534525},{"id":"5321125623","name":"Santander","tags":"amenity:bank,brand:Santander,brand:wikidata:Q5835668,brand:wikipedia:en:Santander Bank","lat":-12.9838271,"lng":-38.4535643},{"id":"5321138023","name":"Farmácia Sumaré","tags":"amenity:pharmacy,healthcare:pharmacy","lat":-12.982392,"lng":-38.4550283},{"id":"5330240521","name":"Maria's","tags":"amenity:restaurant","lat":-12.9825202,"lng":-38.4539084},{"id":"5335392922","name":"Bradesco","tags":"amenity:bank,brand:Bradesco,brand:wikidata:Q806181,brand:wikipedia:en:Banco Bradesco","lat":-12.9837519,"lng":-38.4538348},{"id":"5335392923","name":"Amora Café","tags":"amenity:cafe","lat":-12.9850378,"lng":-38.4537665},{"id":"5541294322","name":"Santander","tags":"amenity:bank,brand:Santander,brand:wikidata:Q5835668,brand:wikipedia:en:Santander Bank","lat":-12.980867,"lng":-38.4558934},{"id":"5703132327","name":"Central Park","tags":"amenity:parking,layer:-1,parking:underground,supervised:yes","lat":-12.9825272,"lng":-38.4556692},{"id":"5703162281","name":"Seven Wonders Café","tags":"addr:city:Salvador,addr:housenumber:290,addr:postcode:41820-022,addr:street:Rua Ewerton Visco,addr:suburb:Caminho das Arvores,amenity:cafe,opening_hours:Mo-FR 08:00-19:00; Sa 08:00-12:00,phone:+55 71 99743-5352,website:https://www.sevencafe.com.br/","lat":-12.9828351,"lng":-38.4551913},{"id":"6245160786","name":"Drogaria São Paulo","tags":"amenity:pharmacy,brand:Drogaria São Paulo,brand:wikidata:Q5308184,brand:wikipedia:en:Grupo DPSP,dispensing:yes,healthcare:pharmacy,wheelchair:yes","lat":-12.9831678,"lng":-38.4602028},{"id":"6245161285","name":"Pindorama","tags":"addr:housenumber:388,addr:street:Alameda das Cajazeiras,amenity:childcare,phone:+55 71 3032-6177,website:http://escolapindorama.com.br/","lat":-12.9832199,"lng":-38.4592525},{"id":"6779852390","name":"Alpha Fitness","tags":"leisure:fitness_centre","lat":-12.9837122,"lng":-38.4583202},{"id":"7111754546","name":"Eletric Body","tags":"addr:housenumber:482,addr:postcode:41820-470,addr:street:Alameda das Cajazeiras,leisure:fitness_centre,opening_hours:Mo-Fr 06:00-20:00; Sa 07:00-14:00,phone:+55 71 3231-3829,website:https://www.electricbody.com.br/","lat":-12.9822696,"lng":-38.4592042},{"id":"7160735585","tags":"amenity:car_wash","lat":-12.9827294,"lng":-38.4604772},{"id":"7487319504","name":"Hospital de Campanha do Itaigara","tags":"amenity:hospital,beds:47,emergency:no,healthcare:hospital,healthcare:speciality:covid19,operator:Prefeitura Municipal de Salvador,operator:type:public","lat":-12.9822089,"lng":-38.4587725},{"id":"8092173351","name":"A Casa Vidal","tags":"addr:housenumber:417,addr:postcode:41820-470,addr:street:Alameda das Cajazeiras,amenity:restaurant,cuisine:seafood;steak_house,diet:vegetarian:no,opening_hours:Mo-Th 19:00-24:00; Fr 12:00-17:00,19:00-24:00; Sa 19:00-24:00,phone:+55 71 93155052,website:https://www.acasavidal.com.br/","lat":-12.9828453,"lng":-38.4594992},{"id":"8092173356","name":"O Quintal Café e Bistrô","tags":"addr:housenumber:145,addr:street:Alameda das Cajazeiras,amenity:restaurant,delivery:no,diet:vegetarian:limited,opening_hours:We-Sa 15:00-18:00,19:00-24:00; Su 12:00-17:00,outdoor_seating:yes,takeaway:no","lat":-12.9850917,"lng":-38.4583163},{"id":"8093888274","name":"Espaço Conceito","tags":"addr:housenumber:555,addr:street:Alameda das Espatódeas,shop:mall","lat":-12.9824091,"lng":-38.4588029},{"id":"8093888275","name":"DIsal Livraria","tags":"addr:housenumber:479,addr:street:Alameda das Espatódeas,opening_hours:Mo-Fr 09:00-17:00; Sa 09:00-13:00,phone:+55 71 3565-1922,shop:books,website:https://www.disal.com.br/","lat":-12.9831495,"lng":-38.4587775},{"id":"8126992947","name":"35ª CIPM Iguatemi","tags":"amenity:police,operator:Polícia Militar","lat":-12.9841466,"lng":-38.456666},{"id":"9322247039","name":"Terraço","tags":"amenity:restaurant","lat":-12.9818531,"lng":-38.4539403},{"id":"9921463617","name":"Café 638","tags":"amenity:cafe","lat":-12.9806159,"lng":-38.4619203},{"id":"9934468027","name":"Spin Up","tags":"addr:housenumber:494,addr:postcode:41820-470,addr:street:Alameda das Cajazeiras,leisure:fitness_centre,phone:+55 71 21326421,sport:spinning,website:https://www.spinupstudio.com.br","lat":-12.9822053,"lng":-38.4592135},{"id":"10090201205","name":"Mahamudra Brasil","tags":"check_date:2022-10-10,leisure:fitness_centre","lat":-12.9835669,"lng":-38.4559323},{"id":"10720929500","name":"Fira","tags":"amenity:restaurant,cuisine:greek,takeaway:no,website:https://fira-restaurante.goomer.app","lat":-12.9822798,"lng":-38.4580173}]