[{"id":"5617157491","name":"Itaú","tags":"amenity:bank,atm:yes,brand:Itaú Unibanco,brand:wikidata:Q1424293,brand:wikipedia:pt:Itaú Unibanco","lat":-12.9696603,"lng":-38.4744755},{"id":"5656891122","name":"Grão Expresso","tags":"amenity:cafe","lat":-12.9702387,"lng":-38.4741254},{"id":"5656891522","name":"Pague Menos","tags":"amenity:pharmacy,brand:Pague Menos,brand:wikidata:Q7124466,brand:wikipedia:pt:Pague Menos,healthcare:pharmacy","lat":-12.9698963,"lng":-38.4745004},{"id":"5656891821","name":"Viva Gula","tags":"amenity:cafe","lat":-12.970885,"lng":-38.4745268},{"id":"5657218774","name":"Oliva","tags":"amenity:restaurant","lat":-12.9705458,"lng":-38.4741833},{"id":"5657218780","name":"Caixa Econômica Federal","tags":"amenity:bank,atm:yes,brand:Caixa Econômica Federal,brand:wikidata:Q835283,brand:wikipedia:pt:Caixa Econômica Federal","lat":-12.9707671,"lng":-38.4747239},{"id":"6171434211","name":"Madame Ladoux","tags":"amenity:cafe,cuisine:french;coffee","lat":-12.9704335,"lng":-38.474307},{"id":"6173077353","name":"Hub Coffee Beer","tags":"amenity:cafe","lat":-12.9705226,"lng":-38.4743941},{"id":"9865774414","name":"Pizza Hut","tags":"amenity:restaurant,brand:Pizza Hut,brand:wikidata:Q191615,cuisine:pizza","lat":-12.9704148,"lng":-38.4746621},{"id":"9865774415","name":"Oliva Garden","tags":"amenity:restaurant","lat":-12.9702399,"lng":-38.4742933},{"id":"9911700395","name":"Blancos","tags":"amenity:restaurant,contact:instagram:https://www.instagram.com/blancos.salvador,cuisine:mexican","lat":-12.9711124,"lng":-38.4745192}]