[{"id":"4046927854","name":"Escola Municipal Luiza Mahin","tags":"amenity:school","lat":-12.9853601,"lng":-38.4374813},{"id":"4054823765","name":"Caixa Econômica Federal","tags":"amenity:bank,atm:yes,brand:Caixa Econômica Federal,brand:wikidata:Q835283,brand:wikipedia:pt:Caixa Econômica Federal","lat":-12.9845922,"lng":-38.4363306},{"id":"4054835126","name":"Reino Animal","tags":"shop:pet","lat":-12.9821435,"lng":-38.4363109},{"id":"4255537209","name":"Tchê Picanha","tags":"amenity:restaurant","lat":-12.9844319,"lng":-38.4371269},{"id":"5323083487","tags":"amenity:restaurant","lat":-12.9819784,"lng":-38.4351916},{"id":"9082069517","name":"Drogasil","tags":"amenity:pharmacy,brand:Drogasil,brand:wikidata:Q5308185,brand:wikipedia:pt:Drogasil,healthcare:pharmacy,wheelchair:yes","lat":-12.9844718,"lng":-38.4382704},{"id":"9082069617","name":"Pra Petz","tags":"shop:pet","lat":-12.9814317,"lng":-38.440192}]