[{"id":"4058901875","name":"Farmácias Multmais","tags":"amenity:pharmacy","lat":-12.9718773,"lng":-38.4202358},{"id":"4058901876","name":"Mercado da Família","tags":"shop:supermarket","lat":-12.9716197,"lng":-38.4204914},{"id":"4058901877","name":"Drogaria São Paulo","tags":"amenity:pharmacy","lat":-12.9701013,"lng":-38.4216374},{"id":"4254442571","name":"Wizard","tags":"amenity:school,training:language","lat":-12.9693878,"lng":-38.424739},{"id":"5158087921","name":"Sabor do Sul","tags":"amenity:restaurant,diet:vegetarian:yes,opening_hours:PH,Mo-Su 18:00-23:00","lat":-12.9728249,"lng":-38.4295968},{"id":"5730233566","name":"Ganesha Espaço Vegetariano","tags":"amenity:restaurant,delivery:yes,diet:vegan:yes,diet:vegetarian:only,instagram:https://www.instagram.com/ganesha.gourmet_/,phone:+55 71 992894422,takeaway:yes","lat":-12.9747241,"lng":-38.4194648},{"id":"6225147731","name":"Petiscos Tânia - Bar e Restaurante","tags":"amenity:restaurant","lat":-12.9694052,"lng":-38.4243633},{"id":"7231335267","tags":"shop:supermarket","lat":-12.9706297,"lng":-38.4217526},{"id":"7231335268","name":"Agromix","tags":"shop:pet","lat":-12.9702192,"lng":-38.4221331},{"id":"9893980782","name":"Bode na Brasa","tags":"amenity:restaurant,check_date:2022-07-17","lat":-12.9732068,"lng":-38.4197932}]