[{"id":"622395251","name":"Bem Bom","tags":"amenity:restaurant","lat":-12.9755722,"lng":-38.5026856},{"id":"626795989","name":"Manu","tags":"amenity:pharmacy,healthcare:pharmacy","lat":-12.9793817,"lng":-38.499896},{"id":"4514402754","tags":"addr:city:Salvador,addr:street:Avenida Joana Angélica,addr:suburb:Nazaré,leisure:fitness_centre","lat":-12.9783635,"lng":-38.5064896},{"id":"6746985500","name":"Capim Guiné","tags":"addr:street:Av Joana Angelica,amenity:restaurant","lat":-12.9760659,"lng":-38.503332},{"id":"6855035885","name":"CEEP Severino Vieira","tags":"amenity:school","lat":-12.9752885,"lng":-38.5026056},{"id":"7194103256","name":"Colégio Aliança","tags":"amenity:school","lat":-12.9777742,"lng":-38.5001667},{"id":"9811346395","name":"Museu do Bahia","tags":"charge:20 BRL,fee:yes,level:8,museum:sport,opening_hours:Tu-Su 10:00-17:00,operator:Esporte Clube Bahia,operator:type:private,start_date:2022-06-11,tourism:museum,website:https://museudobahia.com.br","lat":-12.9799497,"lng":-38.5040796}]