[{"id":"7830511161","name":"Mercadinho Beira Mar","tags":"shop:convenience","lat":-12.8365114,"lng":-38.4756602},{"id":"7830511171","name":"Loja de conveniência (ou mercadinho)","tags":"shop:convenience","lat":-12.8366719,"lng":-38.4755749},{"id":"7830526278","tags":"amenity:restaurant","lat":-12.8364983,"lng":-38.4753796},{"id":"7830642261","name":"Loja de conveniência (ou mercadinho)","tags":"shop:convenience","lat":-12.8340458,"lng":-38.476331},{"id":"7830642266","name":"Mercadinho Santana","tags":"shop:convenience","lat":-12.8338483,"lng":-38.4763082},{"id":"7830642273","name":"Escola Municipal Fernando Presídio","tags":"amenity:school","lat":-12.8337087,"lng":-38.4757023},{"id":"7830642282","name":"Creche e Pré-escola Primeiro Passo Tubarão","tags":"amenity:school","lat":-12.8341568,"lng":-38.4752168}]