[{"id":"2811186997","name":"Escola Estadual Otávio Mangabeira","tags":"amenity:school","lat":-12.960079,"lng":-38.4482732},{"id":"6414961616","name":"Centro Comunitario","tags":"leisure:park","lat":-12.9628456,"lng":-38.4476077},{"id":"6414961617","name":"Restaurante Corumbamba","tags":"amenity:restaurant,cuisine:regional","lat":-12.9593899,"lng":-38.4489166},{"id":"10246727465","name":"Assaí Atacadista","tags":"addr:housenumber:119,addr:street:Rua Silveira Martins,brand:Assaí Atacadista,brand:wikidata:Q28679415,shop:supermarket","lat":-12.959784,"lng":-38.4511787},{"id":"10246727466","name":"Drogaria São Paulo","tags":"amenity:pharmacy,brand:Drogaria São Paulo,brand:wikidata:Q5308184,healthcare:pharmacy","lat":-12.9599035,"lng":-38.449921},{"id":"10246727468","name":"Alpha Fitness","tags":"addr:housenumber:9,addr:street:Alameda Zulmira Ferreira,leisure:fitness_centre,phone:+55 71 32486714","lat":-12.9602706,"lng":-38.4500437}]