[{"id":"7830697861","name":"Mercearia Luz","tags":"shop:convenience","lat":-12.8361066,"lng":-38.4725642},{"id":"7830824025","name":"Mercearia do Neilton","tags":"shop:convenience","lat":-12.837227,"lng":-38.472863},{"id":"7833402503","name":"Loja de conveniência (ou mercadinho)","tags":"shop:convenience","lat":-12.8326665,"lng":-38.4725904},{"id":"7833402513","name":"Restaurante El-Shaday","tags":"amenity:restaurant","lat":-12.8327459,"lng":-38.4725073},{"id":"7833402526","name":"Supermercado o Baratão","tags":"shop:convenience","lat":-12.8330099,"lng":-38.4722754},{"id":"7833536694","name":"Farmácia Bahia","tags":"amenity:pharmacy,dispensing:yes,healthcare:pharmacy","lat":-12.8335448,"lng":-38.472068},{"id":"7833536699","name":"Mercadinho Primos","tags":"shop:convenience","lat":-12.8336967,"lng":-38.4719964}]