[{"id":"1315116740","name":"Clube Itapagipano de judô","tags":"addr:housename:Ciro judô,addr:housenumber:15,addr:street:Rua Otavio Barreto,alt_name:Ciro judô,int_name:Itapagipano Judo Club,leisure:sports_centre,sport:judo","lat":-12.9238841,"lng":-38.5062754},{"id":"7574275917","name":"Anabio Mercearia","tags":"shop:convenience","lat":-12.9211225,"lng":-38.5006901},{"id":"7574275918","name":"Merceária José da Silva Boaventura","tags":"shop:convenience","lat":-12.9214181,"lng":-38.5006818},{"id":"7574275919","name":"Mercadinho Santana","tags":"shop:convenience","lat":-12.9217196,"lng":-38.5003883},{"id":"7574275920","name":"Mercadinho Boas Compras","tags":"shop:convenience","lat":-12.9220765,"lng":-38.4990412},{"id":"7574275921","name":"Mercadinho Ki Preço","tags":"shop:convenience","lat":-12.9220298,"lng":-38.4986921},{"id":"7574275922","name":"Mercado Boas Compras","tags":"shop:convenience","lat":-12.9215329,"lng":-38.498396},{"id":"7574275923","name":"Mercadinho São Jorge","tags":"shop:convenience","lat":-12.9215207,"lng":-38.4981691},{"id":"7574275924","name":"Mercadinho Dedan","tags":"shop:convenience","lat":-12.9209407,"lng":-38.4974115},{"id":"7574275925","name":"Mercadinho Massaranduba","tags":"shop:convenience","lat":-12.9221708,"lng":-38.4977536},{"id":"7574275926","name":"Mercadinho Almeida","tags":"shop:convenience","lat":-12.9229375,"lng":-38.4969232},{"id":"7574275927","name":"Mercadinho Casa das Baianas","tags":"shop:convenience","lat":-12.9245504,"lng":-38.5004803},{"id":"7574275928","name":"Mercadinho Hortifuti do limão","tags":"shop:convenience","lat":-12.9242634,"lng":-38.4995585},{"id":"7574275929","name":"Mercadinho Compare","tags":"shop:convenience","lat":-12.923533,"lng":-38.4982994},{"id":"7574275930","name":"Mercadinho Félix","tags":"shop:convenience","lat":-12.924939,"lng":-38.4981103},{"id":"7745498520","name":"FARMÁCIA BETEL","tags":"amenity:pharmacy","lat":-12.9210827,"lng":-38.4976529},{"id":"7745498521","name":"FARMACIA BETEL","tags":"amenity:pharmacy","lat":-12.9212457,"lng":-38.497754},{"id":"7750049319","name":"Farmácia de Esquina","tags":"amenity:pharmacy,dispensing:yes,healthcare:pharmacy","lat":-12.9238563,"lng":-38.5057863},{"id":"8063673569","name":"Feijoada da Liliu","tags":"addr:city:Salvador- Ba,addr:postcode:40415-440,addr:street:Rua Travasso de Fora,amenity:restaurant,cuisine:regional","lat":-12.9241607,"lng":-38.5065573},{"id":"8880700917","tags":"amenity:atm,operator:Banco 24 Horas","lat":-12.9201243,"lng":-38.500927},{"id":"9293380772","name":"Casa da Chef","tags":"amenity:restaurant","lat":-12.9223495,"lng":-38.5057763},{"id":"9906065067","name":"Crossfit Ekos","tags":"check_date:2022-07-23,leisure:fitness_centre","lat":-12.9223396,"lng":-38.5056988}]