[{"id":"7221725317","tags":"amenity:atm,cash_in:yes,covered:yes,currency:BRL:yes,drive_through:no,indoor:yes,network:24 Horas,operator:Caixa 24 Horas,wheelchair:yes","lat":-12.9725743,"lng":-38.5032571},{"id":"7221725318","name":"Farmácia Pague Menos","tags":"addr:city:Salvador,addr:housenumber:6,addr:postcode:40296520,addr:street:Praça Conselheiro Almeida Couto,addr:suburb:Nazaré,air_conditioning:yes,opening_hours:Mo-Su 07:00-22:00,operator:Pague Menos,payment:cash:yes,payment:credit_cards:yes,payment:debit_cards:yes,shop:chemist","lat":-12.9723337,"lng":-38.5033628},{"id":"7221725321","tags":"access:customers,amenity:parking,capacity:50,covered:no,operator:Instituto Brasileiro de Geografia e Estatística,operator:type:government,parking:surface,supervised:no,surface:asphalt,wheelchair:limited","lat":-12.9730708,"lng":-38.504206},{"id":"7252930096","name":"Massa Show","tags":"amenity:restaurant","lat":-12.9713233,"lng":-38.5005312},{"id":"8072446475","tags":"amenity:post_office","lat":-12.969425,"lng":-38.4971699}]