[{"id":"956868405","name":"Pague Menos","tags":"amenity:pharmacy,brand:Pague Menos,brand:wikidata:Q7124466,brand:wikipedia:pt:Pague Menos,dispensing:yes,healthcare:pharmacy","lat":-12.9688567,"lng":-38.4255706},{"id":"4058899039","name":"ISEC Facsal","tags":"amenity:university","lat":-12.9693382,"lng":-38.4223994},{"id":"4255537200","name":"Pizza Nostra","tags":"amenity:restaurant","lat":-12.9687467,"lng":-38.4297142},{"id":"4527248860","name":"Depila tudo","tags":"beauty:nails,shop:beauty","lat":-12.9686935,"lng":-38.4299564},{"id":"8231862791","name":"comida caseira","tags":"amenity:restaurant","lat":-12.9686566,"lng":-38.4275851},{"id":"8231882482","tags":"shop:convenience","lat":-12.9686619,"lng":-38.4279181},{"id":"8232756361","tags":"shop:convenience","lat":-12.9685678,"lng":-38.4282214},{"id":"9893980781","name":"Mais Farma","tags":"amenity:pharmacy,check_date:2022-07-17,healthcare:pharmacy","lat":-12.9684693,"lng":-38.4260215},{"id":"10145027615","name":"Banco24Horas","tags":"amenity:atm,brand:Banco24Horas,brand:wikidata:Q4854069,cash_in:no","lat":-12.9686238,"lng":-38.4258103}]