[{"id":"4517541690","name":"Correios","tags":"amenity:post_office,brand:Correios,brand:wikidata:Q3375004,brand:wikipedia:en:Correios","lat":-12.8671067,"lng":-38.4766841},{"id":"6655841377","name":"Lan house","tags":"addr:city:periperi,addr:postcode:40725-610,addr:street:Rua Carlos Gomes,addr:suburb:salvador,leisure:park,opening_hours:07:00-19:00,operator:ML.Informatica","lat":-12.8689242,"lng":-38.4752494},{"id":"7169613517","tags":"addr:street:Rua Demosienes Nascimento,opening_hours:24/7,shop:supermarket","lat":-12.8671064,"lng":-38.4747217},{"id":"10316767891","name":"Drogaria São Paulo","tags":"amenity:pharmacy,brand:Drogaria São Paulo,brand:wikidata:Q5308184,healthcare:pharmacy","lat":-12.8666547,"lng":-38.476178},{"id":"10316864590","tags":"amenity:pharmacy,healthcare:pharmacy","lat":-12.8665189,"lng":-38.4752795}]