[{"id":"1148695646","name":"Bar do Ulysses","tags":"amenity:restaurant","lat":-12.9636533,"lng":-38.5041639},{"id":"2694140162","name":"Bar Bela Vista (Seu Domingos)","tags":"addr:city:Salvador,addr:housenumber:portão 2-f,addr:street:Escadaria da Chácara Santo Antônio,amenity:bar","lat":-12.9628158,"lng":-38.5036753},{"id":"4688264390","tags":"amenity:bus_station","lat":-12.9614415,"lng":-38.5068736},{"id":"5002123499","name":"Nossa Terra","tags":"addr:street:Rua Emídio dos Santos,amenity:restaurant,capacity:20,cuisine:regional,delivery:no,outdoor_seating:yes,takeaway:yes","lat":-12.9636461,"lng":-38.5008768},{"id":"7252931039","name":"Antoniu's","tags":"amenity:restaurant","lat":-12.9638318,"lng":-38.5036792},{"id":"7975260364","name":"Casa de Pedra Bar e Restaurante","tags":"amenity:restaurant,phone:+557132416468","lat":-12.9625789,"lng":-38.5011464},{"id":"7996314062","name":"Escola Maria Montesori","tags":"addr:city:Salvador,addr:housenumber:2,addr:postcode:40301200,addr:street:Rua Clinio de Jesus,addr:suburb:Barbalho,amenity:school,grades:0-6,phone:+55713242-8057,website:http://escolamariamontessori.com.br/","lat":-12.9635488,"lng":-38.4984736},{"id":"9140719566","name":"Museu do Mar Aleixo Belov","tags":"addr:street:Largo de Santo Antônio,description:Aleixo Belov's collection,description:pt:Acervo do navegador Aleixo Belov,fee:yes,museum:person,name:en:Sea Museum Aleixo Belov,opening_hours:Tu-Su 10:00-18:00,operator:Fundação Aleixo Belov,operator:type:private,planned:2021-11-04,subject:wikidata:Q16336289,tourism:museum,website:https://fundacaoaleixobelov.org.br,wheelchair:yes,wikidata:Q110098604","lat":-12.9636878,"lng":-38.5038471},{"id":"9337515843","name":"Yolo Coffee Bar","tags":"amenity:cafe,outdoor_seating:yes","lat":-12.9636114,"lng":-38.503952},{"id":"9821192117","name":"Allê","tags":"amenity:restaurant,contact:instagram:allevarandabar,cuisine:mediterranean,opening_hours:We-Fr 16:00-23:00; Sa,Su 13:00-21:00,survey:date:2022-06-15,wheelchair:no","lat":-12.9634268,"lng":-38.5041322}]