[{"id":"5446601121","name":"Lôro - Stella Maris","tags":"amenity:restaurant","lat":-12.9348573,"lng":-38.3257466},{"id":"5895101359","tags":"amenity:restaurant","lat":-12.9309706,"lng":-38.3224761},{"id":"6828437925","name":"Beach Stop - Stella Maris","tags":"amenity:restaurant","lat":-12.9328283,"lng":-38.3287728},{"id":"6828437929","name":"Rock Dog Salvador","tags":"amenity:restaurant","lat":-12.9353395,"lng":-38.3299124},{"id":"6828437930","name":"BARBARO'S YAKIBURGER","tags":"amenity:restaurant","lat":-12.9349808,"lng":-38.3298628},{"id":"6828644955","name":"Aquarius","tags":"amenity:restaurant","lat":-12.9361808,"lng":-38.327068},{"id":"6855650966","name":"Colégio Omega","tags":"amenity:school","lat":-12.9361173,"lng":-38.3307212}]