[{"id":"624832927","tags":"amenity:parking","lat":-12.9360536,"lng":-38.3949267},{"id":"5153907723","name":"Hiper Ideal","tags":"shop:supermarket,website:https://hiperideal.com.br","lat":-12.9359812,"lng":-38.394445},{"id":"5550749529","name":"Caixa Econômica Federal","tags":"amenity:bank,brand:Caixa Econômica Federal,brand:wikidata:Q835283,brand:wikipedia:pt:Caixa Econômica Federal","lat":-12.9361432,"lng":-38.3946104},{"id":"5551632522","name":"Banco24Horas","tags":"amenity:atm,brand:Banco24Horas,brand:wikidata:Q4854069,brand:wikipedia:pt:Banco24Horas,operator:Banco 24 Horas","lat":-12.9359559,"lng":-38.3946137},{"id":"5551632523","name":"Nachos","tags":"amenity:restaurant,cuisine:mexican","lat":-12.9363542,"lng":-38.3946534},{"id":"9326793818","name":"Rei do Mate","tags":"amenity:cafe,brand:Rei do Mate,brand:wikidata:Q7309875,brand:wikipedia:pt:Rei do Mate,cuisine:tea,takeaway:yes","lat":-12.9360262,"lng":-38.39467}]