[{"id":"2641671402","name":"Santa Luzia","tags":"description:Estação desativada devido a construção do monotrilho sobre o leito ferroviário,public_transport:station,railway:station","lat":-12.9329965,"lng":-38.4886545},{"id":"7574275961","name":"Mercadinho Hortifruti","tags":"shop:convenience","lat":-12.9350221,"lng":-38.4957546},{"id":"7574275962","name":"Mercadinho Uruguai","tags":"shop:convenience","lat":-12.9353469,"lng":-38.4955717},{"id":"7574275963","name":"Mercadinho","tags":"shop:convenience","lat":-12.9355211,"lng":-38.4953688},{"id":"7574275964","name":"Mercadinho Vai e Vem","tags":"shop:convenience","lat":-12.9357443,"lng":-38.4950423}]