[{"id":"2592859428","name":"Drogasil","tags":"addr:city:Lauro de Freitas,addr:housename:Drogasil,addr:housenumber:2500,addr:street:BA-099 (Estrada do Coco),amenity:pharmacy,brand:Drogasil,brand:wikidata:Q5308185,brand:wikipedia:pt:Drogasil,healthcare:pharmacy,wheelchair:yes","lat":-12.8767201,"lng":-38.3083761},{"id":"2613390978","name":"Restaurante Cheiro Bom","tags":"addr:city:Lauro de Freitas,amenity:restaurant,internet_access:no","lat":-12.8811814,"lng":-38.3066364},{"id":"2613391539","name":"Banco do Brasil","tags":"addr:city:Lauro de Freitas,amenity:bank,atm:yes,brand:Banco do Brasil,brand:wikidata:Q610817,brand:wikipedia:en:Banco do Brasil","lat":-12.8811236,"lng":-38.3070564},{"id":"2613391950","name":"Pague Menos","tags":"addr:city:Lauro de Freitas,amenity:pharmacy,brand:Pague Menos,brand:wikidata:Q7124466,brand:wikipedia:pt:Pague Menos,healthcare:pharmacy","lat":-12.8811109,"lng":-38.3054492},{"id":"2613400605","name":"Santander","tags":"addr:city:Lauro de Freitas,addr:housenumber:33,addr:street:Rua Praia de Arembepe,amenity:bank,atm:yes,brand:Santander,brand:wikidata:Q5835668,brand:wikipedia:en:Santander Bank","lat":-12.8809609,"lng":-38.3056727}]