[{"id":"3264593089","tags":"leisure:sports_centre,sport:basketball","lat":-12.7161514,"lng":-38.3192506},{"id":"3264602788","name":"Churascão","tags":"shop:supermarket","lat":-12.71167,"lng":-38.3199616},{"id":"3264613981","name":"Praça da Piacaveira","tags":"leisure:park","lat":-12.715615,"lng":-38.3186176},{"id":"3269803001","name":"Chame Pizza & Central do Camarão","tags":"addr:city:Camaçari,addr:housenumber:11 A,addr:postcode:42802-190,addr:street:Via Piaçaveira,amenity:restaurant,cuisine:italian_pizza,delivery:yes,opening_hours:17:00 - 23:30,phone:+55 71 3621-1966,takeaway:yes","lat":-12.7159037,"lng":-38.3198096},{"id":"3269810540","name":"Rahinha da Pizza","tags":"addr:city:Camaçari,addr:housenumber:86,addr:postcode:42802-190,addr:street:Via Piacaveira,amenity:restaurant","lat":-12.7160894,"lng":-38.3196754},{"id":"3269817507","name":"Boa Farma","tags":"amenity:pharmacy","lat":-12.7146013,"lng":-38.3175129},{"id":"3269817508","name":"Mercadinho Ideal","tags":"shop:supermarket","lat":-12.7146426,"lng":-38.317527},{"id":"4703720411","name":"Churrascaria e Pizzaria Champions Barbecue","tags":"amenity:restaurant","lat":-12.7163226,"lng":-38.3191273},{"id":"5173060121","name":"Restaurante Fulô","tags":"amenity:restaurant,opening_hours:Tu-Su 11:00-23:00,phone:+55 71 98879-8766,website:https://www.facebook.com/fulorestaurante/menu/","lat":-12.7115695,"lng":-38.3201978},{"id":"5378808220","name":"Vila do Açaí","tags":"amenity:restaurant","lat":-12.7115389,"lng":-38.3201021},{"id":"5378860721","name":"Sr. Banana Açai","tags":"amenity:restaurant","lat":-12.7115076,"lng":-38.3199378},{"id":"5379017028","name":"Pastel Time","tags":"amenity:restaurant","lat":-12.7115872,"lng":-38.3203025},{"id":"5379079949","name":"Pizzaria e Restaurante Bella Italia","tags":"amenity:restaurant","lat":-12.711666,"lng":-38.3193476},{"id":"6515772767","name":"Biroska","tags":"amenity:bar","lat":-12.711435,"lng":-38.3189807}]