[{"id":"938575727","name":"Mercado Oliveira","tags":"shop:convenience","lat":-12.7021401,"lng":-38.1339786},{"id":"938575734","name":"Pont do Feijão","tags":"amenity:restaurant","lat":-12.7026539,"lng":-38.1337751},{"id":"1132335299","name":"LAN House","tags":"amenity:cafe,internet_access:terminal","lat":-12.7033804,"lng":-38.1346423},{"id":"1654318731","name":"Escola Municipal de Barra do Jacuípe","tags":"amenity:school","lat":-12.7027431,"lng":-38.1347081},{"id":"4450325364","name":"Mix Bahia","tags":"shop:supermarket","lat":-12.7040734,"lng":-38.1344152}]