[{"id":"2788097603","name":"Supermercado Boa União","tags":"addr:city:Anguera,addr:postcode:44670-000,addr:street:Rua Jackson Amauri,operator:Arivaldo Teles Sousa,phone:+55 75 3239-2099,shop:supermarket,website:https://www.facebook.com/pages/Supermercado-Boa-Uni%C3%A3o/806818322668589","lat":-12.1517812,"lng":-39.2470944},{"id":"2789150347","name":"Primeira Igreja Batista de Anguera","tags":"addr:city:Anguera,addr:postcode:44.670-000,addr:street:Rua Jackson do Amauri,building:church,building:levels:-3","lat":-12.1514194,"lng":-39.246885},{"id":"2789586813","name":"Farmácia Vieira","tags":"addr:city:Anguera,addr:postcode:44.670-000,addr:street:Rua Jackson do Amauri,amenity:pharmacy,healthcare:pharmacy","lat":-12.1512405,"lng":-39.2462891},{"id":"2795343998","tags":"amenity:police","lat":-12.151932,"lng":-39.2461486},{"id":"5714645151","tags":"addr:city:Anguera,addr:postcode:44.670-000,addr:street:Rua Jackson do Amauri,shop:supermarket","lat":-12.1514368,"lng":-39.2473336}]