[{"id":"1754375998","name":"Kabana's Bar","tags":"addr:street:Rua Frei Aureliano Grotamares,amenity:nightclub,phone:+55 75 3625-8850","lat":-12.2573221,"lng":-38.9454403},{"id":"1754375999","name":"Kitas Pizza","tags":"addr:housenumber:52,addr:street:Rua Frei Aureliano Grotamares,amenity:restaurant,cuisine:pizza,opening_hours:Tu-Th 18:00-22:30; Fr-Su 18:00-23:30,phone:+55 75 3616-1820,website:https://kitaspizza.com.br/","lat":-12.2563172,"lng":-38.945214},{"id":"1780340332","name":"Behrmann","tags":"amenity:restaurant","lat":-12.2600502,"lng":-38.9443187},{"id":"1780340334","name":"Body Work","tags":"leisure:sports_centre","lat":-12.2602187,"lng":-38.9441314},{"id":"1780340348","name":"Cortiço Drinks","tags":"amenity:bar","lat":-12.2585249,"lng":-38.9442335},{"id":"1780340362","name":"Filozophia","tags":"addr:housenumber:793,addr:street:Rua São Domingos,amenity:bar","lat":-12.2573349,"lng":-38.9442069},{"id":"1780340368","name":"Johnnie Club","tags":"amenity:nightclub","lat":-12.2604435,"lng":-38.9441318},{"id":"1780340377","name":"Faenza","tags":"addr:housenumber:639,addr:street:Rua São Domingos,amenity:restaurant","lat":-12.2590984,"lng":-38.9442721},{"id":"1780340380","name":"Paradinha Pastelaria","tags":"addr:street:Rua São Domingos,amenity:restaurant,cuisine:regional","lat":-12.2573401,"lng":-38.9440245},{"id":"1780340384","name":"Pepperoni","tags":"amenity:restaurant,cuisine:pizza,phone:+55 75 3625-6210","lat":-12.2580322,"lng":-38.9440565},{"id":"1780354124","name":"Ao Vento","tags":"amenity:restaurant","lat":-12.2585404,"lng":-38.9440668},{"id":"1780354125","name":"Teriyaki","tags":"amenity:restaurant,cuisine:sushi","lat":-12.2576335,"lng":-38.9440346},{"id":"1780986138","name":"Saigon","tags":"addr:housenumber:340,amenity:restaurant,cuisine:chinese,phone:+55 75 3622-6633,website:https://www.saigonrestaurante.com.br/","lat":-12.2583334,"lng":-38.944842},{"id":"1828162201","name":"Getúlio","tags":"shop:supermarket","lat":-12.2562073,"lng":-38.9391234},{"id":"1899164762","name":"14 Bis","tags":"addr:housenumber:2120,addr:street:Avenida Getúlio Vargas,amenity:bar","lat":-12.2556061,"lng":-38.9454236},{"id":"1899164768","name":"Farmácia da Economia","tags":"addr:street:Avenida Getúlio Vargas,amenity:pharmacy,dispensing:yes","lat":-12.2560933,"lng":-38.9447906},{"id":"1937059255","name":"Fórmula Academia","tags":"leisure:fitness_centre,sport:gymnastics","lat":-12.2556834,"lng":-38.9428776},{"id":"1937059259","name":"La Pasta Place","tags":"amenity:restaurant","lat":-12.2579082,"lng":-38.943256},{"id":"1937059262","name":"Livraria Nobel","tags":"shop:books,wheelchair:yes","lat":-12.2556731,"lng":-38.9430168},{"id":"2037591260","name":"Sashimi","tags":"amenity:restaurant,cuisine:sushi","lat":-12.2581953,"lng":-38.9440547},{"id":"2047303668","name":"Boteco do Camarão","tags":"amenity:bar","lat":-12.2586574,"lng":-38.9442431},{"id":"2097389969","name":"Espaço Cultural Chão de Estrelas","tags":"amenity:nightclub","lat":-12.2561936,"lng":-38.9452131},{"id":"2172294084","name":"W.fit","tags":"leisure:sports_centre","lat":-12.2559028,"lng":-38.9370122},{"id":"2172294089","name":"Gil","tags":"shop:supermarket","lat":-12.255921,"lng":-38.9363671},{"id":"2407005338","name":"Atlântica","tags":"shop:books","lat":-12.2562625,"lng":-38.9387236},{"id":"2407005345","name":"Caixa","tags":"amenity:bank,atm:yes,operator:Caixa","lat":-12.2559093,"lng":-38.9365924},{"id":"2407005352","name":"China Home","tags":"amenity:restaurant,cuisine:chinese","lat":-12.2562331,"lng":-38.9395851},{"id":"2407005389","name":"Gauchão","tags":"addr:city:Feira de Santana,amenity:restaurant,phone:+55 75 3622-1415","lat":-12.2562209,"lng":-38.9411105},{"id":"2407005406","name":"Maximello","tags":"amenity:cafe","lat":-12.2562228,"lng":-38.9399846},{"id":"2407005408","name":"O Bicho","tags":"amenity:veterinary,shop:pet","lat":-12.2562156,"lng":-38.9418302},{"id":"2407005430","tags":"amenity:atm,operator:Caixa","lat":-12.2562231,"lng":-38.9400747},{"id":"2407005450","name":"Água na Boca","tags":"amenity:restaurant,cuisine:pizza","lat":-12.2557379,"lng":-38.9415066},{"id":"2441050766","name":"Kero Pizza","tags":"amenity:restaurant","lat":-12.2568758,"lng":-38.9439961},{"id":"3999591053","name":"Clínica Deborah Duarte","tags":"shop:beauty","lat":-12.2562479,"lng":-38.9412658},{"id":"6993700485","name":"Colégio Lírio dos Vales","tags":"addr:street:Avenida Getúlio Vargas,amenity:school,name:en:Lírio dos Vales School,opening_hours:Mo-Fr 07:00-18:00","lat":-12.2559635,"lng":-38.9357941}]