[{"id":"1014157096","name":"EMEC","tags":"addr:housenumber:1186,addr:street:Avenida Getúlio Vargas,amenity:hospital,emergency:yes,wheelchair:yes","lat":-12.2552293,"lng":-38.9541605},{"id":"1119530266","name":"Silva","tags":"amenity:pharmacy,dispensing:yes","lat":-12.2551556,"lng":-38.9565012},{"id":"1119530269","name":"Itaú","tags":"amenity:bank,atm:yes,wheelchair:yes","lat":-12.2551595,"lng":-38.955373},{"id":"1145406157","name":"Ki Mukeka","tags":"amenity:restaurant,cuisine:regional","lat":-12.2551194,"lng":-38.9559322},{"id":"1218409311","name":"Alla Spina","tags":"addr:housenumber:47,addr:street:Rua Equador,amenity:restaurant,cuisine:italian","lat":-12.254884,"lng":-38.9561663},{"id":"1297628402","name":"Spacca Napoli","tags":"amenity:restaurant,cuisine:italian","lat":-12.2548982,"lng":-38.956521},{"id":"1749548109","name":"Seu Zé Lounge Bar","tags":"addr:housenumber:362,amenity:bar","lat":-12.2518999,"lng":-38.9531356},{"id":"1759229890","tags":"amenity:restaurant,cuisine:pizza","lat":-12.2513676,"lng":-38.9569025},{"id":"1759229900","name":"Amarelo Gema","tags":"addr:city:feira de santana,addr:street:Rua Aristides Novis,addr:suburb:kalilândia,amenity:restaurant","lat":-12.2537735,"lng":-38.9572243},{"id":"1781582321","name":"Pague Menos","tags":"amenity:pharmacy,brand:Pague Menos,brand:wikidata:Q7124466,healthcare:pharmacy","lat":-12.2498175,"lng":-38.9541368},{"id":"1823580627","name":"Flor Maracujá","tags":"amenity:restaurant,cuisine:regional","lat":-12.253634,"lng":-38.9562806},{"id":"1823580631","tags":"amenity:restaurant,cuisine:pizza","lat":-12.2545793,"lng":-38.9506682},{"id":"1905900179","name":"Jeca Total","tags":"amenity:bar","lat":-12.2541288,"lng":-38.9477939},{"id":"1945385240","name":"Stop Nil","tags":"addr:housenumber:134,addr:street:Rua Osvaldo Cruz,amenity:restaurant","lat":-12.2518661,"lng":-38.9562343},{"id":"1945385242","name":"Wasabi","tags":"addr:city:feira de santana,addr:street:Rua Boticário Moncorvo,addr:suburb:kalilândia,amenity:restaurant,phone:+55 75 3623-0151","lat":-12.2538372,"lng":-38.9561777},{"id":"1945385244","name":"Red Hashi","tags":"addr:city:Feira de Santana,addr:housenumber:157,addr:street:Rua Osvaldo Cruz,addr:suburb:Kalilândia,amenity:restaurant,cuisine:asian,phone:+55 75 3626-0478,wheelchair:yes","lat":-12.2520389,"lng":-38.9564275},{"id":"2010627579","tags":"amenity:bar","lat":-12.2548003,"lng":-38.9477866},{"id":"2042128463","name":"Unique Cafe Lounge","tags":"amenity:cafe","lat":-12.2539738,"lng":-38.9561723},{"id":"2063479776","name":"Piatto","tags":"amenity:restaurant","lat":-12.2549768,"lng":-38.9572515},{"id":"2187916510","name":"Aprisco","tags":"addr:city:Feira de Santana,addr:suburb:Ponto Central,amenity:restaurant,cuisine:pizza,phone:+55 75 3625-0849","lat":-12.2525652,"lng":-38.9542488},{"id":"2187916511","name":"Bambino","tags":"amenity:hospital","lat":-12.2539423,"lng":-38.9543587},{"id":"2187916515","name":"Drogasil","tags":"amenity:pharmacy,dispensing:yes","lat":-12.2520707,"lng":-38.9543019},{"id":"2187916517","name":"Farmácia Silva","tags":"amenity:pharmacy,dispensing:yes","lat":-12.2543719,"lng":-38.9543711},{"id":"2187916527","name":"Oxente Menina","tags":"addr:housenumber:810,addr:street:Rua Doutor Sabino Silva,amenity:restaurant,cuisine:pizza","lat":-12.251854,"lng":-38.9550677},{"id":"2187916531","name":"Tao Kuan","tags":"leisure:sports_centre,sport:multi","lat":-12.253237,"lng":-38.9574396},{"id":"2384524971","name":"Posto 9 Academia","tags":"leisure:sports_centre","lat":-12.2518418,"lng":-38.9552548},{"id":"2392177380","name":"Bate Papo","tags":"amenity:restaurant","lat":-12.2515645,"lng":-38.9547115},{"id":"2619279173","name":"Boteco Vip","tags":"amenity:bar","lat":-12.255247,"lng":-38.9492342},{"id":"2621033109","name":"Colégio Gênesis","tags":"addr:housenumber:212,addr:street:Rua Prudente de Morais,amenity:school,website:http://www.colegiogenesis.com.br","lat":-12.2549208,"lng":-38.9469179},{"id":"6324300729","name":"Nutrimar Kalilândia","tags":"addr:city:feira de santana,addr:housenumber:703,addr:postcode:44001-304,addr:street:Rua Boticário Moncorvo,addr:suburb:kalilândia,opening_hours:Mo 08:00-12:00,14:00-18:00; Tu-Fr 07:30-12:00,14:00-18:00; Sa 07:30-13:00,payment:american_express:yes,payment:cash:yes,payment:credit_cards:yes,payment:debit_cards:yes,payment:diners_club:yes,payment:maestro:yes,payment:mastercard:yes,payment:visa:yes,shop:supermarket","lat":-12.2536651,"lng":-38.9571004}]