[{"id":"1096875139","name":"Banco do Brasil","tags":"amenity:bank,atm:yes,wheelchair:yes","lat":-12.2552558,"lng":-38.952889},{"id":"1096875154","name":"Negócio da China","tags":"amenity:restaurant,cuisine:regional","lat":-12.2560946,"lng":-38.9549811},{"id":"1096875159","name":"Farmácia do Caroá","tags":"amenity:pharmacy,dispensing:yes","lat":-12.2552941,"lng":-38.9533646},{"id":"1105525440","name":"Silva","tags":"amenity:pharmacy,dispensing:yes","lat":-12.2557658,"lng":-38.9539508},{"id":"1119521700","name":"Instituto de Educação Gastão Guimarães","tags":"addr:street:Avenida Sampaio,alt_name:Gastão,amenity:school","lat":-12.2572769,"lng":-38.9570137},{"id":"1119521713","name":"Point da Massa","tags":"amenity:restaurant","lat":-12.256727,"lng":-38.956006},{"id":"1119524130","name":"Farmácia do Caroá","tags":"amenity:pharmacy,dispensing:yes","lat":-12.2557683,"lng":-38.9540718},{"id":"1119530261","name":"Itaú","tags":"amenity:bank,atm:yes","lat":-12.25636,"lng":-38.9549922},{"id":"1119533686","name":"Caixa","tags":"amenity:bank,atm:yes","lat":-12.2561031,"lng":-38.9573048},{"id":"1119533688","name":"Bradesco","tags":"addr:housenumber:971,addr:street:Avenida Getúlio Vargas,amenity:bank,atm:yes","lat":-12.2557781,"lng":-38.9563655},{"id":"1145406159","name":"Hospital Ortopédico","tags":"amenity:hospital","lat":-12.2557951,"lng":-38.9570536},{"id":"1145406160","name":"Farmô","tags":"amenity:pharmacy","lat":-12.2557901,"lng":-38.9572628},{"id":"1145406164","name":"A Fórmula","tags":"amenity:pharmacy","lat":-12.2557899,"lng":-38.9571716},{"id":"1145455663","name":"Banco do Brasil","tags":"amenity:bank,atm:yes,operator:Banco do Brasil,wheelchair:yes","lat":-12.2558738,"lng":-38.9549304},{"id":"1156750459","name":"Ki Mukeka","tags":"amenity:restaurant,cuisine:regional","lat":-12.2558795,"lng":-38.9526461},{"id":"1156750476","name":"Bar Ponto do Zequinha","tags":"amenity:bar","lat":-12.255899,"lng":-38.9519348},{"id":"1156758100","name":"HTO Hospital Geral","tags":"addr:housenumber:1412,addr:street:Avenida Getúlio Vargas,amenity:hospital,emergency:yes","lat":-12.2553543,"lng":-38.9522834},{"id":"1203846010","tags":"addr:housenumber:1376,addr:street:Avenida Presidente Dutra,amenity:post_office,operator:Correios","lat":-12.2601341,"lng":-38.9521426},{"id":"1690483984","name":"Academia Quatro Estilos","tags":"addr:housenumber:338,addr:street:Rua Marechal Castelo Branco,leisure:sports_centre,sport:swimming,wheelchair:limited","lat":-12.2569896,"lng":-38.9483054},{"id":"1731179299","name":"Bacalhau do Mendes","tags":"addr:street:Rua Borborema,amenity:restaurant,cuisine:regional","lat":-12.2581866,"lng":-38.9505732},{"id":"1731179338","name":"Tchin Yen Bao","tags":"addr:city:Feira de Santana,addr:street:Rua Brigadeiro Eduardo Gomes,addr:suburb:Ponto Central,amenity:restaurant,cuisine:chinese","lat":-12.2579965,"lng":-38.9508313},{"id":"1749548108","name":"Banho Maria Cuscuzeria","tags":"addr:street:Rua Juracy Magalhães,amenity:restaurant,cuisine:regional","lat":-12.2586052,"lng":-38.9517677},{"id":"1759231695","name":"Kumon","tags":"amenity:school","lat":-12.2570383,"lng":-38.9517661},{"id":"1782628673","name":"Chalé Catarinense","tags":"amenity:restaurant","lat":-12.257244,"lng":-38.955032},{"id":"1822104870","name":"Boteco do Camarão","tags":"amenity:restaurant,cuisine:regional","lat":-12.2582244,"lng":-38.9480882},{"id":"1822104882","name":"Mercadinho Shaolin","tags":"shop:convenience","lat":-12.2584594,"lng":-38.9480904},{"id":"1823580632","name":"Vanille Caffeterie","tags":"amenity:cafe","lat":-12.2583595,"lng":-38.9480801},{"id":"1905900197","name":"La Pasta Place","tags":"amenity:restaurant,cuisine:italian","lat":-12.2596755,"lng":-38.9526961},{"id":"1905900205","name":"SAC","tags":"amenity:parking,parking:surface,wheelchair:yes","lat":-12.2581435,"lng":-38.9572799},{"id":"1965923225","name":"Drogasil","tags":"addr:street:Avenida Getúlio Vargas,amenity:pharmacy,dispensing:yes","lat":-12.2560251,"lng":-38.9493849},{"id":"2011672460","name":"Swásthya Yôga","tags":"addr:housenumber:77,addr:street:Rua Pinheiro Machado,amenity:school,training:yoga","lat":-12.2566887,"lng":-38.9484859},{"id":"2042128458","name":"Clube do Carro","tags":"amenity:car_wash,automated:no","lat":-12.2564688,"lng":-38.9493756},{"id":"2042167099","name":"Laticínios O Cafezinho","tags":"addr:housenumber:1385,addr:street:Avenida Presidente Dutra,shop:convenience","lat":-12.2606631,"lng":-38.9522428},{"id":"2043010897","name":"Colégio Estadual de Feira de Santana","tags":"amenity:school","lat":-12.2591705,"lng":-38.9553738},{"id":"2044481529","name":"Well Park","tags":"amenity:parking,fee:yes","lat":-12.2564405,"lng":-38.9552222},{"id":"2052820341","tags":"amenity:parking,fee:yes","lat":-12.255968,"lng":-38.9563827},{"id":"2063479785","name":"Farmácia da Economia","tags":"amenity:pharmacy,dispensing:yes","lat":-12.2558575,"lng":-38.9529707},{"id":"2187916516","name":"Espaço Saúde","tags":"shop:convenience","lat":-12.2558366,"lng":-38.9554628},{"id":"2380667932","name":"Central de Combate","tags":"leisure:sports_centre","lat":-12.2573146,"lng":-38.9517551},{"id":"2390928133","name":"Cantina Aprile","tags":"addr:street:Avenida Santo Antônio,amenity:restaurant,cuisine:italian","lat":-12.2598638,"lng":-38.9480087},{"id":"2390928134","name":"Maestro Titta","tags":"addr:street:Avenida Santo Antônio,amenity:restaurant,cuisine:pizza","lat":-12.260063,"lng":-38.9480194},{"id":"2391065417","name":"Casa do Acarajé e Restaurante","tags":"amenity:restaurant,cuisine:regional","lat":-12.2555013,"lng":-38.9472416},{"id":"2391065419","name":"Verd's Frutas","tags":"shop:supermarket","lat":-12.2560255,"lng":-38.9476761},{"id":"2441050765","tags":"amenity:restaurant,cuisine:pizza","lat":-12.2563044,"lng":-38.9480891},{"id":"2459507052","name":"Laine Coiffeur","tags":"shop:beauty","lat":-12.257215,"lng":-38.9493586},{"id":"2459508671","name":"Kanaã - Carnes e Pães","tags":"shop:supermarket","lat":-12.2559967,"lng":-38.9502509},{"id":"2644853226","name":"Restaurante Vitrô","tags":"amenity:restaurant,cuisine:regional","lat":-12.2576014,"lng":-38.9549654},{"id":"2987102304","name":"Camurujipe Encomendas","tags":"amenity:post_office,operator:Camurujipe","lat":-12.2593077,"lng":-38.9573853},{"id":"2987102307","name":"Novo Horizonte Encomendas","tags":"amenity:post_office,operator:Viação Novo Horizonte","lat":-12.259585,"lng":-38.9572874},{"id":"2987102316","name":"Águia Branca Encomendas","tags":"amenity:post_office,operator:Águia Branca","lat":-12.2591625,"lng":-38.957436},{"id":"5140366721","name":"Bar do Roque","tags":"addr:housenumber:71,addr:street:Rua Borborema,amenity:restaurant,cuisine:barbecue;local","lat":-12.2588359,"lng":-38.9506592}]