[{"id":"612558194","tags":"addr:city:Camaçari,addr:street:Rua Senhor do Bomfim,addr:suburb:Monte Gordo,amenity:pharmacy,healthcare:pharmacy,opening_hours:Mo-Fr 08:00-19:00; Sa 08:00-12:00","lat":-12.6427413,"lng":-38.0887328},{"id":"612560922","tags":"amenity:atm","lat":-12.6426277,"lng":-38.0889096},{"id":"613000123","tags":"amenity:restaurant,cuisine:brazilian","lat":-12.6441295,"lng":-38.0834285},{"id":"619006646","name":"Posto Médico de Monte Gordo","tags":"addr:city:Camaçari,addr:street:Rua Senhor do Bomfim,addr:suburb:Monte Gordo,amenity:hospital,healthcare:hospital,opening_hours:24/7","lat":-12.6445228,"lng":-38.0830995},{"id":"626796893","name":"Policia Civil","tags":"amenity:police","lat":-12.6429153,"lng":-38.0855216},{"id":"626797005","tags":"amenity:parking","lat":-12.6424212,"lng":-38.0860252},{"id":"651768290","name":"Galeto do Robson","tags":"amenity:restaurant,cuisine:barbecue","lat":-12.6419434,"lng":-38.0889089},{"id":"760755271","name":"Styles","tags":"shop:beauty","lat":-12.6416508,"lng":-38.0895118},{"id":"1110759300","tags":"shop:convenience","lat":-12.6418247,"lng":-38.0885463},{"id":"1110759304","name":"Casa do Raçao","tags":"amenity:veterinary,shop:pet","lat":-12.6417853,"lng":-38.0886126},{"id":"5039957969","name":"BAR DO CHINA","tags":"addr:city:Monte Gordo,addr:housenumber:0,addr:postcode:42820-000,addr:street:Rua do Ouro,amenity:restaurant,capacity:50,cuisine:regional,delivery:yes,opening_hours:07:00-20:00,smoking:separated,takeaway:no","lat":-12.6404562,"lng":-38.089486},{"id":"5213005512","name":"AGC - Agência Correio Comunitária de Monte Gordo","tags":"addr:city:Camaçari,addr:housenumber:00,addr:postcode:42820-000,addr:street:Rua Senhor do Bomfim,addr:suburb:Monte Gordo,amenity:post_office,opening_hours:Mo-Fr 08:00-16:00","lat":-12.6423763,"lng":-38.0881042}]