[{"id":"5881975479","name":"UBS Rosalina Rosal","tags":"addr:city:Palmeira do Piauí,addr:postcode:64925000,addr:street:Avenida José Luz,addr:suburb:Centro,amenity:hospital,emergency:yes,healthcare:hospital,healthcare:speciality:dentist;general;gynaecology;internal;covid19;cardiology;physiotherapy,operator:Secretaria Municipal de Saúde de Palmeira do Piauí,operator:type:government","lat":-8.7285475,"lng":-44.2319637},{"id":"8867136498","name":"Ginásio Poliesportivo Paulo Gil","tags":"addr:city:Palmeira do Piauí,addr:postcode:64925000,addr:street:Rua Rosalina Rosal,addr:suburb:Cohab II,leisure:sports_centre","lat":-8.7238966,"lng":-44.240501},{"id":"8867136499","name":"Golaço Society Club","tags":"access:permissive,addr:city:Palmeira do Piauí,addr:postcode:64925000,addr:street:Rua Rosalina Rosal,addr:suburb:Cohab II,description:Clube de Festa, Bar, Piscinas, Campo de futebol, Cabanas, Local paisagístico.,leisure:sports_centre,lit:yes,location:indoor","lat":-8.7249393,"lng":-44.2408789},{"id":"8867148482","name":"Espaço Brasileirinho","tags":"addr:city:Palmeira do Piauí,addr:postcode:64925000,addr:street:Rua Padre Raimundo,addr:suburb:Papôco,amenity:restaurant,cuisine:pizza;burger;bebidas,opening_hours:Tu-Th 18:30-23:30,phone:+5589981379285","lat":-8.7254053,"lng":-44.2396306},{"id":"8868966171","name":"Recanto Buriti","tags":"addr:city:Palmeira do Piauí,addr:postcode:64925000,addr:street:Avenida José Luz,addr:suburb:Centro,amenity:restaurant,bar:yes,cuisine:regional;american;ice_cream;beer;drinks,delivery:yes,opening_hours:Mo-Su 10:00-23:00,outdoor_seating:yes,phone:+55 89 98141-8288","lat":-8.7240901,"lng":-44.2362651},{"id":"8868966173","name":"Restaurante Bom Gosto","tags":"addr:city:Palmeira do Piauí,addr:postcode:64925000,addr:street:Avenida José Luz,addr:suburb:Centro,amenity:restaurant,phone:+55 89 98121-7991","lat":-8.7237041,"lng":-44.2366662},{"id":"8868966174","name":"Supermercado Bendito","tags":"addr:city:Palmeira do Piauí,addr:postcode:64925000,addr:street:Avenida José Luz,addr:suburb:Centro,opening_hours:Mo-Sa 08:00-19:00, Su 08:00-12:00,payment:cash:yes,payment:credit_cards:yes,payment:debit_cards:yes,shop:supermarket","lat":-8.7236403,"lng":-44.2367865},{"id":"8868966175","name":"Casas Ribeiro Supermercado","tags":"addr:city:Palmeira do Piauí,addr:postcode:64925000,addr:street:Avenida José Luz,addr:suburb:Centro,opening_hours:Mo-Sa 08:00-18:00,shop:supermarket","lat":-8.7236713,"lng":-44.2370044},{"id":"8868966176","name":"Comercial Jairo","tags":"addr:city:Palmeira do Piauí,addr:postcode:64925000,addr:street:Rua Padre Raimundo,addr:suburb:Centro,opening_hours:Mo-Sa 07:00-18:00,phone:+55 89 98127-9707,shop:supermarket","lat":-8.7234197,"lng":-44.2372555},{"id":"8868966178","name":"Supermercado São Pedro","tags":"addr:city:Palmeira do Piauí,addr:postcode:64925000,addr:street:Avenida José Luz,addr:suburb:Centro,opening_hours:Mo-Sa 07:00-18:00,shop:supermarket","lat":-8.7232646,"lng":-44.2374386},{"id":"8868966184","name":"Drogaria Nova Vida","tags":"addr:city:Palmeira do Piauí,addr:postcode:64925000,addr:street:Avenida José Luz,addr:suburb:Centro,amenity:pharmacy,dispensing:yes,healthcare:pharmacy","lat":-8.7233626,"lng":-44.2370714},{"id":"8872454818","name":"Correios","tags":"addr:city:Palmeira do Piauí,addr:postcode:64925000,addr:street:Rua Simão Borges,addr:suburb:Centro,amenity:post_office,brand:Correios,brand:wikidata:Q3375004,brand:wikipedia:en:Correios,opening_hours:Mo-Fr 08:00-12:00, Mo-Fr 14:00-16:00","lat":-8.72751,"lng":-44.234499},{"id":"8874974288","name":"Mercearia Lins","tags":"addr:city:Palmeira do Piauí,addr:postcode:64925000,addr:street:Rua Simão Borges,addr:suburb:Centro,shop:convenience","lat":-8.7268377,"lng":-44.234863},{"id":"9381880945","name":"Supermercado Palmeira","tags":"addr:city:Palmeira do Piauí,addr:postcode:64925000,addr:street:Avenida José Luz,addr:suburb:Centro,opening_hours:Mo-Sa 07:00-19:00; Su 08:00-12:00,shop:supermarket","lat":-8.7249367,"lng":-44.235703},{"id":"9454111394","name":"Unidade Escolar Franciane Cunha","tags":"addr:city:Palmeira do Piauí,addr:postcode:64925-000,addr:street:Rua Padre Raimundo,addr:suburb:Centro,amenity:school","lat":-8.7245341,"lng":-44.2380206},{"id":"10264818407","name":"Matheus Moto Peças","tags":"addr:city:Palmeira do Piauí,addr:postcode:64925000,addr:street:Avenida José Luz,amenity:car_wash,opening_hours:Mo-Fr 08:00-17:00,operator:Guia","lat":-8.7270437,"lng":-44.2333894}]