[{"id":"6812187614","name":"Banco do Brasil","tags":"amenity:bank,branch:de Simplício Mendes,brand:Banco do Brasil,brand:wikidata:Q610817,brand:wikipedia:en:Banco do Brasil","lat":-7.8607517,"lng":-41.9107662},{"id":"9233411775","name":"Tico Peixe","tags":"amenity:bar","lat":-7.8629098,"lng":-41.9085083},{"id":"9233451775","name":"Econômico Supermercado","tags":"shop:supermarket","lat":-7.86093,"lng":-41.9095917},{"id":"9233491565","name":"Lava Jato Auto Brilho","tags":"amenity:car_wash","lat":-7.86201,"lng":-41.9099312},{"id":"9233501103","name":"Lava Jato Auto Brilho","tags":"amenity:car_wash","lat":-7.8627501,"lng":-41.9108009},{"id":"9457881765","name":"Inst Educ Turminha Da Monica","tags":"amenity:school","lat":-7.8623868,"lng":-41.908911}]