[{"id":"9172599015","name":"Comercial Sousa","tags":"shop:supermarket","lat":-8.1355,"lng":-41.1441612},{"id":"9172617923","name":"Show Pizza","tags":"amenity:restaurant,cuisine:pizza","lat":-8.1354303,"lng":-41.1442604},{"id":"9172626734","name":"Supermercado Alencar","tags":"shop:supermarket","lat":-8.1360598,"lng":-41.1441383},{"id":"9172639235","name":"Atitude O Point","tags":"amenity:bar","lat":-8.1359501,"lng":-41.1440582},{"id":"9172651148","name":"Fórmula Fit Academia","tags":"leisure:fitness_centre","lat":-8.1364002,"lng":-41.1452904},{"id":"9172667276","name":"Drogaria Brasil","tags":"shop:chemist","lat":-8.1367197,"lng":-41.1445389},{"id":"9173217129","name":"Point dos Primos","tags":"amenity:bar","lat":-8.1400604,"lng":-41.1438217},{"id":"9173508567","name":"Crushitas","tags":"amenity:restaurant","lat":-8.14042,"lng":-41.1475601},{"id":"9173543698","name":"Correios Paulistana","tags":"amenity:post_office,operator:Correios,operator:wikidata:Q3375004,operator:wikipedia:en:Correios","lat":-8.1406202,"lng":-41.1479683},{"id":"9174434814","name":"Bar Do Cobra","tags":"amenity:bar","lat":-8.1405497,"lng":-41.1451607},{"id":"9174458588","name":"Panificadora Novo Tempo","tags":"craft:bakery","lat":-8.1405802,"lng":-41.1443291},{"id":"9174549637","name":"Bomboniere Sabor Mel","tags":"shop:supermarket","lat":-8.1371002,"lng":-41.1451492},{"id":"9175038974","name":"Casa do churrasco","tags":"amenity:restaurant","lat":-8.1364603,"lng":-41.1466789},{"id":"9175677838","name":"Pet Shop Hiper Love","tags":"shop:pet","lat":-8.1378098,"lng":-41.1447716},{"id":"9464567193","name":"Unidade Escolar Frei Henrique Cavalcanti","tags":"addr:city:Paulistana,addr:postcode:64750-000,addr:street:Rua Senador Cândido Ferraz,addr:suburb:Estação,amenity:school,phone:+55 89 3487 1225","lat":-8.1373801,"lng":-41.1446026},{"id":"9464628272","name":"Ceti Paulistana","tags":"addr:city:Paulistana,addr:housenumber:291,addr:postcode:64750-000,addr:street:Avenida Marechal Deodoro,addr:suburb:Centro,amenity:school","lat":-8.1365581,"lng":-41.1446612}]