[{"id":"2631206161","name":"Bar do Pançudo","tags":"addr:city:paquetá,addr:housename:avenida filomeno portela,addr:postcode:64618000,amenity:bar","lat":-7.1036228,"lng":-41.7033793},{"id":"2631207877","name":"Caixa Aqui","tags":"amenity:bank","lat":-7.1049798,"lng":-41.7034692},{"id":"2631208938","name":"Mercadinho Central","tags":"addr:city:Paquetá,addr:housename:rua joaqui gonçalves,addr:housenumber:375,addr:postcode:64618000,shop:supermarket","lat":-7.1050428,"lng":-41.7034758},{"id":"2631209933","name":"Bar do Genésio","tags":"amenity:bar","lat":-7.1039782,"lng":-41.7034968},{"id":"2631212268","name":"Lotérica","tags":"amenity:bank","lat":-7.1035992,"lng":-41.7030274},{"id":"2631225097","name":"BAR DO DEIR","tags":"amenity:bar","lat":-7.1028098,"lng":-41.7029903},{"id":"3620221612","tags":"amenity:hospital","lat":-7.1037528,"lng":-41.7026956}]