[{"id":"9283662710","name":"Gold Bee Bar","tags":"amenity:bar","lat":-7.3545299,"lng":-41.1403389},{"id":"9283671175","name":"Supermercado Do Zezito","tags":"shop:supermarket","lat":-7.3537402,"lng":-41.1426506},{"id":"9283680889","name":"Cantinho verde","tags":"amenity:restaurant","lat":-7.3536801,"lng":-41.143631},{"id":"9284009280","name":"MAMÃE NÃO ME ACHA","tags":"amenity:bar","lat":-7.35145,"lng":-41.1353989},{"id":"9284279071","name":"Mercadinho Santo André","tags":"shop:supermarket","lat":-7.3529601,"lng":-41.1376495},{"id":"9467122172","name":"Pre Esc O Bolinha","tags":"addr:city:Jaicós,addr:postcode:64575-000,addr:street:Rua José Florêncio,addr:suburb:Serranopolis,amenity:school","lat":-7.3526417,"lng":-41.1351876},{"id":"9467136939","name":"Instituto Kairos","tags":"addr:city:Jaicós,addr:housenumber:88,addr:postcode:64575-000,addr:street:Rua José Florêncio,addr:suburb:Serranopolis,amenity:school","lat":-7.3524954,"lng":-41.1350159}]