[{"id":"9291477651","name":"Dular Mais Supermercados","tags":"shop:supermarket","lat":-7.0749202,"lng":-41.467411},{"id":"9291498986","name":"Manelim do frango","tags":"amenity:restaurant","lat":-7.0745301,"lng":-41.4690514},{"id":"9291508020","name":"Jn Padaria","tags":"craft:bakery","lat":-7.0745001,"lng":-41.464241},{"id":"9469419564","name":"U E Petronio Portela","tags":"addr:city:Picos,addr:housenumber:880,addr:postcode:64600-002,addr:street:Rua Coronel Luís Nunes,addr:suburb:São José,amenity:school","lat":-7.0749849,"lng":-41.4727168},{"id":"9481325132","name":"U E Desembargador Vidal De Freitas","tags":"addr:city:Picos,amenity:school","lat":-7.0747853,"lng":-41.4655982},{"id":"9481342865","name":"Ceti Marcos Parente","tags":"addr:city:Picos,addr:housenumber:102,addr:postcode:64600-002,addr:street:Rua Coronel Luís Nunes,amenity:school","lat":-7.0741677,"lng":-41.465558}]