[{"id":"7352028186","name":"O Pechincha","tags":"shop:supermarket","lat":-7.761137,"lng":-40.2649066},{"id":"7352028190","name":"Bradesco","tags":"amenity:bank,brand:Bradesco,brand:wikidata:Q806181,brand:wikipedia:en:Banco Bradesco","lat":-7.7609534,"lng":-40.2650818},{"id":"7352028192","name":"Farmácia Menino Jesus","tags":"amenity:pharmacy,dispensing:yes,healthcare:pharmacy","lat":-7.7610252,"lng":-40.2651792},{"id":"7352028193","name":"Farmácia de Mauricio","tags":"amenity:pharmacy,dispensing:yes,healthcare:pharmacy","lat":-7.7608905,"lng":-40.2649606},{"id":"7352028197","tags":"amenity:grave_yard,religion:PAF","lat":-7.7608467,"lng":-40.2661036},{"id":"7352028206","name":"Unidade Mista de Saúde","tags":"amenity:hospital,healthcare:hospital","lat":-7.7597751,"lng":-40.2672838},{"id":"7352028208","name":"Muniz Falcão","tags":"amenity:school","lat":-7.7603169,"lng":-40.2681575},{"id":"7352028211","name":"Saraiva","tags":"shop:supermarket","lat":-7.7584692,"lng":-40.2698119},{"id":"7602589895","name":"Fermaria Moderna","tags":"amenity:pharmacy","lat":-7.7608391,"lng":-40.2651132},{"id":"7602590300","name":"Farmácia Modesto","tags":"amenity:pharmacy","lat":-7.7609413,"lng":-40.2649832},{"id":"7670828088","name":"Farma Center","tags":"amenity:pharmacy","lat":-7.7591651,"lng":-40.2693936},{"id":"7670829285","name":"Posti de Medicento Agatha Farma","tags":"amenity:pharmacy","lat":-7.7599304,"lng":-40.2669365},{"id":"7670839486","name":"Mercadinho Lima","tags":"shop:supermarket","lat":-7.7612042,"lng":-40.2699782},{"id":"7671665585","name":"Bela Farma","tags":"amenity:pharmacy","lat":-7.7618013,"lng":-40.2650572}]