[{"id":"4919875121","name":"3063 Casa Da Pipoca","tags":"name:pt:3063 - CASA DA PIPOCA,shop:supermarket","lat":-7.5754723,"lng":-40.4967654},{"id":"4919875221","name":"3554 Frii Bom","tags":"name:pt:3554 - FRII BOM,shop:supermarket","lat":-7.57704,"lng":-40.5016363},{"id":"7254525520","name":"Escola Dom Malan","tags":"amenity:school,operator:Irmãs Medianeiras de Santa Maria","lat":-7.5790778,"lng":-40.4983755},{"id":"7254525686","name":"Caixa Econômica Federal","tags":"addr:city:Araripina,addr:housenumber:8,addr:street:Rua Alexandre A. Irmão,addr:suburb:Centro,amenity:bank,brand:Caixa Econômica Federal,brand:wikidata:Q835283,brand:wikipedia:pt:Caixa Econômica Federal,website:http://www.caixa.gov.br/","lat":-7.5765238,"lng":-40.4974189},{"id":"7254525687","name":"Banco do Brasil","tags":"amenity:bank,brand:Banco do Brasil,brand:wikidata:Q610817,brand:wikipedia:en:Banco do Brasil","lat":-7.5758895,"lng":-40.4972788},{"id":"7254525688","name":"Banco do Nordeste","tags":"amenity:bank,brand:Banco do Nordeste,brand:wikidata:Q4854137,brand:wikipedia:en:Banco do Nordeste","lat":-7.5759127,"lng":-40.4989975},{"id":"7254525689","name":"Banco Santander","tags":"amenity:bank,brand:Banco Santander,brand:en:Santander Bank,brand:es:Banco Santander,brand:wikidata:Q6496310,brand:wikipedia:es:Banco Santander,name:en:Santander Bank,name:es:Banco Santander,official_name:Santander Group","lat":-7.5759312,"lng":-40.4984791},{"id":"7254525690","name":"Banco Itaú","tags":"amenity:bank","lat":-7.575709,"lng":-40.4983997},{"id":"7341456335","tags":"amenity:restaurant","lat":-7.5784307,"lng":-40.4983249},{"id":"8006757635","name":"Bradesco","tags":"amenity:bank,brand:Bradesco,brand:wikidata:Q806181,brand:wikipedia:en:Banco Bradesco","lat":-7.5751947,"lng":-40.4977697}]