[{"id":"2775120346","name":"Farmacia GBarbosa","tags":"amenity:pharmacy","lat":-10.9208549,"lng":-37.6676701},{"id":"3951039587","name":"Farmacia Nadir","tags":"amenity:pharmacy","lat":-10.9210764,"lng":-37.6715591},{"id":"3951043060","name":"Restaurant Cota","tags":"addr:street:Rodovia Antonio Martins Menezes,amenity:restaurant","lat":-10.9216861,"lng":-37.670795},{"id":"4329656916","name":"Mercearia Itabaiana","tags":"addr:street:Rua Agripino Fontes Silva,shop:convenience","lat":-10.9249535,"lng":-37.6627314},{"id":"4329656917","name":"Mercearia Mini Preço","tags":"addr:housenumber:640,addr:street:Rua Agripino Fontes Silva,shop:convenience","lat":-10.9251471,"lng":-37.6627918},{"id":"4329656931","tags":"amenity:bar","lat":-10.9236183,"lng":-37.6635964},{"id":"4329656932","tags":"addr:street:Rua Agripino Fontes Silva,shop:convenience","lat":-10.9237473,"lng":-37.663689},{"id":"8436203481","name":"Bar da Gaia","tags":"addr:street:Rua Antônio Simões Alves,amenity:bar","lat":-10.9204395,"lng":-37.6690547}]