[{"id":"2834984874","name":"Bar e restaurante Galego do peixe","tags":"amenity:restaurant","lat":-10.6839268,"lng":-37.419941},{"id":"3480242032","name":"Restaurante do Patola","tags":"addr:city:Itabaiana,addr:street:Rua Boanerges de Almeida Pinheiro,addr:suburb:Centro,amenity:restaurant","lat":-10.6835321,"lng":-37.4285387},{"id":"8847118251","name":"Farmácia Santo Antônio","tags":"amenity:pharmacy,dispensing:yes,healthcare:pharmacy","lat":-10.6832755,"lng":-37.4211765},{"id":"8847118252","name":"Colégio Santo Antônio","tags":"amenity:school","lat":-10.6832702,"lng":-37.4214876},{"id":"8847118253","name":"Colégio Alternativo","tags":"amenity:school","lat":-10.683887,"lng":-37.4231721},{"id":"8847118260","name":"Restaurante da Carminha I","tags":"amenity:restaurant","lat":-10.6837249,"lng":-37.4282093},{"id":"8847118261","name":"Restaurante da Carminha III","tags":"amenity:restaurant","lat":-10.6818469,"lng":-37.4199025},{"id":"8872017494","name":"Colégio Espaço Feliz","tags":"amenity:school","lat":-10.6834055,"lng":-37.424873},{"id":"8880306209","name":"Restaurante Dedé do Peixe","tags":"amenity:restaurant,cuisine:fish;seafood","lat":-10.6818811,"lng":-37.4223813},{"id":"9711340765","name":"Mercearia de Cabeção","tags":"shop:convenience","lat":-10.6798485,"lng":-37.4196936}]