[{"id":"1174773891","name":"Cachaparia Nordestina","tags":"amenity:restaurant","lat":-10.967182,"lng":-37.0391816},{"id":"1464526959","name":"Farmácia Amélia","tags":"amenity:pharmacy,healthcare:pharmacy","lat":-10.9667391,"lng":-37.0429761},{"id":"1464526963","name":"Acarajé da Rita","tags":"amenity:restaurant","lat":-10.9672461,"lng":-37.0431786},{"id":"2030430585","name":"Subúrbia","tags":"amenity:nightclub","lat":-10.9655903,"lng":-37.03749},{"id":"3036597148","name":"SuperMini Minimercado","tags":"shop:supermarket","lat":-10.9679401,"lng":-37.0411429},{"id":"3036597149","name":"Farmácias Portela","tags":"amenity:pharmacy,healthcare:pharmacy","lat":-10.9679976,"lng":-37.0411599},{"id":"4980210229","name":"Drogaria Boa Saúde","tags":"addr:street:Rua Urbano Neto,amenity:pharmacy,contact:phone:+55 79 3255 0970,drive_through:no,healthcare:pharmacy,phone:+55 79 3255 2490","lat":-10.9675275,"lng":-37.042901},{"id":"4980220423","name":"Farmácia Apollo","tags":"addr:street:Rua Urbano Neto,amenity:pharmacy,contact:mobile:+55 79 99675 5344,contact:phone:+55 79 3255 4131,dispensing:yes,drive_through:no,healthcare:pharmacy,phone:+55 79 3255 3474","lat":-10.967491,"lng":-37.0431495},{"id":"5303271213","name":"Recanto da Paraiba","tags":"addr:city:Aracaju,addr:housenumber:1980,addr:postcode:49035-660,addr:street:Avenida Mario Jorge Menezes Vieira,addr:suburb:Coroa do Meio,amenity:restaurant,cuisine:regional;pizza,delivery:yes,takeaway:yes","lat":-10.9659524,"lng":-37.0409417},{"id":"9284566771","name":"Macaxerita Restaurante","tags":"addr:street:Rua Coronel José Figueiredo de Albuquerque,amenity:restaurant,contact:mobile:+55 79 99132 0210,cuisine:regional,phone:+55 79 3255 3659","lat":-10.9675893,"lng":-37.0429424},{"id":"9301536009","name":"WL Centro de Beleza","tags":"addr:street:Rua Urbano Neto,addr:suburb:Coroa do Meio,beauty:nails,contact:mobile:+55 79 99952 2392,phone:+55 79 99147 1036,shop:beauty","lat":-10.9684367,"lng":-37.0376115},{"id":"9353832233","name":"Bar da Draga","tags":"amenity:bar","lat":-10.9667437,"lng":-37.0454066}]