[{"id":"1111859712","name":"Boa Praça Maringuá","tags":"amenity:restaurant","lat":-10.9350214,"lng":-37.0696951},{"id":"1732147484","name":"Mariscos & CIA","tags":"amenity:restaurant","lat":-10.9324434,"lng":-37.0687359},{"id":"1740900113","name":"Academia Taekwondo Aracaju","tags":"leisure:sports_centre","lat":-10.9363788,"lng":-37.0686719},{"id":"1815036104","name":"Restaurante Fazendinha","tags":"amenity:restaurant","lat":-10.9318431,"lng":-37.0735695},{"id":"2112526705","name":"Mercearia do Jesse","tags":"shop:convenience","lat":-10.9324534,"lng":-37.069615},{"id":"2112526712","tags":"amenity:car_wash","lat":-10.9324639,"lng":-37.0691535},{"id":"2112526716","tags":"amenity:car_wash","lat":-10.9317555,"lng":-37.068357},{"id":"2112526718","name":"Mercearia do Jorge","tags":"shop:convenience","lat":-10.9324538,"lng":-37.0694323},{"id":"2112526719","name":"Academia Espaço do Corpo","tags":"leisure:sports_centre","lat":-10.9331144,"lng":-37.0688586},{"id":"3281347988","name":"Pizzaria Bella Castelo","tags":"amenity:restaurant,cuisine:pizza","lat":-10.9347756,"lng":-37.0756938},{"id":"3357157537","name":"Colégio Criativo","tags":"amenity:school","lat":-10.933412,"lng":-37.0698287},{"id":"3357157538","tags":"amenity:pharmacy,healthcare:pharmacy","lat":-10.9322388,"lng":-37.0696034},{"id":"3357157539","tags":"amenity:pharmacy,healthcare:pharmacy","lat":-10.932381,"lng":-37.0700969},{"id":"4311553490","name":"Restaurante O Caipira","tags":"addr:housenumber:05,addr:postcode:49097-580,addr:street:Rua Sinézia Barreto Moura,amenity:restaurant,contact:phone:+55 79 99882-2856,cuisine:regional;grill;barbecue;brazilian;local,email:ocaipiraaju@hotmail.com,internet_access:wlan,name:pt:Restaurante O Caipira,opening_hours:Mo-Su 11:00-15:00","lat":-10.9345618,"lng":-37.0779909},{"id":"6807054832","name":"Academia Millenium","tags":"leisure:fitness_centre","lat":-10.9345346,"lng":-37.0786784}]