[{"id":"1167248152","name":"Pepperoni","tags":"amenity:cafe,cuisine:pizza,internet_access:wlan","lat":-10.9326838,"lng":-37.0588064},{"id":"1460147591","tags":"shop:convenience","lat":-10.9331253,"lng":-37.0615249},{"id":"1460156558","name":"Pizzaria São Paulo","tags":"amenity:restaurant","lat":-10.9365894,"lng":-37.0626252},{"id":"1740900115","name":"Ki Galeto","tags":"amenity:restaurant","lat":-10.9368097,"lng":-37.0659132},{"id":"1755101031","name":"China Town","tags":"amenity:restaurant,cuisine:chinese","lat":-10.9332424,"lng":-37.0591802},{"id":"2112534294","name":"Escolinha Tom e Jerry","tags":"amenity:school","lat":-10.9321769,"lng":-37.0656426},{"id":"2112534302","name":"Ponto do Churrasco & Pestiscos","tags":"amenity:restaurant","lat":-10.9320926,"lng":-37.0676704},{"id":"2112534308","name":"Escola Estadual São Cristóvão","tags":"addr:city:Aracaju,addr:postcode:49045-420,addr:street:Rua Luiz Cordeiro de Moraes,addr:suburb:Luzia,amenity:school","lat":-10.9320902,"lng":-37.0641644},{"id":"2112543569","name":"Açaí e Pizza Turbinado","tags":"amenity:restaurant","lat":-10.9330039,"lng":-37.0621047},{"id":"2112543574","name":"Mercearia São José","tags":"shop:convenience","lat":-10.9325061,"lng":-37.0659484},{"id":"2112543575","name":"Manu´s BAR","tags":"amenity:bar","lat":-10.9334383,"lng":-37.0639528},{"id":"2112543581","name":"Colégio Santa Chiara","tags":"amenity:school","lat":-10.9322652,"lng":-37.0634383},{"id":"2112549600","name":"Júnior Lanches","tags":"amenity:restaurant","lat":-10.9363326,"lng":-37.0610239},{"id":"3123378718","name":"PAC Grageru","tags":"addr:street:Praça Oliveira Belo,addr:suburb:Grageru,amenity:police","lat":-10.9365292,"lng":-37.0613026},{"id":"3940304507","name":"Espetos do Picuí","tags":"addr:housenumber:1573,addr:street:Avenida Hermes Fontes,addr:suburb:Grageru,amenity:restaurant,cuisine:churrasco","lat":-10.9317726,"lng":-37.0611341},{"id":"3941535477","name":"Garage 585","tags":"amenity:bar","lat":-10.9318854,"lng":-37.0591479},{"id":"8952637569","name":"Farmácia do Trabalhador do Brasil","tags":"addr:street:Avenida Hermes Fontes,amenity:pharmacy","lat":-10.933872,"lng":-37.0619608},{"id":"9353663084","tags":"amenity:bar","lat":-10.9365922,"lng":-37.0604024},{"id":"9353663087","name":"Pague Menos","tags":"amenity:pharmacy,brand:Pague Menos,brand:wikidata:Q7124466,brand:wikipedia:pt:Pague Menos,dispensing:yes,healthcare:pharmacy","lat":-10.9325261,"lng":-37.0590935},{"id":"9353663089","tags":"amenity:restaurant","lat":-10.9332029,"lng":-37.0622156}]