[{"id":"1455544403","name":"Correios","tags":"amenity:post_office","lat":-10.6487024,"lng":-36.9853181},{"id":"2138919313","name":"Grupo Escolar José Sampaio","tags":"amenity:school","lat":-10.6466441,"lng":-36.9846786},{"id":"3657073140","name":"Banese","tags":"amenity:bank,atm:yes","lat":-10.6480222,"lng":-36.9851496},{"id":"3852027575","name":"Farmacia Nossa Senhora do Carmo","tags":"amenity:pharmacy","lat":-10.6470411,"lng":-36.9834969},{"id":"3852027580","name":"Supermercado Entre Irmãos","tags":"shop:supermarket","lat":-10.6473893,"lng":-36.9843672},{"id":"3852027601","tags":"building:church","lat":-10.6485099,"lng":-36.9848021}]