[{"id":"6144251967","name":"Atelier do Tadeu dos Bonecos Gigantes!","tags":"operator:Fábio Zacarias Santos,tourism:attraction","lat":-10.2884663,"lng":-36.5838734},{"id":"6150563074","name":"Associação dos Pescadores. Colonia Z 12.","tags":"tourism:attraction","lat":-10.2846473,"lng":-36.5841921},{"id":"6150863770","name":"Arte em Pedra.","tags":"addr:city:Penedo,addr:housenumber:sem n.,addr:street:Rua Guanabara A.,addr:suburb:Santo Antônio,operator:Dodí.,tourism:attraction","lat":-10.284215,"lng":-36.5835631},{"id":"6225932531","name":"Tiro de Guerra de Penedo-AL.","tags":"operator:Fábio,tourism:attraction","lat":-10.2886866,"lng":-36.5831986},{"id":"6565551840","name":"Santa Casa de Penedo","tags":"addr:city:penedo,addr:postcode:57200000,addr:street:Avenida Getúlio Vargas,addr:suburb:centro,amenity:hospital,healthcare:hospital,healthcare:speciality:gynaecology;internal;paediatrics","lat":-10.2856956,"lng":-36.575921},{"id":"6595361513","tags":"historic:stone,historic:period:1815- 1919,stone:granit,tourism:attraction,water_point:operational","lat":-10.2857759,"lng":-36.5765553}]