[{"id":"5784344688","name":"Museu Regional de Delmiro Gouveia","tags":"tourism:museum","lat":-9.3858481,"lng":-37.9923224},{"id":"6685115032","name":"Memorial Delmiro Gouveia","tags":"addr:city:Delmiro Gouveia,addr:postcode:57480000,addr:street:Rua Visconde de Mauá,air_conditioning:yes,tourism:museum,wheelchair:yes","lat":-9.3853458,"lng":-37.9947172},{"id":"6685115033","name":"Banco do Brasil","tags":"addr:street:Rua Olavo Bilac,amenity:bank,atm:yes,brand:Banco do Brasil,brand:wikidata:Q610817,brand:wikipedia:en:Banco do Brasil,drive_through:no","lat":-9.3849767,"lng":-37.9976586},{"id":"6685115034","name":"Bradesco","tags":"air_conditioning:yes,amenity:bank,atm:yes,brand:Bradesco,brand:wikidata:Q806181,brand:wikipedia:en:Banco Bradesco,currency:BRL:yes,drive_through:no","lat":-9.385545,"lng":-37.9978511},{"id":"6685115049","name":"Correios","tags":"addr:street:Rua José Bonifácio,amenity:post_office,brand:Correios,brand:wikidata:Q3375004,brand:wikipedia:en:Correios,opening_hours:Mo-Fr 09:00-16:00","lat":-9.3859165,"lng":-37.9986839},{"id":"7777883856","name":"Supermercado O Barbosão","tags":"addr:city:Delmiro Gouveia,addr:housenumber:221,addr:postcode:57480000,addr:street:Rua da Independência,addr:suburb:Centro,opening_hours:Mo-Sa 07:00-21:00, Su 08:00-13:00,opening_hours:covid19:open,payment:cash:yes,payment:credit_cards:yes,payment:debit_cards:yes,shop:supermarket,wheelchair:limited","lat":-9.384314,"lng":-37.9997768}]