[{"id":"2655180891","name":"Master","tags":"shop:supermarket","lat":-9.7438977,"lng":-36.6671936},{"id":"2655180892","name":"Dois Irmãos","tags":"amenity:restaurant","lat":-9.7444332,"lng":-36.6671834},{"id":"2655191175","name":"Drogaria Real","tags":"amenity:pharmacy","lat":-9.7444887,"lng":-36.667347},{"id":"2655191179","tags":"amenity:pharmacy","lat":-9.7433367,"lng":-36.6683234},{"id":"2655193745","tags":"amenity:bar","lat":-9.7416101,"lng":-36.6693815},{"id":"6847304330","name":"Academia Espaço Fitness","tags":"addr:street:Rua Expedicionário Brasileiro,leisure:fitness_centre,sport:Musculação;Jump;Step;Fit_Dance","lat":-9.7426861,"lng":-36.66846},{"id":"9807353301","name":"Escola Adolfo Bezerra","tags":"amenity:school","lat":-9.7433819,"lng":-36.6650268}]