[{"id":"8424012217","name":"Agro Serve","tags":"shop:pet","lat":-9.9367275,"lng":-36.5531987},{"id":"8424013719","name":"Caixa Econômica Federal","tags":"addr:street:Rua Adolfo Valdivino da Silva,amenity:bank,opening_hours:Mo-Fr 10:00-15:00","lat":-9.9355608,"lng":-36.5532941},{"id":"8424212817","name":"Comercial Lima","tags":"addr:street:Avenida Antônio Custodio Porto,shop:pet","lat":-9.9336505,"lng":-36.5527563},{"id":"8424213117","name":"Mirelle Variedades","tags":"addr:street:Avenida Antônio Custodio Porto,shop:convenience","lat":-9.9336191,"lng":-36.5524315},{"id":"8424894417","name":"Bradesco","tags":"addr:street:Rua Adolfo Valdivino da Silva,amenity:bank,opening_hours:Mo-Fr 10:00-15:00","lat":-9.9351363,"lng":-36.5533583},{"id":"8424894717","name":"Correios","tags":"addr:street:Rua Valdevino da Silva,amenity:post_office,opening_hours:Mo-Fr 08:00-16:00","lat":-9.9318652,"lng":-36.5534407},{"id":"8425931819","name":"Preço Bão","tags":"addr:street:Rua Adolfo Valdivino da Silva,shop:convenience","lat":-9.9348088,"lng":-36.553318},{"id":"8425946017","name":"Banco do Brasil","tags":"addr:street:Rua Adolfo Valdivino da Silva,amenity:bank","lat":-9.9344765,"lng":-36.5533259},{"id":"8426473318","name":"Supermercado Natacha","tags":"addr:street:Rua Pedro Vieira de Barros,opening_hours:Mo-Sa 07:00-17:00,shop:supermarket","lat":-9.9344389,"lng":-36.554182}]