[{"id":"633285588","name":"Terminal Salvador Lyra","tags":"amenity:bus_station,bus:yes,public_transport:station","lat":-9.5634608,"lng":-35.7471613},{"id":"4862333411","name":"Banco do Nordeste","tags":"amenity:bank,atm:yes","lat":-9.5608016,"lng":-35.7441084},{"id":"4862333412","name":"Caixa Econ么mica","tags":"amenity:bank,atm:yes,brand:Caixa Econ么mica Federal,operator:Caixa Econ么mica Federal","lat":-9.5606574,"lng":-35.7439622},{"id":"4862333414","name":"Pague Menos","tags":"amenity:pharmacy,brand:Pague Menos,brand:wikidata:Q7124466,brand:wikipedia:pt:Pague Menos,healthcare:pharmacy,operator:Pague Menos","lat":-9.5612261,"lng":-35.7446314},{"id":"10732872799","name":"Centro Educacional Mios贸tis","tags":"amenity:school","lat":-9.5621527,"lng":-35.7397924}]