[{"id":"635114219","name":"Terminal do Sanatório","tags":"amenity:bus_station,bus:yes,operator:Real alagoas,public_transport:station","lat":-9.6268287,"lng":-35.7428184},{"id":"2589919495","tags":"access:private,amenity:parking","lat":-9.6274609,"lng":-35.7387612},{"id":"2599451736","name":"Central de Flagrantes","tags":"addr:city:Maceió,addr:housename:Avenida Fernandes Lima,addr:postcode:57055-000,addr:street:Avenida Fernandes Lima,amenity:police,name:en:Flagrant Central,operator:Polícia Civil de Alagoas","lat":-9.6244851,"lng":-35.7388587},{"id":"3246944494","name":"Escola Estadual Rosalvo Ribeiro","tags":"amenity:school,operator:Governo do Estado","lat":-9.6269336,"lng":-35.7486764},{"id":"6320614369","name":"Farmácia do Trabalhador","tags":"amenity:pharmacy,dispensing:yes,healthcare:pharmacy","lat":-9.6270709,"lng":-35.7426362},{"id":"6320614371","name":"Escola Paraíso do Abc","tags":"amenity:school","lat":-9.625336,"lng":-35.7437858},{"id":"6346112988","name":"Mercadinho Cavalcante","tags":"shop:supermarket","lat":-9.6256575,"lng":-35.7437448},{"id":"6368817770","tags":"amenity:car_wash","lat":-9.6284044,"lng":-35.7419735},{"id":"6368817772","name":"Farmácia do Trabalhador","tags":"amenity:pharmacy,dispensing:yes,healthcare:pharmacy","lat":-9.6293458,"lng":-35.7411313},{"id":"6373824123","tags":"amenity:car_wash","lat":-9.6286432,"lng":-35.7401553}]