[{"id":"2589919503","tags":"amenity:parking","lat":-9.6276726,"lng":-35.7382138},{"id":"2589922050","tags":"amenity:parking","lat":-9.6240944,"lng":-35.7375938},{"id":"2589922054","tags":"amenity:parking","lat":-9.6241627,"lng":-35.7381865},{"id":"2589922075","tags":"amenity:parking","lat":-9.6246391,"lng":-35.7376454},{"id":"3961483856","tags":"amenity:parking","lat":-9.6260055,"lng":-35.7384917},{"id":"4425712690","name":"Café Farol","tags":"name:pt:Café Farol,shop:convenience","lat":-9.6285014,"lng":-35.7382197},{"id":"8399919886","name":"Caixa Econômica Federal","tags":"amenity:bank,brand:Caixa Econômica Federal,brand:wikidata:Q835283,brand:wikipedia:pt:Caixa Econômica Federal","lat":-9.6272273,"lng":-35.7381935},{"id":"8399919887","name":"Banco do Brasil","tags":"amenity:bank,brand:Banco do Brasil,brand:wikidata:Q610817,brand:wikipedia:en:Banco do Brasil","lat":-9.6276181,"lng":-35.7381015},{"id":"8399919888","tags":"amenity:atm,operator:Banco 24 horas","lat":-9.6285219,"lng":-35.7382112},{"id":"8399919889","name":"Itaú","tags":"amenity:bank,brand:Itaú Unibanco,brand:wikidata:Q1424293,brand:wikipedia:pt:Itaú Unibanco","lat":-9.6294047,"lng":-35.7377334},{"id":"8441748989","name":"Colégio Diógenes Jucá Bernardes","tags":"amenity:school","lat":-9.6288356,"lng":-35.7366866}]