[{"id":"7545540175","name":"Restaurante Costela No Bafo","tags":"addr:street:Rua do Colégio,amenity:restaurant","lat":-8.4393129,"lng":-35.0123138},{"id":"7545541554","name":"Compre Mais Supermercados","tags":"addr:street:Rua Sao Benedito,shop:supermarket","lat":-8.440937,"lng":-35.012188},{"id":"7668111637","name":"Depósito e conveniência Oliveira","tags":"addr:street:Travessa do Lima,shop:convenience","lat":-8.442687,"lng":-35.0115623},{"id":"7671945845","name":"Banco Bradesco","tags":"addr:street:Rua Cristóvão de Souza Leão,amenity:bank","lat":-8.4420538,"lng":-35.0122911},{"id":"7674910005","name":"Pato Peru Bar e Restaurante","tags":"addr:street:Rua do Colégio,amenity:restaurant","lat":-8.4413128,"lng":-35.0124359}]