[{"id":"2524959068","name":"Ginásio Poliesportivo Egídio Torres de Carvalho.","tags":"leisure:sports_centre","lat":-7.9908926,"lng":-38.292735},{"id":"2525674656","name":"FAFOPST - FACHUST - FACISST","tags":"amenity:university","lat":-7.9902579,"lng":-38.2919},{"id":"2525674657","name":"Colégio de Aplicação","tags":"amenity:school","lat":-7.9904743,"lng":-38.2921138},{"id":"2530822038","name":"Delegacia","tags":"amenity:police","lat":-7.992373,"lng":-38.2931567},{"id":"4806118524","name":"2716 - Mercadinho Lima","tags":"name:pt:2716 - Mercadinho Lima,shop:supermarket","lat":-7.9886414,"lng":-38.291361},{"id":"4806120225","name":"2719 - Pizzaria D'italia","tags":"amenity:restaurant,name:pt:2719 - Pizzaria D'italia","lat":-7.9900983,"lng":-38.2921651},{"id":"4806120323","name":"3093 - Nogueira distribuidora de bebidas","tags":"name:pt:3093 - Nogueira distribuidora de bebidas,shop:supermarket","lat":-7.9890899,"lng":-38.2924214},{"id":"4806123121","name":"Bar e Mercearia Gomes","tags":"shop:convenience","lat":-7.987349,"lng":-38.2981922},{"id":"5029148120","name":"Escola Solidônio Leite","tags":"amenity:school","lat":-7.9908899,"lng":-38.2975735},{"id":"6288971346","name":"Serra China","tags":"addr:city:Serra Talhada,addr:housenumber:187,addr:postcode:56912-410,addr:street:Rua João Nunes de Souza,addr:suburb:Nossa Senhora da penha,amenity:restaurant,cuisine:chinese,cuisine_1:japanese,outdoor_seating:no","lat":-7.9902784,"lng":-38.2945292}]