[{"id":"4801540322","name":"Mercantil Tavares","tags":"addr:city:Afogados da Ingazeira,addr:housenumber:19,addr:postcode:56800-000,addr:street:Praça Oscar de Campos Góes,addr:suburb:Centro,phone:+55 87 3838-3868,shop:supermarket","lat":-7.7503938,"lng":-37.6399872},{"id":"4801574122","name":"Supermercado Multbom","tags":"addr:city:Afogados da Ingazeira,addr:postcode:56800-000,addr:street:Praça Mosenhor Alfredo de Arruda Câmara,addr:suburb:Centro,shop:supermarket","lat":-7.7500901,"lng":-37.6393712},{"id":"4801795523","name":"Mercadinho São Francisco de Assis","tags":"addr:street:Rua Sete de Setembro,addr:suburb:São Francisco,shop:supermarket","lat":-7.7490477,"lng":-37.6435114},{"id":"5272170181","name":"Caixa Econômica Federal","tags":"addr:city:Afogados da Ingazeira,addr:housenumber:29,addr:postcode:56800-000,addr:street:Avenida Manoel Borba,addr:suburb:Centro,amenity:bank,brand:Caixa Econômica Federal,brand:wikidata:Q835283,brand:wikipedia:pt:Caixa Econômica Federal","lat":-7.7492054,"lng":-37.6392691},{"id":"5272179291","name":"Bradesco","tags":"addr:city:Afogados da Ingazeira,addr:housenumber:222,addr:postcode:56800-000,addr:street:Avenida Manoel Borba,addr:suburb:Centro,amenity:bank,brand:Bradesco,brand:wikidata:Q806181,brand:wikipedia:en:Banco Bradesco","lat":-7.7474602,"lng":-37.6392447},{"id":"5273626615","name":"23º BPM","tags":"addr:city:Afogados da Ingazeira,addr:postcode:56800-000,addr:street:Rua Nelson Alves de Souza,addr:suburb:Centro,amenity:police","lat":-7.7507984,"lng":-37.6399729},{"id":"5378194299","name":"Museu Do Rádio","tags":"addr:city:Afogados da Ingazeira,addr:housenumber:s/n,addr:postcode:56800-000,addr:street:Rua Sete de Setembro,addr:suburb:São Francisco,image:https://www.flickr.com/photos/139355051@N08/26149681858/,operator:Rádio Pajéu,phone:+55 87 3838-2790,tourism:museum","lat":-7.7490289,"lng":-37.646564},{"id":"7306612782","name":"Caixa Econômica Federal","tags":"addr:city:Afogados da Ingazeira,addr:housenumber:29,addr:street:Avenida Manoel Borba,addr:suburb:Centro,amenity:bank,brand:Caixa Econômica Federal,brand:wikidata:Q835283,brand:wikipedia:pt:Caixa Econômica Federal,website:http://www.caixa.gov.br/","lat":-7.7492294,"lng":-37.6393618},{"id":"5272159614","name":"Pague Menos","tags":"addr:city:Afogados da Ingazeira,addr:housenumber:405,addr:postcode:56800-000,addr:street:Praça Monsenhor Alfredo de Arruda Camara,addr:suburb:Centro,amenity:pharmacy,brand:Pague Menos,brand:wikidata:Q7124466,dispensing:yes,drive_through:no,healthcare:pharmacy,opening_hours:24/7,wheelchair:yes","lat":-7.750347,"lng":-37.6395823}]