[{"id":"2675035639","tags":"addr:city:monteiro,addr:street:Avenida Parque das Águas,amenity:bank,atm:yes,brand:Banco do Brasil","lat":-7.891923,"lng":-37.1256943},{"id":"2675035650","name":"CEF - Caixa Econômica Federal","tags":"amenity:bank","lat":-7.8935065,"lng":-37.127697},{"id":"2675035714","name":"Colégio Nossa Senhora de Lourdes","tags":"amenity:school","lat":-7.8905554,"lng":-37.1264648},{"id":"2675035910","name":"Terminal Realbus","tags":"amenity:bus_station,bus:yes,public_transport:station","lat":-7.8917179,"lng":-37.1239548},{"id":"2675290940","name":"Pizzaria Fornalha","tags":"addr:city:Monteiro,addr:street:Rua Wagner Augusto B Japiassú,amenity:restaurant,cuisine:pizza","lat":-7.8929635,"lng":-37.1287483},{"id":"6477883733","tags":"tourism:attraction","lat":-7.8931063,"lng":-37.1231412}]