[{"id":"5734776126","name":"E.M.E.F Anaiza Luiz Calixto","tags":"addr:street:Rua Deca Simplício,amenity:school","lat":-7.0369598,"lng":-37.3010572},{"id":"5734793322","name":"Mercadinho Chico De Lilita","tags":"addr:street:Rua Antônio Martins,shop:supermarket","lat":-7.0368791,"lng":-37.2993902},{"id":"9193553517","name":"Mercadinho de Novinho","tags":"shop:convenience","lat":-7.0385593,"lng":-37.303128},{"id":"9193553618","name":"Bar do Garçon","tags":"amenity:bar","lat":-7.0389618,"lng":-37.3031219},{"id":"9193553619","name":"Bar do Nêgo Mané","tags":"amenity:bar","lat":-7.0393932,"lng":-37.3018519},{"id":"9193553718","name":"Mercadinho Frei Damião","tags":"shop:convenience","lat":-7.0389982,"lng":-37.3021426},{"id":"9193553817","name":"Minibox e Frigorífico Silva","tags":"shop:convenience","lat":-7.0384948,"lng":-37.3013687}]