[{"id":"4888585340","name":"Leandro","tags":"shop:supermarket","lat":-7.0338116,"lng":-37.2787993},{"id":"4943999425","name":"Supermercado JR","tags":"name:pt:Supermercado JR,shop:supermarket","lat":-7.0323707,"lng":-37.2788892},{"id":"5000889822","name":"Esquinão do João Davi","tags":"amenity:restaurant,name:pt:Esquinão do João Davi","lat":-7.0318494,"lng":-37.2766522},{"id":"5029507122","name":"Bodega do Sertão","tags":"name:pt:Bodega do Sertão,shop:convenience","lat":-7.0326637,"lng":-37.280185},{"id":"5029515721","name":"Lava Jato do Beto","tags":"addr:housenumber:356,amenity:car_wash,name:pt:Lava Jato do Beto,phone:+5583999643722","lat":-7.0360948,"lng":-37.2810888},{"id":"5029516021","name":"Lava Jato Ideal","tags":"amenity:car_wash,name:pt:Lava Jato Ideal,phone:+5583999599081","lat":-7.0362352,"lng":-37.2811474},{"id":"5054705722","name":"Bar do Aluízio","tags":"amenity:bar,name:pt:Bar do Aluízio","lat":-7.0350044,"lng":-37.2787165},{"id":"5365009398","name":"BR Mania","tags":"shop:convenience","lat":-7.0362062,"lng":-37.2788092},{"id":"5534749123","name":"Mercadinho Guanabara","tags":"shop:convenience","lat":-7.0363863,"lng":-37.2827554},{"id":"5534772822","name":"Liderança","tags":"shop:supermarket","lat":-7.0334891,"lng":-37.2769833},{"id":"5757003141","name":"Jessé bar e restaurante","tags":"addr:street:Rua Dezoito do Forte,amenity:restaurant,cuisine:regional,outdoor_seating:yes,takeaway:yes","lat":-7.0319092,"lng":-37.2768819},{"id":"9788891217","name":"Mercadinho São José","tags":"shop:convenience","lat":-7.033753,"lng":-37.2819906}]