[{"id":"2878346365","name":"Bradesco","tags":"amenity:bank,atm:yes,brand:Bradesco,brand:wikidata:Q806181,brand:wikipedia:en:Banco Bradesco","lat":-6.7890163,"lng":-38.7182621},{"id":"7602590001","name":"Farmácia N S das Graças","tags":"amenity:pharmacy,healthcare:pharmacy","lat":-6.7879187,"lng":-38.7186321},{"id":"7794710786","name":"Sara Mercantil","tags":"shop:supermarket","lat":-6.7891117,"lng":-38.7265258},{"id":"7794741285","name":"Supermarcadi São Jorge","tags":"shop:supermarket","lat":-6.7888385,"lng":-38.7181782},{"id":"7795059485","name":"Farmacia Nissa Senhora da Graça","tags":"amenity:pharmacy,healthcare:pharmacy","lat":-6.7878787,"lng":-38.7186922},{"id":"7795059486","name":"Farmacia Arruda","tags":"amenity:pharmacy,healthcare:pharmacy","lat":-6.7879018,"lng":-38.7183613}]