[{"id":"5546447122","name":"Mãe Rainha","tags":"shop:convenience","lat":-6.5775767,"lng":-38.5971081},{"id":"5546447124","name":"Mercadinho Aldeizo","tags":"shop:convenience","lat":-6.5782467,"lng":-38.5973182},{"id":"5546447125","name":"Baiano Bar","tags":"amenity:bar","lat":-6.5781076,"lng":-38.5973601},{"id":"5546447127","name":"Bradesco","tags":"amenity:bank","lat":-6.5778851,"lng":-38.5974598},{"id":"5546447128","name":"Coração de Jesus","tags":"phone:+558335391155,shop:convenience","lat":-6.578684,"lng":-38.5997062},{"id":"5546447923","name":"Playboy","tags":"amenity:bar","lat":-6.577957,"lng":-38.5974702},{"id":"5546448121","name":"Mercadinho São Raimundo","tags":"shop:convenience","lat":-6.5776173,"lng":-38.5969432},{"id":"5546448123","name":"Valcinha Variedades","tags":"shop:convenience","lat":-6.5774597,"lng":-38.5975589},{"id":"5580424623","name":"Marli Maciel","tags":"shop:convenience","lat":-6.5784796,"lng":-38.5975898},{"id":"5580424625","name":"Coelho","tags":"shop:supermarket","lat":-6.5803281,"lng":-38.595928},{"id":"5972160735","name":"Praça do Memorial","tags":"addr:city:Triunfo,addr:postcode:58920000,addr:street:Rua Sete de Setembro,addr:suburb:Centro,leisure:park,opening_hours:24/7","lat":-6.5780445,"lng":-38.5977528},{"id":"5972372715","tags":"amenity:hospital,healthcare:hospital","lat":-6.5782054,"lng":-38.5988615},{"id":"5976235401","name":"Escola Antonio Francico Duarte","tags":"amenity:school","lat":-6.5783658,"lng":-38.59855},{"id":"5976249022","name":"Santander","tags":"amenity:bank","lat":-6.5784807,"lng":-38.598269},{"id":"6827669995","tags":"addr:city:Triunfo,addr:postcode:58920000,addr:street:Rua Joaquim Teodoro Lisboa,addr:suburb:Centro,dog:yes,leisure:park,opening_hours:24/7,smoking:yes","lat":-6.5793507,"lng":-38.5977856},{"id":"6827669999","name":"Praça da Matriz","tags":"addr:city:Triunfo,addr:postcode:58920000,addr:street:Rua Francisco Romano de Aquino,addr:suburb:Centro,dog:no,leisure:park,opening_hours:24/7,smoking:outside","lat":-6.5784537,"lng":-38.5973474},{"id":"6827874637","name":"Praça das Lavadeiras","tags":"addr:city:Triunfo,addr:postcode:58920000,addr:street:Rua Valdivino Lisboa,addr:suburb:Centro,dog:yes,leisure:park,opening_hours:24/7","lat":-6.5779432,"lng":-38.5984454},{"id":"6913996577","name":"Praça dos 40","tags":"addr:city:Triunfo,addr:postcode:58920000,addr:street:Rua Princesa Isabel,addr:suburb:Centro,dog:yes,leisure:park,opening_hours:24/7,smoking:outside","lat":-6.5764912,"lng":-38.5988557},{"id":"6913996578","name":"Praça do Chafariz","tags":"addr:city:Triunfo,addr:postcode:58920000,addr:street:Rua José Francisco de Andrade Filho,addr:suburb:Centro,dog:yes,leisure:park,natural:water,opening_hours:24/7,smoking:yes","lat":-6.5789122,"lng":-38.5962946}]