[{"id":"2941026475","name":"Sorriso Lanches","tags":"addr:city:Jaguaribe,addr:street:Avenida Oito de novembro,amenity:restaurant,capacity:50,cuisine:burger,smoking:outside","lat":-5.8909116,"lng":-38.6215581},{"id":"4339067776","name":"Farmácia Dionízio","tags":"amenity:pharmacy","lat":-5.8895011,"lng":-38.6223405},{"id":"6218472044","name":"Sam Farma","tags":"amenity:pharmacy","lat":-5.8890549,"lng":-38.623627},{"id":"6434230971","name":"Ivo's Grill - restaurante e lanchonete","tags":"amenity:restaurant","lat":-5.889436,"lng":-38.6225898},{"id":"8453947217","name":"Tapimpo","tags":"shop:supermarket","lat":-5.8891434,"lng":-38.6239259}]