[{"id":"4261900966","name":"Banco do Brasil","tags":"amenity:bank,atm:yes,brand:Banco do Brasil,brand:wikidata:Q610817,brand:wikipedia:en:Banco do Brasil","lat":-6.7705573,"lng":-37.8007059},{"id":"4261900967","name":"Banco do Nordeste","tags":"amenity:bank,atm:yes,brand:Banco do Nordeste,brand:wikidata:Q4854137,brand:wikipedia:en:Banco do Nordeste","lat":-6.7714602,"lng":-37.8020457},{"id":"4261900968","name":"Bradesco","tags":"amenity:bank,atm:yes,brand:Bradesco,brand:wikidata:Q806181,brand:wikipedia:en:Banco Bradesco","lat":-6.7717652,"lng":-37.8032594},{"id":"4261900969","name":"Caixa Econômica Federal","tags":"amenity:bank,atm:yes","lat":-6.7720902,"lng":-37.8032058},{"id":"4274655213","name":"Casa da Cultura Senador Ruy Carneiro","tags":"alt_name:Museu Senador Ruy Carneiro,tourism:museum","lat":-6.7697939,"lng":-37.8024067},{"id":"5232858126","name":"Saborear Bar e Restaurante","tags":"amenity:restaurant","lat":-6.7718138,"lng":-37.7979021},{"id":"5241605724","name":"Supermercado Sertanejo","tags":"shop:supermarket","lat":-6.770822,"lng":-37.796922},{"id":"5487993936","name":"Compre Mais","tags":"shop:supermarket","lat":-6.7698477,"lng":-37.7953342},{"id":"5487994141","name":"CenterBox","tags":"shop:convenience","lat":-6.7694537,"lng":-37.7948344},{"id":"5487994142","name":"Pizzaria Paulistana","tags":"amenity:restaurant,cuisine:pizza","lat":-6.7693607,"lng":-37.7946783},{"id":"6420459986","name":"Churrascaria O Carreteiro","tags":"amenity:restaurant","lat":-6.7676142,"lng":-37.7952803},{"id":"6445511785","name":"Redepharma","tags":"amenity:pharmacy,healthcare:pharmacy","lat":-6.7711949,"lng":-37.8024867},{"id":"7169602799","name":"Cruzeiro do Rosário","tags":"denomination:catholic,historic:wayside_cross,religion:christian,tourism:attraction","lat":-6.7702723,"lng":-37.8023136},{"id":"7169602803","tags":"historic:memorial,memorial:bust,tourism:attraction","lat":-6.7707761,"lng":-37.8012088}]