[{"id":"2051696463","name":"Cunca's Bar","tags":"amenity:bar,opening_hours:We-Su 18:00-24:00; week 02 16:00-20:00; week 25 16:00-24:00; Jan 10 off; Dec 24 off; Dec 31 off","lat":-6.9096399,"lng":-37.5977485},{"id":"2051696471","name":"China Lanches","tags":"amenity:bar,opening_hours:We-Su 18:00-24:00; week 02 16:00-20:00; week 25 16:00-24:00; Jan 10 off; Dec 24 off; Dec 31 off","lat":-6.9096686,"lng":-37.5979705},{"id":"2053409731","name":"Bar da Boa","tags":"addr:postcode:58714000,amenity:bar,opening_hours:Tu-Su 18:00-02:00; week 02 16:00-24:00; week 25 18:00-02:00; Jan 10 off; Dec 24 off; Dec 31 off","lat":-6.9093487,"lng":-37.5962256},{"id":"2053409799","name":"Bar da Costela","tags":"addr:postcode:58714000,amenity:bar","lat":-6.9081346,"lng":-37.5965957},{"id":"2058316486","name":"Bar Nota 10","tags":"amenity:bar,opening_hours:We-Su 18:00-24:00; week 02 16:00-20:00; week 25 16:00-24:00; Jan 10 off; Dec 24 off; Dec 31 off","lat":-6.9097068,"lng":-37.5981925},{"id":"4433504860","name":"Correios Condado","tags":"addr:city:Condado,addr:postcode:58714000,addr:street:Rua José Paula Leite,amenity:post_office,opening_hours:Mo-Fr 08:00-17:00,operator:Empresa Brasileira de Correios e Telégrafos,wheelchair:yes","lat":-6.9101594,"lng":-37.5999046},{"id":"5122678522","name":"Melhor Preço","tags":"shop:supermarket","lat":-6.9103065,"lng":-37.5994207},{"id":"5323832123","name":"Adega Lounge Bar","tags":"amenity:bar","lat":-6.9102903,"lng":-37.6005404},{"id":"5323841722","name":"Mercadinho Almeida","tags":"shop:convenience","lat":-6.9102792,"lng":-37.6005053},{"id":"8544925746","name":"Supermercado Ideal","tags":"addr:street:Rua Odilon Linhares de Araújo,shop:supermarket","lat":-6.9085249,"lng":-37.5999086},{"id":"8577056573","name":"Ponto Certo","tags":"amenity:restaurant","lat":-6.9102478,"lng":-37.6003064},{"id":"8577057001","name":"O Barateiro Shopping","tags":"shop:mall","lat":-6.9093491,"lng":-37.6008809},{"id":"8579410128","tags":"amenity:restaurant,cuisine:pizza","lat":-6.9103731,"lng":-37.5992024}]