[{"id":"5300885495","name":"Praça Marcelo Pinto","tags":"leisure:park","lat":-6.8724139,"lng":-36.9141589},{"id":"5592763021","name":"Popular","tags":"shop:convenience","lat":-6.8745604,"lng":-36.9146344},{"id":"5592763022","name":"Cadetão","tags":"shop:convenience","lat":-6.8728698,"lng":-36.9152029},{"id":"5592771022","name":"Leal Bar","tags":"amenity:bar","lat":-6.8724614,"lng":-36.9150568},{"id":"5595416421","name":"Santa Clara","tags":"amenity:pharmacy,healthcare:pharmacy","lat":-6.8724675,"lng":-36.9152331},{"id":"9817700817","name":"Uni Farma","tags":"amenity:pharmacy","lat":-6.8726191,"lng":-36.9160954}]