[{"id":"1813389064","name":"Casa de Saúde e Maternidade Nossa Senhora da Conceição","tags":"amenity:hospital,healthcare:hospital","lat":-6.9292495,"lng":-37.0957754},{"id":"1813389117","tags":"amenity:school","lat":-6.9306809,"lng":-37.0951716},{"id":"1813389119","name":"Escola Francisco Pergentino","tags":"amenity:school","lat":-6.9271624,"lng":-37.0957823},{"id":"1813389207","name":"Correios","tags":"amenity:post_office,brand:Correios,brand:wikidata:Q3375004,brand:wikipedia:en:Correios","lat":-6.9275012,"lng":-37.0961226},{"id":"2028001680","tags":"amenity:bar","lat":-6.9277927,"lng":-37.0967393},{"id":"2028004455","tags":"amenity:library","lat":-6.9321247,"lng":-37.0949798},{"id":"5592304123","name":"Mercadinho Boa Vista","tags":"shop:convenience","lat":-6.9280177,"lng":-37.0978962}]