[{"id":"5633462560","name":"CAE","tags":"addr:street:Rua Vereador Francisco Freire Araújo,amenity:hospital,healthcare:hospital,operator:Prefeitura Municipal","lat":-6.7700125,"lng":-36.993207},{"id":"5633517659","name":"Mercadinho Central","tags":"shop:supermarket","lat":-6.771904,"lng":-36.9911208},{"id":"5884766408","name":"Restaurante da Rita","tags":"amenity:restaurant","lat":-6.7702159,"lng":-36.9921728},{"id":"5884766409","name":"Restaurante de Nenem","tags":"amenity:restaurant","lat":-6.7694358,"lng":-36.9941811},{"id":"5884809733","name":"Mercadinho São Jorge","tags":"shop:supermarket","lat":-6.772081,"lng":-36.9917904}]