[{"id":"2593136742","name":"Banco do Brasil - Agência João Alfredo","tags":"addr:housenumber:401,addr:place:Centro,addr:street:Avenida José Vicente Meira Vasconcelos,amenity:bank,phone:+55 81 3648-1250","lat":-7.8627266,"lng":-35.5907721},{"id":"2593136745","name":"Bar A Moenda","tags":"addr:city:João Alfredo,addr:street:Rua Firmino José de Moura,amenity:bar","lat":-7.8649224,"lng":-35.590116},{"id":"2593136747","name":"Bradesco - Agência João Alfredo","tags":"addr:city:João Alfredo,addr:place:Centro,addr:street:Avenida José Vicente Meira Vasconcelos,addr:suburb:Centro,amenity:bank,phone:+55 81 3648-1529","lat":-7.8626546,"lng":-35.5907781},{"id":"2593136752","name":"Clube Municipal","tags":"addr:street:Rua Miguel Cavalcante,leisure:sports_centre","lat":-7.8635887,"lng":-35.5899659},{"id":"2593136753","name":"Correios - Agência João Alfredo","tags":"addr:city:João Alfredo,addr:place:Centro,addr:street:Avenida Santo Antônio,addr:suburb:Centro,amenity:post_office,phone:+55 81 3648-1135","lat":-7.8612199,"lng":-35.5922011},{"id":"2593136756","name":"Escola Eren Jarina Maia","tags":"addr:street:Rua Maria Eliete Soares,amenity:school","lat":-7.8608751,"lng":-35.5889015},{"id":"2593136757","name":"Escola Nossa Senhora Auxiliadora","tags":"addr:street:Avenida Doutor Severino Apúlio Cavalcante,amenity:school","lat":-7.8654815,"lng":-35.5884795},{"id":"2593136761","name":"Hospital Municipal Joana Amelia Cavalcante","tags":"addr:place:Asa Branca,addr:street:Avenida Doutor Severino Apúlio Cavalcante,amenity:hospital,phone:+55 81 3648-1228","lat":-7.8649257,"lng":-35.5892327},{"id":"6691743285","name":"5170 Varejão Supermercado","tags":"shop:supermarket","lat":-7.8618568,"lng":-35.5909218}]