[{"id":"2672447951","name":"Grupo Escolar Eduardo Medeiros","tags":"addr:city:Serra Redonda,addr:postcode:58385-000,addr:street:Rua Trinta de Dezembro,amenity:school","lat":-7.1862659,"lng":-35.679924},{"id":"2672447954","name":"Ginásio de Esporte","tags":"leisure:stadium","lat":-7.1884141,"lng":-35.6828028},{"id":"4551376116","name":"Mini Box Dois Irmãos","tags":"addr:city:Serra Redonda,addr:postcode:58385-000,addr:street:Rua Pedro de Azevedo Cruz,opening_hours:07:00 - 18:00,shop:supermarket","lat":-7.185526,"lng":-35.6804267},{"id":"5153817443","name":"Bar da Fátima","tags":"amenity:restaurant","lat":-7.1863494,"lng":-35.6797061},{"id":"6385735633","tags":"amenity:pharmacy,dispensing:yes,healthcare:pharmacy","lat":-7.1864681,"lng":-35.6802295}]