[{"id":"5303987433","name":"Viver Colégio e Curso","tags":"amenity:school,entrance:service,school:elementary","lat":-8.2134272,"lng":-34.9221297},{"id":"5303992181","name":"Colégio Buarque de Gusmão","tags":"amenity:school,entrance:service,school:elementary","lat":-8.2138303,"lng":-34.9245745},{"id":"5304096842","name":"Clube da Associação dos Magistrados","tags":"leisure:sports_centre","lat":-8.2158789,"lng":-34.9239845},{"id":"5305279874","name":"Galeria Acanto","tags":"shop:mall","lat":-8.2132617,"lng":-34.9215004},{"id":"5305308339","name":"Lava Jato do Guedes","tags":"amenity:car_wash,entrance:parking","lat":-8.2133209,"lng":-34.9212548},{"id":"5305647625","name":"Pracinha do Dominó","tags":"amenity:bench,leisure:park","lat":-8.2152266,"lng":-34.9250693}]