[{"id":"2426927501","name":"Bompreço","tags":"shop:supermarket","lat":-8.1303661,"lng":-34.9016082},{"id":"3721905841","name":"Correios","tags":"addr:city:Recife,addr:housenumber:4955,addr:postcode:51021-970,addr:street:Avenida Conselheiro Aguiar,addr:suburb:Boa Viagem,amenity:post_office,brand:Correios,brand:wikidata:Q3375004,brand:wikipedia:en:Correios,opening_hours:Mo-Fr 09:00-17:00,operator:Correios,operator:wikidata:Q3375004,operator:wikipedia:en:Correios,phone:+55 81 2121.1049","lat":-8.1307106,"lng":-34.9010802},{"id":"3721906520","name":"Itaú","tags":"addr:city:Recife,addr:housenumber:5025,addr:street:Avenida Conselheiro Aguiar,addr:suburb:Boa Viagem,amenity:bank,atm:yes,brand:Itaú Unibanco,brand:wikidata:Q1424293,brand:wikipedia:pt:Itaú Unibanco,phone:+55 81 4004-1589,website:https://www.itau.com.br/","lat":-8.1312499,"lng":-34.9011648},{"id":"3751045546","name":"Chica Pitanga","tags":"amenity:restaurant","lat":-8.1308215,"lng":-34.9007174},{"id":"4972122524","name":"Caldinho na Rua","tags":"amenity:bar,name:pt:Caldinho na Rua","lat":-8.1349263,"lng":-34.9027553},{"id":"6260342685","name":"Wayne’s","tags":"amenity:restaurant,cuisine:burger;sandwich;brazilian;argentinian;american;barbecue;coffee_shop,internet_access:wlan","lat":-8.1299123,"lng":-34.9029849},{"id":"7204418585","name":"4497 BR Mania","tags":"shop:convenience","lat":-8.1316744,"lng":-34.9022566},{"id":"7254062385","name":"Casa dos Doces","tags":"amenity:cafe","lat":-8.1321038,"lng":-34.9015978}]