[{"id":"2497744692","name":"Tancredo Neves","tags":"public_transport:station,railway:station,station:subway,subway:yes","lat":-8.1222673,"lng":-34.9118225},{"id":"4463585089","name":"Supermercado Soberano","tags":"addr:street:Avenida Visconde de Jequitinhonha,name:pt:Supermercado Soberano,opening_hours:08:00-22:00,shop:supermarket","lat":-8.1242468,"lng":-34.9037218},{"id":"5746162276","tags":"addr:housenumber:55,addr:street:Rua Jonathas de Vasconcelos,amenity:school","lat":-8.1234248,"lng":-34.9076163},{"id":"5746162286","tags":"addr:housenumber:55,addr:street:Rua Jonathas de Vasconcelos,amenity:school","lat":-8.1235564,"lng":-34.9076137},{"id":"5760952235","tags":"addr:city:Recife,addr:housenumber:4052,addr:postcode:51150-902,addr:street:Avenida Marechal Mascarenhas de Moraes,addr:suburb:Imbiribeira,amenity:hospital,healthcare:hospital","lat":-8.1192681,"lng":-34.9142567},{"id":"6619042852","tags":"amenity:parking","lat":-8.1199368,"lng":-34.913127},{"id":"9383626974","name":"Banco24Horas","tags":"amenity:atm,brand:Banco24Horas,brand:wikidata:Q4854069,brand:wikipedia:pt:Banco24Horas","lat":-8.1225165,"lng":-34.9124406},{"id":"9383626975","name":"Banco24Horas","tags":"amenity:atm,brand:Banco24Horas,brand:wikidata:Q4854069,brand:wikipedia:pt:Banco24Horas","lat":-8.1225215,"lng":-34.9124291},{"id":"9383626976","name":"Banco24Horas","tags":"amenity:atm,brand:Banco24Horas,brand:wikidata:Q4854069,brand:wikipedia:pt:Banco24Horas","lat":-8.1225027,"lng":-34.9124344},{"id":"9383626977","name":"Banco24Horas","tags":"amenity:atm,brand:Banco24Horas,brand:wikidata:Q4854069,brand:wikipedia:pt:Banco24Horas","lat":-8.1225078,"lng":-34.9124229},{"id":"10120060952","tags":"amenity:pharmacy,dispensing:yes,healthcare:pharmacy","lat":-8.1228167,"lng":-34.9040604},{"id":"10240693309","name":"COMEDORIA","tags":"amenity:restaurant,name:pt:COMEDORIA Self Service Sem Balanca","lat":-8.1219088,"lng":-34.9039567}]