[{"id":"564865655","name":"Escola Americana","tags":"amenity:school","lat":-8.1363567,"lng":-34.9070298},{"id":"4474021953","name":"Feijoada do Leopoldo","tags":"addr:city:Recife,amenity:restaurant,cuisine:regional","lat":-8.1399985,"lng":-34.9139711},{"id":"4474021954","name":"Dona Gula","tags":"addr:city:Recife,amenity:restaurant,cuisine:regional","lat":-8.1401313,"lng":-34.913078},{"id":"4474021955","name":"Galeteria Setúbal","tags":"addr:city:Recife,addr:suburb:Setúbal,amenity:restaurant,cuisine:regional","lat":-8.1390586,"lng":-34.9138022},{"id":"5745976666","tags":"addr:housenumber:486,addr:street:Rua Waldemar Nery Carneiro Monteiro,amenity:school","lat":-8.1377459,"lng":-34.9126014},{"id":"5745977085","tags":"addr:housenumber:390,addr:street:Rua Doutor Inácio Pessoa Melo,amenity:hospital","lat":-8.1394437,"lng":-34.9065711}]