[{"id":"5639740182","name":"Academia","tags":"addr:city:Recife,addr:housenumber:420,addr:street:Avenida Afonso Olindense,addr:suburb:Várzea,leisure:fitness_centre","lat":-8.0346772,"lng":-34.955397},{"id":"5639740188","name":"Farmácia Poup","tags":"addr:city:Recife,addr:street:Rua Afonso Olindense,addr:suburb:Várzea,amenity:pharmacy,dispensing:yes,healthcare:pharmacy","lat":-8.0331637,"lng":-34.9554721},{"id":"5639740189","name":"Casa dos Pets","tags":"addr:city:Recife,addr:street:Rua Afonso Olindense,addr:suburb:Várzea,shop:pet","lat":-8.0332301,"lng":-34.9554077},{"id":"5762166040","name":"Multiave Saúde Ambiental","tags":"addr:housenumber:5034,addr:street:Avenida Caxangá,shop:pet","lat":-8.0328682,"lng":-34.952376},{"id":"5762203508","tags":"addr:housenumber:106,addr:street:Avenida Afonso Olindense,amenity:school","lat":-8.0321208,"lng":-34.9559674}]