[{"id":"1579110155","tags":"shop:supermarket","lat":-7.9358548,"lng":-34.8245792},{"id":"2072408874","name":"Centro de Esporte Zebra","tags":"leisure:sports_centre","lat":-7.9373506,"lng":-34.8247635},{"id":"3184499283","tags":"amenity:bar","lat":-7.9355784,"lng":-34.822936},{"id":"3502042256","name":"Centro de Esporte Zebra","tags":"leisure:sports_centre","lat":-7.9373806,"lng":-34.8247648},{"id":"3958734782","name":"Shopping Norte;160233","tags":"shop:mall,source:date:2013-03-14","lat":-7.9349009,"lng":-34.8243843},{"id":"3958734783","name":"Shopping Norte;160256","tags":"shop:mall,source:date:2013-03-14","lat":-7.9347545,"lng":-34.8243502},{"id":"3958750381","name":"Bompreço Janga","tags":"addr:city:Paulista,addr:housenumber:2121,addr:postcode:53437-000,addr:street:Avenida Doutor Cláudio José Gueiros Leite,addr:suburb:Janga,phone:0800 014 6000,shop:supermarket","lat":-7.9347172,"lng":-34.8252019},{"id":"5347871787","name":"Farmácias Pague Menos","tags":"addr:city:Paulista,addr:housenumber:2855,addr:postcode:53437-000,addr:street:Avenida Doutor Cláudio José Gueiros Leite,addr:suburb:Janga,amenity:pharmacy,healthcare:pharmacy,phone:+55 81 3436-5805","lat":-7.9325801,"lng":-34.8239682},{"id":"7264576552","tags":"shop:supermarket","lat":-7.9358324,"lng":-34.824574},{"id":"7295583252","name":"Caixa Econômica Federal","tags":"addr:city:Paulista,addr:housenumber:2491,addr:street:Avenida Doutor Cláudio José Gueiros Leite,addr:suburb:Janga,amenity:bank,brand:Caixa Econômica Federal,brand:wikidata:Q835283,brand:wikipedia:pt:Caixa Econômica Federal,phone:+55 81 3457-1300","lat":-7.9352218,"lng":-34.8252074}]