[{"id":"5279927406","name":"Camaragibe","tags":"alt_name:Estação Camaragibe;Metrô Camaragibe,public_transport:station,railway:station,station:subway,subway:yes,wikidata:Q10275619,wikipedia:pt:Estação Camaragibe","lat":-8.0246294,"lng":-34.9953255},{"id":"5622264358","name":"Temaki Shama","tags":"amenity:restaurant","lat":-8.0225587,"lng":-34.9931343},{"id":"5622264359","name":"Creperia Santé","tags":"amenity:restaurant","lat":-8.0225755,"lng":-34.9931969},{"id":"5622264360","name":"Atitude Fit","tags":"leisure:fitness_centre","lat":-8.0225503,"lng":-34.9932531},{"id":"6536148656","name":"Banco24Horas","tags":"amenity:atm,brand:Banco24Horas,brand:wikidata:Q4854069,brand:wikipedia:pt:Banco24Horas","lat":-8.0248292,"lng":-34.995858},{"id":"6536148657","name":"Banco24Horas","tags":"amenity:atm,brand:Banco24Horas,brand:wikidata:Q4854069,brand:wikipedia:pt:Banco24Horas","lat":-8.0248372,"lng":-34.9958765},{"id":"6536148658","name":"Banco24Horas","tags":"amenity:atm,brand:Banco24Horas,brand:wikidata:Q4854069,brand:wikipedia:pt:Banco24Horas","lat":-8.024846,"lng":-34.9958972},{"id":"8656943541","name":"Armazém 23","tags":"addr:city:Camaragibe,addr:street:Rua Teixeira Soares,addr:suburb:Timbi,amenity:restaurant","lat":-8.0217666,"lng":-34.9923061},{"id":"8942691490","name":"Banco24Horas","tags":"amenity:atm,brand:Banco24Horas,brand:wikidata:Q4854069,brand:wikipedia:pt:Banco24Horas","lat":-8.0245718,"lng":-34.9957367}]