[{"id":"1585170355","name":"Núcleo de Segurança Comunitária PPO","tags":"amenity:police","lat":-7.9494063,"lng":-34.8968973},{"id":"7555131637","name":"KONY LOUNGE SUSHIBAR","tags":"addr:city:PAULISTA,addr:housenumber:160,addr:street:Avenida C,addr:suburb:JARDIM PAULISTA BAIXO,amenity:restaurant,cuisine:chinese;japanese","lat":-7.9488394,"lng":-34.8942766},{"id":"9882292284","name":"A Fábrica Pizzas","tags":"addr:city:Paulista,addr:housenumber:26,addr:postcode:53409-670,addr:street:Rua Trinta e Seis,addr:suburb:Jardim Paulista,amenity:restaurant,cuisine:pizza,opening_hours:Mo-Su 16:40-23:20,phone:+55 81 3090-5538,website:https://www.afabricapizzas.com.br/","lat":-7.9524439,"lng":-34.8992647},{"id":"10084820869","name":"Top Fitness","tags":"addr:city:Paulista,addr:housenumber:198,addr:postcode:53407-000,addr:street:Avenida C,addr:suburb:Jardim Paulista,leisure:fitness_centre,opening_hours:Mo-Su 05:00-23:00,phone:+55 81 3371-7438,sport:fitness;gymnastics","lat":-7.9518204,"lng":-34.8982107},{"id":"10084837146","name":"Afrodity","tags":"addr:city:Paulista,addr:housenumber:422,addr:street:Rua Cento e Sete,addr:suburb:Jardim Paulista,leisure:fitness_centre,phone:+55 81 99564-2902,sport:fitness;swimming;gymnastics,website:https://vendafit.com.br/matricula/afroditty-academia","lat":-7.9519613,"lng":-34.8973772},{"id":"10181622774","name":"Sabor Express","tags":"addr:city:Paulista,addr:housenumber:05,addr:postcode:53409-670,addr:street:Rua Trinta e Seis,addr:suburb:Jardim Paulista,amenity:restaurant,cuisine:chinese,opening_hours:Tu-Su 11:00-14:00,18:00-23:00,phone:+55 81 99635-5181","lat":-7.9523595,"lng":-34.8986893},{"id":"10184495683","name":"Barreto's","tags":"addr:city:Paulista,addr:housenumber:385,addr:postcode:53407-270,addr:street:Rua Cento e Oito,addr:suburb:Jardim Paulista,amenity:restaurant,cuisine:pizza;regional;seafood;chicken,opening_hours:Mo-Su 10:30-22:30,phone:+55 81 3437-7317","lat":-7.9515876,"lng":-34.8971436},{"id":"10184505266","name":"Kanela","tags":"addr:city:PAULISTA,addr:street:Rua Setenta e Nove,addr:suburb:JARDIM PAULISTA BAIXO,shop:supermarket","lat":-7.9491011,"lng":-34.896488}]