[{"id":"561900127","name":"Machadus Pizzaria e Self-Service","tags":"amenity:restaurant","lat":-8.041782,"lng":-34.9466502},{"id":"561900193","name":"Brazzettus","tags":"addr:housenumber:4301,addr:street:Avenida Caxangá,amenity:restaurant,cuisine:regional,website:http://www.brazzettus.com.br/","lat":-8.0381372,"lng":-34.9438454},{"id":"1120600116","name":"Escola Pontual","tags":"amenity:school","lat":-8.0415524,"lng":-34.9453558},{"id":"2247140689","name":"Boi & Brasa","tags":"addr:housename:Churrascaria Boi & Brasa,addr:housenumber:4435,addr:street:Avenida Caxangá,amenity:restaurant,cuisine:steak_house","lat":-8.0376806,"lng":-34.9445165},{"id":"2247140697","name":"Colégio Conhecer","tags":"amenity:school","lat":-8.0393134,"lng":-34.9441223},{"id":"2247140706","name":"Colégio Desafio","tags":"amenity:school","lat":-8.0375054,"lng":-34.9407664},{"id":"2247140733","name":"Bradesco","tags":"addr:city:Recife,addr:housename:Agência do Bradesco,addr:housenumber:3941,addr:street:Avenida Caxangá,addr:suburb:Iputinga,amenity:bank,atm:yes,brand:Bradesco,brand:wikidata:Q806181,brand:wikipedia:en:Banco Bradesco,phone:+55 81 3454-2658,website:https://banco.bradesco/html/classic/index.shtm","lat":-8.0398445,"lng":-34.9408457},{"id":"2248402201","name":"Colégio Desafio","tags":"amenity:school","lat":-8.0372584,"lng":-34.9430632},{"id":"4760561922","name":"Drogasil","tags":"addr:city:Recife,addr:housenumber:4474,addr:postcode:50670-000,addr:street:Avenida Caxangá,addr:suburb:Iputinga,amenity:pharmacy,brand:Drogasil,brand:wikidata:Q5308185,brand:wikipedia:pt:Drogasil,healthcare:pharmacy,name:en:Drogasil,name:pt:Drogasil,phone:+55 81 3031-6706,website:https://www.drogasil.com.br/,wheelchair:yes","lat":-8.0373522,"lng":-34.9443952},{"id":"5601656798","name":"Bar do Ricardo","tags":"amenity:bar","lat":-8.0414925,"lng":-34.9466179},{"id":"5601656799","name":"Horti Frios","tags":"shop:supermarket","lat":-8.041273,"lng":-34.9468077},{"id":"5762413393","tags":"addr:housenumber:4316,addr:street:Avenida Caxangá,amenity:bank","lat":-8.0376995,"lng":-34.9436844},{"id":"5846794264","name":"T.I. CDU","tags":"addr:city:Recife,addr:street:Avenida Caxangá,addr:suburb:Várzea,amenity:bus_station,bus:yes,public_transport:station","lat":-8.0386833,"lng":-34.9428329},{"id":"7133743985","name":"5230 Mercadinho O Barateiro","tags":"shop:supermarket","lat":-8.0414627,"lng":-34.9467757},{"id":"7216742392","name":"Correios","tags":"amenity:post_office,operator:Correios,operator:wikidata:Q3375004,operator:wikipedia:en:Correios","lat":-8.0412547,"lng":-34.9381173}]