[{"id":"861729658","tags":"amenity:police","lat":-8.0155582,"lng":-34.852755},{"id":"1206731874","name":"Quatro Cantos","tags":"addr:city:Olinda,addr:suburb:Carmo,description:Quatro Cantos é um cruzamento emblemático do sítio histórico da cidade de Olinda, encontro da Ladeira da Misericórdia, Ruas São Bento, Prudente de Morais e Amparo, por onde passam todos os blocos durante o famoso carnaval.,tourism:attraction","lat":-8.0147051,"lng":-34.8527961},{"id":"4381393892","tags":"amenity:restaurant,name:en:Casbah","lat":-8.0165833,"lng":-34.8507627},{"id":"4381393992","name":"Bar do Peneira","tags":"amenity:restaurant,cuisine:brazilian,name:en:Bar do Peneira","lat":-8.0147176,"lng":-34.8528868},{"id":"4381416190","tags":"name:en:Estasão Conveniência,shop:supermarket","lat":-8.0148221,"lng":-34.8527579},{"id":"4381424989","name":"Estaçao Cafe","tags":"amenity:cafe,cuisine:brazilian;coffee_shop,internet_access:wlan,name:en:Estaçao Cafe","lat":-8.0147372,"lng":-34.8526011},{"id":"4382250597","tags":"amenity:bar,cuisine:italian;portuguese;spanish,name:en:A Tribuna de São Bento","lat":-8.0174649,"lng":-34.8522553},{"id":"4382250898","name":"Museu do Mamulengo Espaço Tiridá","tags":"addr:housenumber:344,addr:street:Rua São Bento,name:en:Museu do Mamulengo Espaço Tiridá,tourism:museum","lat":-8.0163148,"lng":-34.8524029},{"id":"4382273291","tags":"addr:housenumber:3,addr:street:Rua Treze de Maio,amenity:restaurant,cuisine:brazilian;sandwich,name:en:Na Ladeira Comedoria","lat":-8.0171056,"lng":-34.852412},{"id":"4382273492","tags":"amenity:restaurant,cuisine:brazilian,name:en:Patuá Restaurante","lat":-8.0155739,"lng":-34.8528604},{"id":"4382273793","tags":"amenity:restaurant,cuisine:brazilian;pizza,name:en:Sabor do Bonfim Restaurant e Pizzeria","lat":-8.0159875,"lng":-34.8493651},{"id":"4382302690","tags":"addr:housenumber:249,addr:street:Rue Prudente de Moraes,amenity:restaurant,cuisine:brazilian,email:cipriano_sanchez@hotmail.com,internet_access:wlan,name:en:Atelier Lautréamont Cafe,phone:+55 81 9 9929-1556","lat":-8.0160035,"lng":-34.8513889},{"id":"4385225092","tags":"addr:housenumber:239,addr:street:Rua São Bento,amenity:bar,cuisine:brazilian,name:en:A Venda De Seu Biu","lat":-8.0173193,"lng":-34.8523851},{"id":"4437214591","name":"Trattoria Don Francesco","tags":"addr:housenumber:358,addr:postcode:52041-730,addr:street:Rua Prudente de Morais,amenity:restaurant,name:pt:Trattoria Don Francesco","lat":-8.0153174,"lng":-34.852001},{"id":"4929564723","name":"Creperia","tags":"addr:housenumber:168,addr:postcode:53020-140,addr:street:Rua Prudente de Morais,amenity:restaurant,name:en:Creperia,name:pt:Creperia,opening_hours:Mo-Su 11:00-23:00,phone:+55 81 3429-2935,website:https://www.facebook.com/creperiaolinda","lat":-8.0164544,"lng":-34.8507839},{"id":"5607534521","name":"Mercado da Ribeira","tags":"name:en:Ribeira Market,tourism:attraction","lat":-8.0156244,"lng":-34.8526358},{"id":"6401526185","name":"Serenata de Olinda","tags":"tourism:attraction","lat":-8.016624,"lng":-34.8510884},{"id":"7198892185","name":"Ted's Bar Self-Service","tags":"amenity:restaurant","lat":-8.0183688,"lng":-34.8542833},{"id":"9820145717","name":"Casa Estação da Luz","tags":"addr:housenumber:313,addr:street:Rua Prudente de Morais,amenity:nightclub","lat":-8.0156868,"lng":-34.8518217}]