[{"id":"2557802355","name":"Arriégua","tags":"amenity:restaurant","lat":-8.0454978,"lng":-34.9476217},{"id":"4149847316","name":"Pizzaria Degustah","tags":"addr:street:Rua General Polidoro,amenity:restaurant,cuisine:pizza","lat":-8.0450967,"lng":-34.9475947},{"id":"5517677238","tags":"addr:city:Recifef,addr:street:Rua Abatia,addr:suburb:várzea,shop:supermarket","lat":-8.0420983,"lng":-34.9497478},{"id":"5601595573","name":"Pague Menos","tags":"addr:city:Recife,addr:street:Rua General Polidoro,addr:suburb:Várzea,amenity:pharmacy,brand:Pague Menos,brand:wikidata:Q7124466,brand:wikipedia:pt:Pague Menos,dispensing:yes,healthcare:pharmacy","lat":-8.045424,"lng":-34.9479401},{"id":"5762203785","tags":"addr:housenumber:149,addr:street:Rua José avelar,amenity:school","lat":-8.0423459,"lng":-34.9563656},{"id":"5762204717","tags":"addr:housenumber:1235,addr:street:Rua Deputado Cunha Rabelo,amenity:school","lat":-8.04552,"lng":-34.9488547},{"id":"6063966357","tags":"amenity:restaurant","lat":-8.046299,"lng":-34.9511349},{"id":"7133767285","name":"2221 Budega Chinesa Restaurante","tags":"amenity:restaurant","lat":-8.0463489,"lng":-34.9495393}]