[{"id":"9406359403","name":"Sabor na Panela","tags":"addr:city:Camaragibe,addr:housenumber:4237C,addr:street:Avenida Doutor Belmino Correia,addr:suburb:Alberto Maia,amenity:restaurant,cuisine:regional","lat":-8.0215614,"lng":-35.0036326},{"id":"9406359413","name":"Duqueza Rações","tags":"shop:pet","lat":-8.0213642,"lng":-35.0034739},{"id":"9406395718","name":"Pandora Rações","tags":"shop:pet","lat":-8.0215793,"lng":-35.0033498},{"id":"9406395722","name":"Comedora Cheiro Verde","tags":"amenity:restaurant,cuisine:regional","lat":-8.0218284,"lng":-35.0032061},{"id":"9520238050","name":"Espaço beleza Cosméticos","tags":"shop:beauty","lat":-8.0225407,"lng":-35.0031138}]