[{"id":"1993173430","name":"Escola Estadual de Ensino Fundamental João Roberto Borges de Souza","tags":"addr:street:Rua Ozório Milanez Filho,alt_name:João Roberto Borges de Souza,amenity:school","lat":-7.1782615,"lng":-34.8395843},{"id":"6848969654","name":"ESCOLA MUNICIPAL DAVID TRINDAD","tags":"amenity:school","lat":-7.1755322,"lng":-34.8416978},{"id":"6848969655","name":"HED GYM ACADEMIA","tags":"leisure:fitness_centre","lat":-7.1762926,"lng":-34.8405803},{"id":"6848969667","tags":"leisure:fitness_centre","lat":-7.1744389,"lng":-34.8444708},{"id":"8147967268","tags":"amenity:restaurant,cuisine:pizza","lat":-7.1746,"lng":-34.8442155}]