[{"id":"2052041597","name":"Adega do Alfredo","tags":"addr:city:João Pessoa,addr:housenumber:92,addr:postcode:58038250,addr:street:Avenida Ingá,addr:suburb:Manaira,amenity:restaurant,cuisine:regional","lat":-7.1049842,"lng":-34.8302681},{"id":"3849747257","name":"Foot praia","tags":"addr:street:Av. João Maurício,amenity:restaurant,phone:30450039","lat":-7.1035659,"lng":-34.830366},{"id":"5467773841","tags":"leisure:fitness_centre","lat":-7.1045997,"lng":-34.8367703},{"id":"10120832487","name":"Toco Taco","tags":"addr:housenumber:190A,addr:street:Avenida Bananeiras,amenity:restaurant,cuisine:argentinian;brazilian;mexican,opening_hours:We-Th 17:00-23:00; Fr 17:00-01:00; PH open; Su 16:00-23:00; Sa 16:00-01:00,outdoor_seating:yes,takeaway:yes,toilets:yes,wheelchair:limited","lat":-7.1072286,"lng":-34.8293789},{"id":"10689566923","name":"Seu Pexera","tags":"amenity:bar,opening_hours:Tu-Th 16:00-23:00; Fr-Sa 11:00-23:00; Su 11:15-16:00,phone:+55 83 98656-5777","lat":-7.1073214,"lng":-34.8330537}]