[{"id":"8066089111","tags":"amenity:school","lat":-7.1408249,"lng":-34.9126965},{"id":"8066089113","tags":"amenity:childcare","lat":-7.1378191,"lng":-34.9144701},{"id":"8066089114","tags":"leisure:sports_centre,sport:swimming","lat":-7.1374714,"lng":-34.913805},{"id":"8066089115","tags":"amenity:school","lat":-7.1371697,"lng":-34.9140858},{"id":"8066089116","tags":"amenity:school","lat":-7.136728,"lng":-34.9141789},{"id":"8066089118","tags":"shop:supermarket","lat":-7.1361182,"lng":-34.914482},{"id":"8066089126","tags":"shop:convenience","lat":-7.1357672,"lng":-34.9141749},{"id":"8750947373","name":"Centro Pastoral Educativo  Padre Mazza","tags":"addr:city:João Pessoa,addr:housenumber:1508,addr:postcode:58090660,addr:street:Rua Compositor Noel Rosa,amenity:school,amenity_1:monastery,monastery:type:monastery,office:educational_institution,operator:Istituto della Carità del Sacro Cuore – Suore di Don Nicola Mazza,religion:christian,website:https://www.suoredonmazza.org/contatti/","lat":-7.135975,"lng":-34.9104308}]