[{"id":"769268340","name":"Arca de Bilu","tags":"amenity:restaurant","lat":-7.3622851,"lng":-34.8022137},{"id":"769273387","tags":"amenity:parking","lat":-7.3647497,"lng":-34.7986195},{"id":"5347736767","name":"Coqueiro de Tambaba","tags":"natural:tree,tourism:attraction","lat":-7.364963,"lng":-34.7975663},{"id":"5983155287","name":"Xexeu Tambabar","tags":"amenity:bar","lat":-7.365716,"lng":-34.7980339},{"id":"5983160686","name":"Biroska do Diniz","tags":"amenity:bar","lat":-7.3648878,"lng":-34.7984342},{"id":"5983160687","name":"Tambaba Shopping","tags":"shop:convenience","lat":-7.3648803,"lng":-34.7983642}]