[{"id":"4727628394","tags":"access:customers,amenity:parking,fee:no,parking:underground","lat":-5.8591907,"lng":-35.2141962},{"id":"4763937138","tags":"amenity:atm,check_date:2022-03-05,operator:24 Horas","lat":-5.8596237,"lng":-35.214337},{"id":"4763937139","name":"Grill Nordestino","tags":"amenity:restaurant,cuisine:regional;fish;grill;friture;steak_house;pasta;pancake;chicken;kebab;barbecue,email:grillnordestino@hotmail.com,name:pt:Grill Nordestino,phone:+55 84 3207 3389,website:https://www.instagram.com/grill_nordestino","lat":-5.8593325,"lng":-35.2141619},{"id":"4848547621","name":"Tropical Lanches","tags":"amenity:cafe,cuisine:hotdog;breakfast;diner;cake;coffee_shop,name:pt:Tropical Lanches","lat":-5.8594477,"lng":-35.2141995},{"id":"5440681625","tags":"shop:convenience","lat":-5.8576743,"lng":-35.2122141},{"id":"6481129187","name":"Maka Sushi Bar","tags":"amenity:restaurant","lat":-5.8595326,"lng":-35.2143151}]