[{"id":"501619253","tags":"amenity:pharmacy,healthcare:pharmacy","lat":-5.821732,"lng":-35.2138277},{"id":"596686237","name":"Takami Japanese Restaurant","tags":"addr:street:Avenida Prudente de Morais,amenity:restaurant,cuisine:japanese","lat":-5.8194283,"lng":-35.2130741},{"id":"1057159125","name":"Bodega Sanduicheria","tags":"amenity:restaurant,cuisine:sandwich,internet_access:no,internet_access:fee:no","lat":-5.8207269,"lng":-35.2158323},{"id":"1057159157","name":"Villa Mangiare","tags":"amenity:restaurant,cuisine:pizza","lat":-5.8218996,"lng":-35.2138881},{"id":"1277556093","tags":"amenity:parking,fee:yes,parking:surface","lat":-5.8226917,"lng":-35.2125704},{"id":"4386501390","name":"Brasil","tags":"amenity:bank,name:pt:Brasil","lat":-5.8193078,"lng":-35.2126281},{"id":"4386501391","name":"Extrafarma","tags":"amenity:pharmacy,brand:Extrafarma,brand:wikidata:Q20055480,brand:wikipedia:pt:Extrafarma,healthcare:pharmacy,name:pt:Extrafarma","lat":-5.818874,"lng":-35.2128082},{"id":"4396260498","name":"Restaurante Mangai","tags":"amenity:restaurant,name:pt:Restaurante Mangai","lat":-5.8194859,"lng":-35.2121008},{"id":"5221947423","name":"Mega jato","tags":"addr:street:Avenida Jerônimo Câmara,amenity:car_wash,name:pt:Mega jato","lat":-5.8226582,"lng":-35.2221128},{"id":"5431492621","name":"O Amarelinho","tags":"amenity:restaurant","lat":-5.8200678,"lng":-35.213348},{"id":"5919270686","tags":"amenity:pharmacy,healthcare:pharmacy","lat":-5.8205626,"lng":-35.2157475},{"id":"8697439764","name":"Integral Saúde","tags":"addr:city:Natal,addr:housenumber:3413,addr:postcode:59064-630,addr:street:Avenida Prudente de Morais,addr:suburb:Lagoa Nova,amenity:hospital,healthcare:hospital,healthcare:speciality:Medicina_de_Família;Ginecologia;Obstetrícia;Pediatria;Cardiologia;Endocrinologia;Endocrinologia_pediátrica;Dermatologia;Reumatologia;Reumatologia_pediátrica;Pneumologia_Pediátrica_Hepatologia;Fisioterapia;Enfermagem;Nutrição.","lat":-5.8176951,"lng":-35.2119944},{"id":"9543940843","name":"Escola Estadual Presidente Kennedy","tags":"addr:city:Natal,addr:street:Rua Jaguarari,addr:suburb:Lagoa Nova,amenity:school,operator:Governo do Estado do Rio Grande do Norte,operator:type:public,religion:none","lat":-5.8186152,"lng":-35.2186371},{"id":"9592538938","name":"BPChoque - Batalhão de Polícia de Choque da Polícia Militar do Rio Grande do Norte","tags":"addr:city:Natal,addr:street:Avenida Miguel Castro,addr:suburb:Lagoa Nova,amenity:police,operator:Polícia Militar do Estado do Rio Grande do Norte,operator:short:PMRN,operator:wikidata:Q10351032,operator:wikipedia:pt:Polícia Militar do Estado do Rio Grande do Norte","lat":-5.8213044,"lng":-35.2130348},{"id":"9592538939","name":"ROCAM - Rondas Ostencivas com Apoio de Motocicletas da Polícia Militar do Rio Grande do Norte","tags":"amenity:police,operator:Polícia Militar do Estado do Rio Grande do Norte,operator:short:PMRN,operator:wikidata:Q10351032,operator:wikipedia:pt:Polícia Militar do Estado do Rio Grande do Norte","lat":-5.8215948,"lng":-35.2122409}]