[{"id":"1057760192","tags":"amenity:parking,capacity:300,parking:surface","lat":-5.7933657,"lng":-35.2037369},{"id":"5597443174","tags":"amenity:atm","lat":-5.7934495,"lng":-35.2040088},{"id":"5597443175","tags":"amenity:pharmacy,dispensing:yes,healthcare:pharmacy","lat":-5.7934441,"lng":-35.2037379},{"id":"6790217683","name":"Biblioteca Carlos Deodônio Bello Moreno","tags":"amenity:library,internet_access:yes,internet_access:fee:no,opening_hours:Mo-Th 08:00-17:00; Fr 08:00-13:00","lat":-5.7904224,"lng":-35.2006401},{"id":"6790217684","name":"Escola do Legislativo Wilma de Faria","tags":"amenity:school","lat":-5.7904015,"lng":-35.2003458},{"id":"8507208943","tags":"amenity:atm,operator:24 Horas","lat":-5.7899276,"lng":-35.2042235},{"id":"9592986819","name":"Comando de Policiamento da Capital da Polícia Militar do Rio Grande do Norte","tags":"addr:city:Natal,addr:street:Avenida Rodrigues Alves,addr:suburb:Tirol,amenity:police,operator:Polícia Militar do Estado do Rio Grande do Norte,operator:short:PMRN,operator:wikidata:Q10351032,operator:wikipedia:pt:Polícia Militar do Estado do Rio Grande do Norte","lat":-5.7949364,"lng":-35.2018096},{"id":"9825178586","name":"Clínica MedFácil","tags":"addr:city:Nata - RN,addr:housenumber:901,addr:postcode:59020-300,addr:street:Avenida Campos Sales,addr:suburb:Tirol,amenity:hospital,healthcare:hospital,healthcare:speciality:nutrologia;cardiologia;medicina_endocanabinoide;clínica_médica;cirurgia_bariátrica;dermatologia;endocrinologia;gastroenterologia;medicina_da_família_e_comunidade;medicina_esportiva;nutricionista;ortopedia_e_traumatologia;pediatria;psicologia;psiquiatria,name:pt:Med Fácil","lat":-5.7937715,"lng":-35.2020987},{"id":"10061912300","name":"Chapelatto","tags":"amenity:cafe","lat":-5.7929782,"lng":-35.2007795}]