[{"id":"6530743889","name":"Banco do Brasil","tags":"amenity:bank,brand:Banco do Brasil,brand:wikidata:Q610817,brand:wikipedia:en:Banco do Brasil","lat":-5.7730577,"lng":-35.2632389},{"id":"6530743893","name":"Conveniência Altas Horas","tags":"shop:convenience","lat":-5.7731671,"lng":-35.2610291},{"id":"6617216980","name":"Espaço Silvia Mello","tags":"shop:beauty","lat":-5.7718452,"lng":-35.263857},{"id":"6617216982","name":"Ponto das Aves","tags":"shop:pet","lat":-5.7718084,"lng":-35.2639125},{"id":"6621502703","name":"Santander","tags":"amenity:bank,brand:Santander,brand:wikidata:Q5835668,brand:wikipedia:en:Santander Bank","lat":-5.7731035,"lng":-35.2630466}]