[{"id":"1014478647","tags":"amenity:atm,operator:Banco do Brasil","lat":-5.9764292,"lng":-35.1253257},{"id":"3377415626","name":"La Verde Vida","tags":"amenity:restaurant,contact:facebook:https://pt-br.facebook.com/LaVerdeVidaVegetarianosGladis,diet:vegan:only,opening_hours:Sa-Su","lat":-5.9748187,"lng":-35.1292911},{"id":"5278454256","name":"L & L Conveniência","tags":"shop:convenience","lat":-5.9735832,"lng":-35.1316253},{"id":"5360669061","name":"Bella Natal Express","tags":"amenity:restaurant","lat":-5.9756952,"lng":-35.1256816},{"id":"5834622954","name":"UPA 24h Pirangi Praia","tags":"addr:city:Parnamirim,addr:housenumber:S/N,addr:postcode:59161-710,addr:street:Rua Maria Cristina Xavier,addr:suburb:Pirangi do Norte (Distrito Litoral),amenity:hospital,emergency:yes,healthcare:hospital,phone:+55 84 3238-1071","lat":-5.9753533,"lng":-35.1298571},{"id":"6230665886","tags":"amenity:atm,operator:Banco 24 horas","lat":-5.9762621,"lng":-35.1252246},{"id":"6230665887","name":"Drogaria Boa Esperança","tags":"amenity:pharmacy,healthcare:pharmacy,phone:+55 84 3238 3482","lat":-5.9763381,"lng":-35.1251916},{"id":"6231218585","name":"Ponto de Encontro","tags":"shop:convenience","lat":-5.9763164,"lng":-35.1252047},{"id":"8740293498","name":"Mix Pizza","tags":"amenity:restaurant,contact:mobile:+55 84 99831 4989,cuisine:pizza,phone:+55 84 3238 2581;+55 84 99158 6789","lat":-5.9765382,"lng":-35.1250506}]