[{"id":"7507265763","name":"Carvalho Super","tags":"shop:supermarket","lat":-5.1052782,"lng":-42.8075929},{"id":"7507265766","tags":"leisure:fitness_centre","lat":-5.1068581,"lng":-42.8057784},{"id":"8048490908","name":"Residência Barão de Gurgueia","tags":"addr:street:Avenida Barão de Gurguéia,amenity:restaurant,cuisine:steak_house,internet_access:wlan","lat":-5.1071009,"lng":-42.8083701},{"id":"8446843492","name":"U. E. Gabriel Ferreira","tags":"amenity:school","lat":-5.1042938,"lng":-42.8093073},{"id":"9426268007","name":"FTD Educação","tags":"addr:housenumber:1353,addr:street:Avenida Pedro Freitas,shop:books","lat":-5.1044617,"lng":-42.8118349}]