[{"id":"4418235331","name":"Banco do Brasil","tags":"addr:city:Itapecuru Mirim,addr:postcode:65485-000,addr:suburb:Centro,amenity:bank,atm:yes,brand:Banco do Brasil,brand:wikidata:Q610817,brand:wikipedia:en:Banco do Brasil","lat":-3.3940739,"lng":-44.3604457},{"id":"9032430355","name":"UEB José Rodrigues Sobrinho","tags":"addr:city:Itapecuru Mirim,addr:postcode:65485-000,addr:suburb:Centro,amenity:school","lat":-3.3922655,"lng":-44.3588764},{"id":"9040759221","name":"Escola Especial Juliany Mendes - Apae - Itapecuru Mirim","tags":"addr:city:Itapecuru Mirim,addr:postcode:65485-000,addr:street:Avenida Senador Benedito Leite,addr:suburb:Centro,amenity:school","lat":-3.3934197,"lng":-44.3583112},{"id":"9116998644","name":"UEB Cirandinha","tags":"amenity:school","lat":-3.3936316,"lng":-44.3579422},{"id":"9116998645","name":"Ueb Mariana Luz","tags":"addr:city:Itapecuru Mirim,addr:postcode:65485-000,addr:street:Avenida Gomes de Sousa,addr:suburb:Centro,amenity:school","lat":-3.3935593,"lng":-44.3593262},{"id":"9117020854","name":"Ueb Paroquial Sao Vicente De Paulo","tags":"addr:city:Itapecuru Mirim,addr:postcode:65485-000,addr:street:Avenida Brasil,addr:suburb:Centro,amenity:school","lat":-3.3947454,"lng":-44.359235},{"id":"9117067058","name":"Ueb Goncalves Dias","tags":"addr:city:Itapecuru Mirim,addr:postcode:65485-000,addr:street:Rua Coronel Catão,addr:suburb:Centro,amenity:school","lat":-3.3939824,"lng":-44.3612815}]