[{"id":"9110932314","name":"Colegio Imaculada Conceicao Ltda","tags":"amenity:school","lat":-3.6768958,"lng":-42.7566822},{"id":"9121032007","name":"Creche Dom Afonso De Oliveira Lima","tags":"amenity:school","lat":-3.6801185,"lng":-42.7583425},{"id":"9121089688","name":"Colegio Diocesano Ateneu Costa Bacelar","tags":"addr:city:Brejo,addr:postcode:65520-000,addr:street:Rua Gonçalves Dias,addr:suburb:Centro,amenity:school","lat":-3.6759884,"lng":-42.7571677},{"id":"9121098414","name":"Escola Menino Jesus","tags":"addr:city:Brejo,addr:housenumber:417,addr:postcode:65520-000,addr:street:Rua Gonçalves Dias,addr:suburb:Santo Antônio,amenity:school","lat":-3.6784691,"lng":-42.753245},{"id":"9121116049","name":"Ui Armando Bacelar Couto","tags":"addr:city:Brejo,addr:postcode:65520-000,addr:street:Travessa Coronel Nelson Carvalho,addr:suburb:Quintas,amenity:school","lat":-3.6771019,"lng":-42.7528466},{"id":"9121117172","name":"Centro De Ensino Educacional Brejense Ltda","tags":"addr:city:Brejo,addr:housenumber:50,addr:postcode:65520-000,addr:street:Rua Santo Antônio,addr:suburb:Santo Antônio,amenity:school","lat":-3.6792071,"lng":-42.7535212}]