[{"id":"3172785537","name":"Banco do Brasil","tags":"addr:city:Nova Russas,addr:housenumber:1357,addr:postcode:62.200-000,addr:street:Rua Antonio Joaquim de Sousa,addr:suburb:Centro,amenity:bank,atm:yes","lat":-4.7035391,"lng":-40.5662418},{"id":"3172785541","name":"Banco do Nordeste","tags":"amenity:bank,atm:yes","lat":-4.7054023,"lng":-40.5654961},{"id":"3172785542","name":"Bradesco Dia & Noite","tags":"amenity:bank,atm:yes","lat":-4.7060973,"lng":-40.5653191},{"id":"3172811462","name":"Correios - Agência Nova Russas","tags":"amenity:post_office","lat":-4.7054637,"lng":-40.5643268},{"id":"3176859761","name":"Igreja Matriz - Nossa Senhora das Graças","tags":"building:church","lat":-4.7049213,"lng":-40.5655664},{"id":"3176943656","name":"Igreja de São Francisco","tags":"building:church","lat":-4.7027146,"lng":-40.5702683},{"id":"3172811461","name":"Colégio Estadual Olegário Abreu Memória","tags":"amenity:school","lat":-4.7041271,"lng":-40.5647399}]