[{"id":"5067517219","name":"Farmácia Brito","tags":"addr:city:Carnaubal,addr:street:Rua Deputado Vicente Ribeiro,addr:suburb:Centro,amenity:pharmacy","lat":-4.1653294,"lng":-40.9417859},{"id":"5115295463","name":"Restaurante Lado do Sol","tags":"addr:city:Carnaubal,addr:street:Rua 22 de Julho,addr:suburb:Centro,amenity:restaurant","lat":-4.1646529,"lng":-40.9427674},{"id":"5115295466","name":"Farmavida","tags":"addr:city:Carnaubal,addr:street:Rua 22 de Julho,addr:suburb:Centro,amenity:pharmacy","lat":-4.1645125,"lng":-40.9427523},{"id":"5115295473","name":"Pizzaria Califórnia","tags":"addr:city:Carnaubal,addr:street:Rua Pedro Antônio de Melo,addr:suburb:Centro,amenity:restaurant,cuisine:pizza","lat":-4.1641339,"lng":-40.9424546},{"id":"5115295479","name":"Casa do Campo","tags":"addr:city:Carnaubal,addr:street:Rua Deputado Vicente Ribeiro,addr:suburb:Centro,shop:pet","lat":-4.1652999,"lng":-40.9428816},{"id":"5115295481","name":"Restaurante Santo Expedito","tags":"addr:city:Carnaubal,addr:street:Rua Simplício Damasceno,addr:suburb:Centro,amenity:restaurant","lat":-4.1647027,"lng":-40.9430149},{"id":"5115295482","name":"Restaurante Mestre Aldo","tags":"addr:city:Carnaubal,addr:street:Rua José Barroso,addr:suburb:Centro,amenity:restaurant","lat":-4.1649089,"lng":-40.9434986},{"id":"5130933939","tags":"addr:city:Carnaubal,addr:street:Rua Simplício Damasceno,addr:suburb:Centro,amenity:cafe","lat":-4.1649483,"lng":-40.9424473},{"id":"5138280615","name":"Spaço Beleza Natural","tags":"addr:city:Carnaubal,addr:street:Rua José Barroso,shop:beauty","lat":-4.1663544,"lng":-40.9434452},{"id":"5138280616","name":"Mateus Cabelereiro","tags":"addr:city:Carnaubal,addr:street:Rua José Barroso,shop:beauty","lat":-4.1653989,"lng":-40.9433824},{"id":"5138280617","name":"Raí Cabelereiro","tags":"addr:city:Carnaubal,addr:street:Rua Major Felinto,shop:beauty","lat":-4.1658618,"lng":-40.944827},{"id":"5138280721","name":"Cocktail Bar","tags":"addr:city:Carnaubal,addr:street:Rua Pedro Antônio de Melo,amenity:bar","lat":-4.1651339,"lng":-40.937891},{"id":"5138280738","tags":"addr:street:Rua Pedro Antônio de Melo,amenity:car_wash","lat":-4.1642368,"lng":-40.9404059},{"id":"5204756480","name":"Farmácia do Povo","tags":"addr:city:Carnaubal,addr:street:Rua Simplício Damasceno,addr:suburb:Centro,amenity:pharmacy,dispensing:yes,healthcare:pharmacy","lat":-4.164797,"lng":-40.9424674},{"id":"6141233538","name":"Casa dos Frios","tags":"shop:convenience","lat":-4.1655778,"lng":-40.9421784},{"id":"7911258800","name":"Mercadinho Araújo","tags":"shop:supermarket","lat":-4.1638425,"lng":-40.9360946},{"id":"7911258808","tags":"shop:supermarket","lat":-4.1643541,"lng":-40.9407556},{"id":"7911258814","tags":"shop:supermarket","lat":-4.1690503,"lng":-40.9408602},{"id":"7911258815","name":"Casa Nossa Senhora Aparecida","tags":"shop:supermarket","lat":-4.1684397,"lng":-40.9415113},{"id":"7911258816","name":"Mercadinho Hidelbrando","tags":"shop:supermarket","lat":-4.1659251,"lng":-40.9433272},{"id":"7911258821","name":"Mercadinho Manuquinha","tags":"shop:supermarket","lat":-4.1647875,"lng":-40.9425232},{"id":"7911258823","tags":"shop:supermarket","lat":-4.1652021,"lng":-40.9425336},{"id":"7911258826","name":"Mercadinho Araújo","tags":"shop:supermarket","lat":-4.1650409,"lng":-40.9434941},{"id":"7911258827","tags":"shop:supermarket","lat":-4.1652703,"lng":-40.9433708},{"id":"7911258829","name":"Mercadinho Santo Antônio","tags":"shop:supermarket","lat":-4.1640659,"lng":-40.9427988},{"id":"7911258830","tags":"shop:supermarket","lat":-4.1640866,"lng":-40.9426942},{"id":"7911258832","tags":"shop:supermarket","lat":-4.1653633,"lng":-40.9425084},{"id":"7911258857","name":"Multi Variedades","tags":"addr:street:Rua Antônio Pinto de Melo,shop:convenience","lat":-4.1658308,"lng":-40.9411814},{"id":"7988219410","name":"Nosso Armazém","tags":"shop:supermarket","lat":-4.1640878,"lng":-40.9416635},{"id":"9347246575","name":"Crisfarma","tags":"addr:city:Carnaubal,addr:street:Rua Vinte e Dois de Julho,addr:suburb:Centro,amenity:pharmacy,dispensing:yes,healthcare:pharmacy","lat":-4.1642641,"lng":-40.942718},{"id":"9347246583","tags":"addr:street:Rua Deputado Vicente Ribeiro,shop:pet","lat":-4.165572,"lng":-40.9413815},{"id":"9775951489","name":"Sushi Haruno","tags":"amenity:restaurant","lat":-4.1664099,"lng":-40.9360537},{"id":"9775951495","name":"Lava Jato Hidelbrando","tags":"amenity:car_wash","lat":-4.1659378,"lng":-40.9432373}]