[{"id":"5600451138","name":"PRAÇA DA MATRIZ","tags":"leisure:park","lat":-3.314866,"lng":-40.5569424},{"id":"5600451831","name":"Parada 2000","tags":"addr:city:URUOCA,addr:street:Avenida Valdemar Rocha,amenity:restaurant","lat":-3.3144446,"lng":-40.5560212},{"id":"5600459716","name":"Farmácia","tags":"amenity:pharmacy,dispensing:yes,healthcare:pharmacy","lat":-3.3159456,"lng":-40.5584429},{"id":"5600460821","name":"Biblioteca Municipal","tags":"amenity:library","lat":-3.3154565,"lng":-40.557685},{"id":"5600471633","tags":"amenity:school","lat":-3.3135864,"lng":-40.5586031},{"id":"5600513222","name":"Polícia","tags":"addr:city:Uruoca,addr:street:Avenida Antônio Moreira,amenity:police","lat":-3.3147952,"lng":-40.5592809}]