[{"id":"9621352517","name":"Daniel","tags":"addr:street:Rodovia José Abílio Bruno,shop:supermarket","lat":-3.029045,"lng":-39.6525642},{"id":"9858431718","name":"COISA NOSSA","tags":"amenity:restaurant","lat":-3.0283638,"lng":-39.6514325},{"id":"10042425317","tags":"shop:supermarket","lat":-3.0282368,"lng":-39.6501898},{"id":"10058964917","tags":"amenity:pharmacy","lat":-3.029544,"lng":-39.6528154},{"id":"10209759317","name":"Point Da Cidade","tags":"amenity:restaurant","lat":-3.0293854,"lng":-39.6527494},{"id":"10737477806","name":"Sunset academia","tags":"addr:street:Estrada para Moitas Agua Verde,contact:instagram:sunsetacademias,internet_access:wlan,leisure:fitness_centre,phone:88981057303","lat":-3.0281278,"lng":-39.6553438}]