[{"id":"10093114917","name":"E.E.B Francisco Estevao De Assis","tags":"amenity:school","lat":-3.0990892,"lng":-39.5863679},{"id":"10169631569","name":"ICEPRO INSTITUTO CEARENCE DE QUALIFICAÇÕES","tags":"amenity:school","lat":-3.0988507,"lng":-39.5872746},{"id":"10197695417","name":"Restaurante","tags":"amenity:restaurant","lat":-3.0995727,"lng":-39.5877222},{"id":"10197695517","name":"Casa das Frutas","tags":"shop:supermarket","lat":-3.0993951,"lng":-39.5863937},{"id":"10197695617","name":"Mercearia Assis","tags":"shop:supermarket","lat":-3.0995392,"lng":-39.5854911}]