[{"id":"4150016521","name":"Restaurante particular","tags":"amenity:restaurant","lat":-2.5568956,"lng":-44.3084289},{"id":"6386760677","name":"Supermercados Mateus","tags":"shop:supermarket","lat":-2.55586,"lng":-44.3115238},{"id":"6386760678","name":"Casa da Ceia","tags":"addr:street:Rua da União,amenity:restaurant","lat":-2.5560045,"lng":-44.3116581},{"id":"6386760679","name":"Bacanga Peças","tags":"shop:mall","lat":-2.5558161,"lng":-44.3115832},{"id":"6386760680","name":"Galeteria Bacanga","tags":"addr:street:Rua São Sebastião,amenity:restaurant","lat":-2.5554266,"lng":-44.3121126},{"id":"7261138213","tags":"leisure:park","lat":-2.5564474,"lng":-44.3095232},{"id":"7261138214","tags":"leisure:park","lat":-2.5561366,"lng":-44.3095419},{"id":"7261138215","tags":"leisure:park","lat":-2.5561741,"lng":-44.3100462},{"id":"7261138216","tags":"leisure:park","lat":-2.5564849,"lng":-44.3099818},{"id":"7261138217","tags":"leisure:park","lat":-2.5562009,"lng":-44.3085844},{"id":"7261138218","tags":"leisure:park","lat":-2.5585516,"lng":-44.3080886},{"id":"7261138220","tags":"leisure:park","lat":-2.5585301,"lng":-44.3085138},{"id":"7261138225","tags":"leisure:park","lat":-2.5562247,"lng":-44.3080824},{"id":"7285361619","tags":"leisure:park","lat":-2.5583078,"lng":-44.3093194},{"id":"7285361620","tags":"leisure:park","lat":-2.5582126,"lng":-44.3095939},{"id":"7285361621","tags":"leisure:park","lat":-2.5585853,"lng":-44.309279},{"id":"7285361622","tags":"leisure:park","lat":-2.5585772,"lng":-44.3095536},{"id":"7285361623","tags":"leisure:park","lat":-2.5579448,"lng":-44.309644},{"id":"7285361625","tags":"leisure:park","lat":-2.5576438,"lng":-44.3096044},{"id":"7285361626","tags":"leisure:park","lat":-2.5575374,"lng":-44.3092017},{"id":"7285361627","tags":"amenity:library","lat":-2.5573841,"lng":-44.3089843},{"id":"9040460039","name":"Centro Educacional Portal Do Saber","tags":"addr:city:São Luis,addr:postcode:. 65080-840,addr:street:Rua Sarney Filho,addr:suburb:Bacanga,amenity:school","lat":-2.5563159,"lng":-44.3129508},{"id":"9231238871","name":"Ueb Ens Fund Raimundo Chaves","tags":"addr:city:São Luís,addr:postcode:65080-410,addr:street:Rua da União,addr:suburb:Bacanga,amenity:school","lat":-2.5573877,"lng":-44.3129991}]