[{"id":"4357991790","name":"Restaurante Cinco Irmãs","tags":"addr:city:Alcântara,addr:postcode:65250-000,addr:street:Rua de Baixo,addr:suburb:Centro,air_conditioning:no,amenity:restaurant,cuisine:brazilian,name:en:Cinco Irmãs Restaurant,payment:cash:yes,wheelchair:limited","lat":-2.407362,"lng":-44.4169264},{"id":"4738778139","name":"Restaurante e Pousada da Josefa","tags":"amenity:restaurant,tourism:hotel","lat":-2.4062069,"lng":-44.415204},{"id":"4844514421","name":"Banco do Brasil","tags":"amenity:atm,brand:Banco do Brasil,brand:wikidata:Q610817,brand:wikipedia:en:Banco do Brasil,operator:Banco do Brasil,operator:wikidata:Q610817,operator:wikipedia:en:Banco do Brasil","lat":-2.4077129,"lng":-44.4165389},{"id":"4844588921","name":"Bradesco","tags":"amenity:atm,brand:Bradesco,brand:wikidata:Q806181,brand:wikipedia:en:Banco Bradesco,operator:Bradesco,operator:wikidata:Q806181,operator:wikipedia:en:Banco Bradesco","lat":-2.4062495,"lng":-44.4150624},{"id":"4975899121","name":"Restaurante Colonial","tags":"addr:city:Alcântara,addr:postcode:65250-000,addr:street:Rua Direita,addr:suburb:Centro,amenity:restaurant,cuisine:burger;brasileira,delivery:yes,name:pt:Colonial Restaurant,outdoor_seating:yes,payment:cards:yes,payment:cash:yes","lat":-2.4066779,"lng":-44.4149869},{"id":"5443789014","tags":"amenity:pharmacy,healthcare:pharmacy","lat":-2.4076211,"lng":-44.4162668},{"id":"5443789016","name":"Pelourinho de Alcântara (Picota)","tags":"historic:monument,image:https://upload.wikimedia.org/wikipedia/commons/1/18/Alc%C3%A2ntara_-_01.jpg,tourism:attraction","lat":-2.4087292,"lng":-44.4174095},{"id":"7140939686","name":"E. M. Inácio de Viveiros Raposo","tags":"addr:city:Alcântara,addr:housenumber:181,addr:postcode:65250-000,addr:street:Rua de Baixo,addr:suburb:Centro,amenity:school,operator:Prefeitura de Alcântara,operator:type:public","lat":-2.4071395,"lng":-44.4158751},{"id":"7233962510","name":"Museu Historico de Alcantara","tags":"tourism:museum","lat":-2.4081615,"lng":-44.4176746},{"id":"9548706952","name":"Jardim de Infância Inácio de Viveiros Raposo","tags":"addr:city:Alcântara,addr:postcode:65250-000,addr:street:Rua Grande,addr:suburb:Centro,amenity:childcare,operator:Prefeitura de Alcântara,operator:type:public","lat":-2.4072533,"lng":-44.4160238}]