[{"id":"7170260312","tags":"shop:convenience","lat":-2.5554513,"lng":-44.2505273},{"id":"9346543859","name":"Centro De Ensino Lara Ribas","tags":"amenity:school","lat":-2.5570327,"lng":-44.2475317},{"id":"9346581238","name":"Ec Sao Francisco De Assis","tags":"amenity:school","lat":-2.5587637,"lng":-44.2462201},{"id":"9346590792","name":"Centro Educacional Maria Ines Saboya","tags":"amenity:school","lat":-2.5544067,"lng":-44.2496748},{"id":"9347698551","name":"Centro Educacional Jerusalem","tags":"amenity:school","lat":-2.5572229,"lng":-44.2426716}]