[{"id":"9347604471","name":"Centro De Aprendizagem Conceicao De Maria","tags":"amenity:school","lat":-2.5684635,"lng":-44.1981952},{"id":"9347604552","name":"Centro Educacional E Assistencial Alianca","tags":"amenity:school","lat":-2.5704249,"lng":-44.1996114},{"id":"9347606301","name":"Creche Estacao Kids","tags":"amenity:school","lat":-2.5680429,"lng":-44.2036454},{"id":"9347611185","name":"Instituto Educacional Jardim De Deus","tags":"amenity:school","lat":-2.5679652,"lng":-44.2032753},{"id":"9347711442","name":"Creche Paraiso Da Crianca","tags":"amenity:school","lat":-2.5683376,"lng":-44.2051394},{"id":"9347721803","name":"Instituto Educacional Comunitario Sonho Das Criancas","tags":"amenity:school","lat":-2.5671157,"lng":-44.206282}]