[{"id":"964038580","name":"Delegacia do Cohatrac","tags":"amenity:police","lat":-2.5381278,"lng":-44.2022953},{"id":"964053887","name":"U.I. Pe Newton Pereira","tags":"amenity:school","lat":-2.5392103,"lng":-44.2026768},{"id":"964300360","name":"Pague Menos","tags":"amenity:pharmacy,brand:Pague Menos,brand:wikidata:Q7124466,brand:wikipedia:pt:Pague Menos,healthcare:pharmacy","lat":-2.5400845,"lng":-44.2078307},{"id":"965036299","name":"Estádio Gilzão","tags":"leisure:stadium,tourism:museum","lat":-2.5383438,"lng":-44.2079719},{"id":"965541675","name":"Supermercado Mateus","tags":"shop:supermarket","lat":-2.5425496,"lng":-44.20441},{"id":"965541678","name":"Clínica Santo André","tags":"amenity:hospital,healthcare:hospital","lat":-2.539034,"lng":-44.2049953},{"id":"969885230","name":"Supermercado Globo","tags":"shop:supermarket","lat":-2.5430291,"lng":-44.2066696},{"id":"5365071900","name":"UEB Primavera","tags":"amenity:school","lat":-2.5390313,"lng":-44.2031239},{"id":"5383901134","name":"Bella Pizza","tags":"amenity:restaurant,cuisine:pizza,restaurant:Bella Pizza","lat":-2.5388121,"lng":-44.2037866},{"id":"5512805825","name":"KGB","tags":"leisure:fitness_centre","lat":-2.5401752,"lng":-44.2076887},{"id":"5512805826","name":"Farmácia do Trabalhador","tags":"amenity:pharmacy,dispensing:yes,healthcare:pharmacy","lat":-2.5398255,"lng":-44.2080454},{"id":"5512805828","name":"Bella Pharma Laboratórios de Manipulação","tags":"amenity:pharmacy,dispensing:yes,healthcare:pharmacy","lat":-2.5400934,"lng":-44.2083056},{"id":"5512805830","name":"Farmácias Globo","tags":"amenity:pharmacy,dispensing:yes,healthcare:pharmacy","lat":-2.5401243,"lng":-44.2084746},{"id":"9041007851","name":"Ji Rosa Menina E Colegio Santo Expedito","tags":"addr:city:São Luís,addr:housenumber:56,addr:postcode:65053-620,addr:street:Rua E,addr:suburb:Cohatrac,amenity:school","lat":-2.5417391,"lng":-44.2039566},{"id":"9347640875","name":"Colegio Alternativo Maranhense","tags":"amenity:school","lat":-2.5419441,"lng":-44.2029507}]