[{"id":"9037998629","name":"Centro Educacional Evangelico Messias Alves","tags":"addr:city:São José de Ribamar,addr:postcode:65110-000,addr:street:Rua São João,addr:suburb:Centro,amenity:school,phone:+55 98 3224 2250","lat":-2.5543853,"lng":-44.0580042},{"id":"9191365428","name":"Colegio Comunitario Coracao De Jesus","tags":"amenity:school","lat":-2.5576798,"lng":-44.0652627},{"id":"9191388592","name":"Em Prof Dario Santos","tags":"amenity:school","lat":-2.5551194,"lng":-44.0575384},{"id":"9191471538","name":"Escola Municipal Humberto De Campos","tags":"amenity:school","lat":-2.5562511,"lng":-44.0571546},{"id":"9191508697","name":"Em Sao Raimundo","tags":"amenity:school","lat":-2.555561,"lng":-44.0647126},{"id":"9191600500","name":"Em Prof Quinto Aires","tags":"amenity:school","lat":-2.5558229,"lng":-44.066064},{"id":"9191608766","name":"Creche Vovo Lola","tags":"addr:city:São José de Ribamar,addr:housenumber:60,addr:postcode:65110-000,addr:street:Rua Getulio Vargas,addr:suburb:São Raimundo,amenity:school","lat":-2.5551518,"lng":-44.0648158},{"id":"9191652432","name":"Escola Municipal Monteiro Lobato","tags":"amenity:school","lat":-2.5588907,"lng":-44.0603962},{"id":"9191660444","name":"Em Dr Paulo Ramos","tags":"amenity:school","lat":-2.5592071,"lng":-44.055717}]