[{"id":"5153859874","name":"Estrela do Mar","tags":"amenity:restaurant","lat":-2.4884957,"lng":-44.2854672},{"id":"5189422108","name":"Banco do Brasil","tags":"amenity:bank,brand:Banco do Brasil,brand:wikidata:Q610817,brand:wikipedia:en:Banco do Brasil","lat":-2.4930566,"lng":-44.2839115},{"id":"5189422109","name":"Dona Maria","tags":"amenity:restaurant","lat":-2.4926785,"lng":-44.280595},{"id":"6661065171","name":"Drogasil","tags":"amenity:pharmacy,brand:Drogasil,brand:wikidata:Q5308185,brand:wikipedia:pt:Drogasil,dispensing:yes,healthcare:pharmacy,wheelchair:yes","lat":-2.4929962,"lng":-44.2848794},{"id":"8288176972","name":"Comidinhas Praia","tags":"amenity:restaurant","lat":-2.488483,"lng":-44.2853231}]