[{"id":"4357164653","tags":"amenity:parking","lat":-2.5364327,"lng":-44.2940899},{"id":"7635712330","name":"Bar do velho","tags":"addr:city:s達o luis,addr:housenumber:100,addr:postcode:65025250,addr:street:Rua Catulo da Paix達o Cearense,addr:suburb:Vila Passos,amenity:bar,brewery:various,min_age:18,opening_hours:24/7,power:portal","lat":-2.5352084,"lng":-44.2889398},{"id":"7635728822","name":"Agua do Leleu","tags":"addr:city:s達o luis,addr:housenumber:120,addr:postcode:65025250,addr:street:Rua Catulo da Paix達o Cearense,addr:suburb:Vila Passos,amenity:bar,brewery:various;water,min_age:14,power:cable_distribution_cabinet","lat":-2.535744,"lng":-44.2888101},{"id":"9312415750","name":"Escola Gurilandia Eireli","tags":"amenity:school","lat":-2.5332707,"lng":-44.288796},{"id":"9347599137","name":"Col Batista Ludovicense","tags":"amenity:school","lat":-2.5369387,"lng":-44.2930783}]