[{"id":"3886691224","name":"Banco do Brasil","tags":"amenity:bank,atm:yes","lat":-5.1994072,"lng":-39.2943559},{"id":"3886691225","name":"Bradesco","tags":"amenity:bank,atm:yes","lat":-5.1985506,"lng":-39.2951872},{"id":"3886691231","tags":"shop:supermarket","lat":-5.199087,"lng":-39.2949667},{"id":"3914611478","tags":"shop:supermarket","lat":-5.2007294,"lng":-39.2928833},{"id":"4128240024","name":"Banco do Nordeste","tags":"amenity:bank","lat":-5.198771,"lng":-39.2970769},{"id":"5137506833","tags":"amenity:post_office,operator:Correios","lat":-5.1994149,"lng":-39.2957955},{"id":"8350231617","name":"Vando Variedades","tags":"amenity:library","lat":-5.2003347,"lng":-39.2930512},{"id":"8511460943","name":"Hospital Perpertuo Socorro (Hospital Infantil)","tags":"amenity:hospital,healthcare:hospital","lat":-5.1972575,"lng":-39.2959237}]