[{"id":"8510178179","name":"Suely unhas","tags":"addr:housenumber:3157,addr:street:Rua José Firmino dos Santos,phone:+55 88 9 9200 1334,shop:beauty","lat":-5.1616874,"lng":-38.0976868},{"id":"8510180671","name":"Mecadinho ingrid","tags":"addr:street:Rua Cândido Gadelha,shop:convenience","lat":-5.1595626,"lng":-38.0975609},{"id":"8510182665","name":"Marmitaria Santa Rita","tags":"addr:housenumber:1257,addr:street:Rua Valderez Gurgel,amenity:restaurant,phone:+55 88 9 9830 1985","lat":-5.1598892,"lng":-38.0977832},{"id":"8510195628","name":"Poli Car Estética Automotiva","tags":"addr:street:Rua Cosme Damião da Silva,amenity:car_wash","lat":-5.1603189,"lng":-38.0993846},{"id":"8514841519","name":"Bar E Restauranre O Diassis","tags":"addr:housenumber:1012,addr:street:Rua Cândido Olímpio,amenity:bar,phone:+55 88 9 9638 0750","lat":-5.1620626,"lng":-38.1001892}]