[{"id":"8734767033","name":"Studio De Beleza Jair Nery","tags":"addr:street:Rua Padre Joaquim Menezes,shop:beauty","lat":-5.0753126,"lng":-37.9904366},{"id":"8734767034","name":"Mercadinho Cabaré","tags":"addr:housenumber:474,addr:street:Rua Vereador Efisio Costa,shop:supermarket","lat":-5.0754375,"lng":-37.9891891},{"id":"8735950075","name":"Churrascaria São Paulo","tags":"addr:street:Rua Hadoque Costa,amenity:restaurant,cuisine:steak_house,phone:+55 88 9 9237 0537","lat":-5.0752922,"lng":-37.9883498},{"id":"8735950294","name":"Loja Via Animal","tags":"addr:housenumber:1118,addr:street:Rua Manoel Gonçalves,phone:+55 88 9 9902 0013,shop:pet","lat":-5.0726876,"lng":-37.9906883},{"id":"8736184481","name":"Supermercado Araújo","tags":"addr:housenumber:66,phone:+55 88 3443 1173,shop:supermarket","lat":-5.0730624,"lng":-37.9901886},{"id":"8736224870","name":"Banco do Brasil","tags":"addr:street:Rua Joaquim Moreira,amenity:bank,brand:Banco do Brasil,brand:wikidata:Q610817,brand:wikipedia:en:Banco do Brasil","lat":-5.0722628,"lng":-37.9901136},{"id":"8736256690","name":"Banco do Brasil","tags":"addr:street:Rua Joaquim Moreira,amenity:bank,brand:Banco do Brasil,brand:wikidata:Q610817,brand:wikipedia:en:Banco do Brasil,phone:+55 88 4003 3001","lat":-5.0744376,"lng":-37.9850616},{"id":"8736259255","name":"Skina Bar","tags":"addr:housenumber:531,addr:street:Rua João Batista de Oliveira,amenity:bar","lat":-5.0724636,"lng":-37.9871718},{"id":"8736315319","name":"Farmacia Do Trabalhador","tags":"addr:housenumber:301,addr:street:Rua Padre Zacarias,amenity:pharmacy,healthcare:pharmacy","lat":-5.0741873,"lng":-37.9888115},{"id":"8736316489","name":"Bradesco","tags":"addr:housenumber:624,addr:street:Rua Padre Zacarias,amenity:bank,brand:Bradesco,brand:wikidata:Q806181,brand:wikipedia:en:Banco Bradesco","lat":-5.0734377,"lng":-37.9903107},{"id":"8736460458","name":"Bandeira atacarejo","tags":"addr:housenumber:936,addr:street:Avenida Manoel Gonçalves,phone:+55 88 9 9245 0424,shop:supermarket","lat":-5.0711875,"lng":-37.9900627},{"id":"8736465584","name":"Correios","tags":"addr:housenumber:1029,addr:street:Rua Manoel Gonçalves,amenity:post_office,operator:Correios,operator:wikidata:Q3375004,operator:wikipedia:en:Correios,phone:+55 88 3443 1307","lat":-5.0719376,"lng":-37.9903107},{"id":"8736467546","name":"Supermercado O Rei das Novidades","tags":"addr:housenumber:932,addr:street:Rua Manoel Gonçalves,phone:+55 88 3443 1185,shop:supermarket","lat":-5.0717285,"lng":-37.9903224},{"id":"8739779739","name":"Maria Celi de Oliveira Padaria","tags":"addr:street:Rua João Batista de Oliveira,craft:bakery","lat":-5.0726876,"lng":-37.9860611},{"id":"8739798644","name":"Estátua em homenagem ao Monsenhor Oliveira","tags":"addr:street:Rua João Batista de Oliveira,tourism:attraction","lat":-5.0713124,"lng":-37.989563},{"id":"9693358475","name":"Lagoa do Pontal","tags":"addr:city:Quixeré,addr:postcode:62920000,addr:suburb:Pontal,tourism:attraction","lat":-5.0748071,"lng":-37.9903915}]