[{"id":"8734679100","name":"Mercado Santa Luzia","tags":"addr:street:Rua Agostinho Gonçalves Lima,shop:supermarket","lat":-5.0771875,"lng":-37.9880638},{"id":"8734679101","name":"Bistrô mama mia","tags":"addr:street:Rua Alexandre Xavier da Silva,amenity:restaurant,phone:+55 88 9 9332 5670","lat":-5.0779289,"lng":-37.9876433},{"id":"8734687188","name":"Bar Do Marido Da Branca","tags":"addr:housenumber:1430,addr:street:Rua José Gonçalves Ferreira Lima,amenity:bar","lat":-5.0765624,"lng":-37.9901886},{"id":"8734715915","name":"Merceria pontal do ceara","tags":"addr:housenumber:1340,addr:street:Rua Agostinho Gonçalves Lima,phone:+55 88 9 9313 4470,shop:supermarket","lat":-5.0773125,"lng":-37.9881859},{"id":"8734732758","name":"Rede Cabaré","tags":"addr:housenumber:496,addr:street:Rua Vereador Efisio Costa,shop:supermarket","lat":-5.0756874,"lng":-37.9888115},{"id":"8734734198","name":"Aconchego da lagoa","tags":"addr:housenumber:1355,addr:street:Rua Agostinho Gonçalves Lima,amenity:bar","lat":-5.0775623,"lng":-37.9880638},{"id":"8734760080","name":"Deposito Lagoa Nova","tags":"addr:street:Rua Noé Viana Barbosa,amenity:bar,phone:+55 88 9 9695 4055","lat":-5.0766873,"lng":-37.9903107},{"id":"8734767040","name":"Panificadora Santo Onofre","tags":"addr:housenumber:1271,addr:street:Rua Agostinho Gonçalves Lima,craft:bakery,phone:+55 88 9 9254 2579","lat":-5.0768123,"lng":-37.9876862},{"id":"8734770236","name":"Marmitaria tempero caseiro","tags":"addr:street:Rua Vereador Efisio Costa,amenity:restaurant,phone:+55 88 9 9851 1803","lat":-5.0801873,"lng":-37.9810638}]