[{"id":"2078132435","name":"Escola Monteiro Lobato","tags":"amenity:school","lat":-4.2252827,"lng":-38.9188021},{"id":"2752343460","name":"Alto da Matança","tags":"natural:peak,tourism:attraction","lat":-4.2258592,"lng":-38.9175411},{"id":"2752343498","name":"Loterias Teotônio","tags":"amenity:bank,operator:Caixa Econômica Federal,shop:lottery","lat":-4.2248807,"lng":-38.9212669},{"id":"2752343510","name":"Centro","tags":"natural:peak,tourism:attraction","lat":-4.2252946,"lng":-38.9209686},{"id":"2752343657","name":"Quadra de Esportes","tags":"leisure:stadium","lat":-4.2247621,"lng":-38.9151698},{"id":"4295915500","name":"Cantina di Franco","tags":"amenity:restaurant,cuisine:italian;noodles;italian_pizza;pizza;pasta;savory_pancakes;tea;ice_cream;pancake,internet_access:wlan,opening_hours:Mo-Su 10:00-22:00","lat":-4.2258127,"lng":-38.9223864},{"id":"4295915501","name":"Nailson","tags":"amenity:bar,cuisine:sausage;chicken;kebab;friture;barbecue,internet_access:wlan,opening_hours:Mo-Su 10:00-22:00","lat":-4.2254471,"lng":-38.9227445},{"id":"9196061873","name":"Menor Preço","tags":"amenity:pharmacy,phone:+55 85 988681932","lat":-4.2248924,"lng":-38.921537}]