[{"id":"6967575034","name":"Escola de tempo parcial Irmã Giuliana Galli","tags":"addr:city:Fortaleza,addr:housenumber:715,addr:postcode:60741-110,addr:street:Rua Antonio Botelho,alt_name:ETP Irmã Giuliana Galli,amenity:school,building:school,operator:Secretaria Municipal da Educação","lat":-3.784018,"lng":-38.5497288},{"id":"6967575070","name":"Escola de ensino fundamental e médio Professor Jader Moreira de Carvalho","tags":"addr:city:Fortaleza,addr:housenumber:420,addr:postcode:60742-105,addr:street:Profa Heloisa Ferreira Lima,alt_name:EEFM Professor Jader Moreira de Carvalho,amenity:school,building:school,operator:Secretaria da Educação do Estado do Ceará,phone:+55 85 31012993","lat":-3.7846195,"lng":-38.5453942},{"id":"6967597248","name":"Escola de tempo parcial Marcos Valentim Pereira de Souza","tags":"addr:city:Fortaleza,addr:housenumber:91,addr:postcode:60742-110,addr:street:Rua Freire Alemão,alt_name:ETP Marcos Valentim Pereira de Souza,amenity:school,building:school,operator:Secretaria Municipal da Educação,phone:+55 85 34525136","lat":-3.7830535,"lng":-38.5426115},{"id":"9848444882","tags":"shop:beauty","lat":-3.7843954,"lng":-38.543821},{"id":"9848444883","tags":"shop:beauty","lat":-3.7843993,"lng":-38.5437882},{"id":"9848506163","name":"Studio Fernanda Sousa","tags":"addr:city:Fortaleza,addr:housenumber:162,addr:street:Rua Freire Alemão,addr:suburb:Serrinha,beauty:micropigmentação;extensão_de_cílios;desagner_de_sobrancelhas,phone:+55 85 9 9299 2334,shop:beauty","lat":-3.7845551,"lng":-38.5437738}]