[{"id":"6387062577","name":"Expresso Grill","tags":"addr:city:Fortaleza,addr:street:Avenida Senador Fernandes Távora,addr:suburb:Henrique Jorge,amenity:restaurant,cuisine:pizza;regional;steak_house,opening_hours:10:00-22:00,outdoor_seating:no","lat":-3.7596532,"lng":-38.5871742},{"id":"6508869634","name":"Espetinho da Diretoria","tags":"addr:city:Fortaleza,addr:street:Rua Aracaju,addr:suburb:Henrique Jorego,amenity:bar,outdoor_seating:yes","lat":-3.7607404,"lng":-38.5879869},{"id":"6579949885","tags":"leisure:fitness_centre","lat":-3.7600933,"lng":-38.585488},{"id":"6967575078","name":"Escola de ensino fundamental e médio Professor Paulo Freire","tags":"addr:city:Fortaleza,addr:housenumber:1936,addr:postcode:60510-290,addr:street:Avenida Senador Fernandes Tavora,alt_name:EEFM Professor Paulo Freire,amenity:school,building:school,operator:Secretaria da Educação do Estado do Ceará,phone:+55 85 34968554","lat":-3.7580841,"lng":-38.5890667},{"id":"6967575082","name":"Escola de ensino fundamental e médio João Paulo II","tags":"addr:city:Fortaleza,addr:housenumber:1125,addr:postcode:60521-055,addr:street:Avenida Professor Heribaldo Costa,alt_name:EEFM João Paulo II,amenity:school,building:school,operator:Secretaria da Educação do Estado do Ceará,phone:+55 85 34967945","lat":-3.7625316,"lng":-38.5850036},{"id":"7323231661","name":"Clube de Tiro C7 Gun","tags":"leisure:sports_centre,sport:shooting","lat":-3.7573493,"lng":-38.5865968}]