[{"id":"3908318125","tags":"amenity:atm","lat":-3.7726349,"lng":-38.6077326},{"id":"4470676512","name":"Droga Nova Farmácia","tags":"addr:city:Fortaleza,addr:housenumber:780,addr:street:Avenida (B) Alanis Maria Laurindo de Oliveira,addr:suburb:Conjunto Ceará,amenity:pharmacy,healthcare:pharmacy","lat":-3.7684475,"lng":-38.6075254},{"id":"4470676516","name":"Espetinho do Eudênio","tags":"addr:city:Fortaleza,addr:housenumber:423,addr:street:Avenida Ministro Albuquerque Lima,addr:suburb:Conjunto Ceará,amenity:restaurant","lat":-3.7686276,"lng":-38.607612},{"id":"4470682644","name":"Boteco do Camarão","tags":"addr:city:Fortaleza,addr:housenumber:344,addr:street:Avenida Ministro Albuquerque Lima,addr:suburb:Conjunto Ceará,amenity:restaurant","lat":-3.7684322,"lng":-38.6081227},{"id":"4470790521","name":"Auto Escola Omega","tags":"addr:city:Fortaleza,addr:housenumber:66,addr:street:Rua 151,addr:suburb:Conjunto Ceará,amenity:school","lat":-3.7693186,"lng":-38.6074741},{"id":"4470790524","name":"Ceviche Sushi","tags":"addr:city:Fortaleza,addr:housenumber:610,addr:street:Avenida Ministro Albuquerque Lima,addr:suburb:Conjunto Ceará,amenity:restaurant","lat":-3.769773,"lng":-38.6069067},{"id":"4470790525","name":"Qi Educação Profissional","tags":"addr:city:Fortaleza,addr:housenumber:116,addr:street:Rua 151,addr:suburb:Conjunto Ceará,amenity:school","lat":-3.7697986,"lng":-38.6068133},{"id":"4470864229","name":"Imperador Pizzariae Lanchonete","tags":"addr:city:Fortaleza,addr:housenumber:738,addr:street:Avenida Ministro Albuquerque Lima,addr:suburb:Conjunto Ceará,amenity:restaurant","lat":-3.7701504,"lng":-38.6062693},{"id":"4477589838","name":"Rafa Spettus","tags":"addr:city:Fortaleza,addr:housenumber:s/n,addr:street:Rua 329,addr:suburb:Conjunto Ceará,amenity:restaurant","lat":-3.7719126,"lng":-38.6133427},{"id":"8907417995","name":"Chill Out Bar","tags":"addr:city:Fortaleza,addr:housenumber:461,addr:postcode:60533-655,addr:street:Avenida G,addr:suburb:Conjunto Ceará,amenity:bar","lat":-3.7727036,"lng":-38.6113112}]