[{"id":"5859498885","tags":"shop:convenience","lat":-3.7239881,"lng":-38.5416277},{"id":"5859498886","tags":"amenity:restaurant","lat":-3.7240637,"lng":-38.541641},{"id":"5909751066","name":"Frango do Louro","tags":"addr:city:Fortaleza,addr:housenumber:1808,addr:postcode:60010-450,addr:street:Avenida Francisco Sá,addr:suburb:Jacarecanga,amenity:restaurant","lat":-3.7223923,"lng":-38.5418345},{"id":"5909791790","name":"Mecadinho Diamante Verde","tags":"addr:city:Fortaleza,addr:housenumber:1690,addr:postcode:60010-281,addr:street:Avenida Francisco Sá,addr:suburb:Jacarecanga,shop:convenience","lat":-3.7227153,"lng":-38.5408995},{"id":"5910505880","name":"FG Mercadinho","tags":"addr:city:Fortaleza,addr:housenumber:706,addr:postcode:60010-281,addr:street:Avenida Filomeno Gomes,addr:suburb:Jacarecanga,shop:convenience","lat":-3.7212099,"lng":-38.5413521}]