[{"id":"4224416331","name":"Smart Fit","tags":"addr:city:Fortaleza,addr:housenumber:2200,addr:postcode:60120-002,addr:street:Avenida Barão de Studart,addr:suburb:Joaquim Távora,branch:Barão de Studart,brand:Smart Fit,brand:wikidata:Q30930959,brand:wikipedia:pt:Smart Fit,leisure:fitness_centre,level:2,opening_hours:Mo-Fr 05:30-23:00; Sa 08:00-14:00; Su 09:00-15:00,operator:Smart Fit,website:https://www.smartfit.com.br/unidades/barao-de-studart,wheelchair:yes","lat":-3.7428962,"lng":-38.5094589},{"id":"5002168225","name":"Espaço F2 - Estúdio de Pilates","tags":"leisure:fitness_centre,sport:pilates","lat":-3.7426439,"lng":-38.5079342},{"id":"6796047362","name":"Evandro Delicatessen","tags":"addr:city:Fortaleza,addr:housenumber:2169,addr:postcode:60115-171,addr:street:Rua Carlos Vasconcelos,addr:suburb:Joaquim Távora,amenity:restaurant,cuisine:regional;coffee_shop;sandwich,opening_hours:Mo-Su 05:00-20:00,takeaway:yes","lat":-3.7409178,"lng":-38.5133024},{"id":"6803094427","name":"Morena Bonita","tags":"addr:city:Fortaleza,addr:housenumber:2611,addr:postcode:60115-171,addr:street:Rua Carlos Vasconcelos,addr:suburb:Joaquim Távora,opening_hours:Mo-Sa 08:00-18:00,shop:beauty","lat":-3.7447142,"lng":-38.5144702},{"id":"6803507413","name":"Canecanto","tags":"addr:city:Fortaleza,addr:housenumber:2440,addr:postcode:60120-001,addr:street:Avenida Barão de Studart,addr:suburb:Aldeota,amenity:restaurant,cuisine:regional;italian","lat":-3.7448545,"lng":-38.5100515},{"id":"6803507414","name":"Pague Menos","tags":"addr:city:Fortaleza,addr:housenumber:2520,addr:postcode:60120-002,addr:street:Avenida Barão de Studart,addr:suburb:Joaquim Távora,amenity:pharmacy,brand:Pague Menos,brand:wikidata:Q7124466,brand:wikipedia:pt:Pague Menos,dispensing:yes,healthcare:pharmacy","lat":-3.7456538,"lng":-38.5103826},{"id":"6803617353","name":"Barão de Studart (Free Shop)","tags":"addr:city:Fortaleza,addr:housenumber:2550,addr:postcode:60120-002,addr:street:Avenida Barão de Studart,addr:suburb:Aldeota,shop:mall","lat":-3.745981,"lng":-38.5104718},{"id":"6833159207","name":"Roval Farmácia de Manipulação","tags":"addr:city:Fortaleza,addr:housenumber:2400,addr:postcode:60115-222,addr:street:Avenida Rui Barbosa,addr:suburb:Joaquim Távora,amenity:pharmacy,dispensing:yes,drive_through:no,healthcare:pharmacy,opening_hours:Mo-Fr 07:30-17:00; Sa 07:30-12:00","lat":-3.7434177,"lng":-38.5119717},{"id":"6833159212","name":"Chef Gourmet","tags":"addr:city:Fortaleza,addr:housenumber:2388,addr:postcode:60115-222,addr:street:Avenida Rui Barbosa,addr:suburb:Joaquim Távora,amenity:restaurant,opening_hours:Mo 11:30-13:00; Tu-Fr 11:30-13:00,17:00-24:00; Sa 17:00-24:00,phone:+55 85 3246 1600","lat":-3.7432796,"lng":-38.5119394},{"id":"8450283823","name":"La Fiorita","tags":"addr:housenumber:1777,addr:street:Avenida Antônio Sales,amenity:restaurant,cuisine:pizza,delivery:yes,phone:+55 85 98595-0328,takeaway:yes,website:https://lafiorita.supermenu.com.br/","lat":-3.7434546,"lng":-38.50822},{"id":"9038642451","name":"Farmácia Santa Branca","tags":"amenity:pharmacy,dispensing:yes,healthcare:pharmacy","lat":-3.7415539,"lng":-38.5086614},{"id":"9038642466","name":"Sushi Ponta Negra","tags":"amenity:restaurant,cuisine:japanese","lat":-3.7416448,"lng":-38.5080925},{"id":"9537329094","name":"Carrefour Drogaria","tags":"addr:city:Fortaleza,addr:housenumber:2200,addr:postcode:60120-002,addr:street:Avenida Barão de Studart,addr:suburb:Joaquim Távora,amenity:pharmacy,brand:Carrefour,brand:wikidata:Q217599,brand:wikipedia:fr:Carrefour (enseigne),dispensing:yes,drive_through:no,healthcare:pharmacy,opening_hours:Mo-Su 07:00-22:00,phone:+55 85 3246 4763","lat":-3.7426953,"lng":-38.5093778}]