[{"id":"4687823092","name":"Plutus","tags":"name:pt:Plutus,shop:pet","lat":-3.7351415,"lng":-38.5632145},{"id":"5691065094","name":"Mits Pastel","tags":"amenity:restaurant","lat":-3.73516,"lng":-38.5633032},{"id":"6168643535","name":"Academia ao ar livre","tags":"leisure:fitness_centre","lat":-3.7343415,"lng":-38.5682401},{"id":"6967597092","name":"Centro de educação de jovens e adultos Paulo Freire","tags":"addr:city:Fortaleza,addr:housenumber:1300,addr:postcode:60320-000,addr:street:Avenida Olavo Bilac,alt_name:CEJA Paulo Freire,amenity:school,building:school,operator:Secretaria da Educação do Estado do Ceará,phone:+55 85 31012700","lat":-3.7323392,"lng":-38.565027},{"id":"6967597231","name":"Escola de tipo integral Professor Joaquim Francisco de Sousa Filho","tags":"addr:city:Fortaleza,addr:housenumber:13,addr:postcode:60356-032,addr:street:Rua Joaquim Marques,alt_name:ETI Professor Joaquim Francisco de Sousa Filho,amenity:school,building:school,operator:Secretaria Municipal da Educação,phone:+55 85 34339064","lat":-3.7306739,"lng":-38.5705795}]