[{"id":"4487841689","name":"Espetinho Do Clébio","tags":"addr:city:Fortaleza,addr:housenumber:300,addr:street:Rua Desembargador João Firmino,addr:suburb:Montese,amenity:restaurant","lat":-3.7590058,"lng":-38.5510683},{"id":"4490603117","name":"Mercadinho Irmãos Costa","tags":"addr:city:Fortaleza,addr:housenumber:188,addr:street:Rua Julio César,addr:suburb:Montese,shop:supermarket","lat":-3.7604042,"lng":-38.5516006},{"id":"4490603118","name":"Brasa e Forno","tags":"addr:city:Fortaleza,addr:housenumber:2256,addr:street:Rua Julio César,addr:suburb:Montese,amenity:restaurant","lat":-3.7606102,"lng":-38.5517793},{"id":"4490603119","name":"Churrascaria e Pizzaria Brasa e Forno","tags":"addr:city:Fortaleza,addr:housenumber:2266,addr:street:Rua Julio César,addr:suburb:Montese,amenity:restaurant","lat":-3.7607071,"lng":-38.5518671},{"id":"4490607070","name":"Pizzaria Damas","tags":"addr:city:Fortaleza,addr:housenumber:205,addr:street:Rua Desembargador João Firmino,addr:suburb:Montese,amenity:restaurant","lat":-3.7608823,"lng":-38.5524787},{"id":"4490607072","name":"Tupinamba Shop","tags":"addr:city:Fortaleza,addr:housenumber:515,addr:street:Rua Eugênio Gadelha,addr:suburb:Montese,shop:supermarket","lat":-3.760847,"lng":-38.552055},{"id":"4490607074","name":"Mercadinho Vitória By Horlene Felix","tags":"addr:city:Fortaleza,addr:housenumber:240,addr:street:Rua Doutor Álvaro Fernandes,addr:suburb:Montese,shop:supermarket","lat":-3.7608226,"lng":-38.5540827},{"id":"4490607077","name":"Lanchonete Alternativa","tags":"addr:city:Fortaleza,addr:housenumber:429,addr:street:Rua Desembargador João Firmino,addr:suburb:Montese,amenity:restaurant","lat":-3.761508,"lng":-38.552987},{"id":"4493380618","name":"Pitty & Pink","tags":"addr:city:Fortaleza,addr:housenumber:65,addr:street:Rua Oscar Bezerra,addr:suburb:Damas,amenity:restaurant","lat":-3.7614536,"lng":-38.5576789},{"id":"4493422626","name":"Big Massa Pizzaria","tags":"addr:city:Fortaleza,addr:housenumber:5771,addr:street:Avenida João Pessoa,addr:suburb:Damas,amenity:restaurant","lat":-3.7610924,"lng":-38.556915},{"id":"4493422630","name":"Fateci","tags":"addr:city:Fortaleza,addr:housenumber:5772,addr:postcode:60442-057,addr:street:Avenida João Pessoa,addr:suburb:Couto Fernandes,amenity:university","lat":-3.7608855,"lng":-38.5571941}]