[{"id":"2613646012","name":"Pague Menos","tags":"addr:city:Fortaleza,addr:housenumber:747,addr:street:Rua Alexandre Baraúna,addr:suburb:Rodolfo Teófilo,amenity:pharmacy,branch:(Rodolfo Teófilo),brand:Pague Menos,brand:wikidata:Q7124466,healthcare:pharmacy","lat":-3.7494762,"lng":-38.5501805},{"id":"4487863444","name":"Pizzaria DJ","tags":"addr:city:Fortaleza,addr:housenumber:s/n,addr:street:Rua Carlos Câmara,addr:suburb:Jardim América,amenity:restaurant","lat":-3.7502342,"lng":-38.5460768},{"id":"4487863445","name":"China Garden","tags":"addr:city:Fortaleza,addr:housenumber:1758,addr:street:Rua Carlos Câmara,addr:suburb:Jardim América,amenity:restaurant","lat":-3.7506804,"lng":-38.5464833},{"id":"4487863446","name":"Restaurante e Self Service O Aurélio","tags":"addr:city:Fortaleza,addr:housenumber:868,addr:street:Rua Ana Néri,addr:suburb:Jardim América,amenity:restaurant","lat":-3.7501976,"lng":-38.5458206},{"id":"4487865130","name":"Ágape Pizzaria e Lanchonete 4 comentários","tags":"addr:city:Fortaleza,addr:housenumber:809,addr:street:Rua Delmiro de Farias,addr:suburb:Jardim América,amenity:restaurant","lat":-3.7512281,"lng":-38.5467354},{"id":"4487865132","name":"Gula Gula Lanches Pizzaria","tags":"addr:city:Fortaleza,addr:housenumber:740,addr:street:Rua Delmiro de Farias,addr:suburb:Jardim América,amenity:restaurant","lat":-3.7513662,"lng":-38.5459955},{"id":"4487868112","name":"Super Uchoa (Jardim América)","tags":"addr:city:Fortaleza,addr:housenumber:310,addr:postcode:60416-000,addr:street:Rua João Sorongo,addr:suburb:Jardim América,shop:supermarket","lat":-3.7517757,"lng":-38.5423966},{"id":"4487887582","name":"Comercial Pamela","tags":"addr:city:Fortaleza,addr:housenumber:427,addr:street:Rua Major Weyne,addr:suburb:Jardim América,shop:supermarket","lat":-3.7516041,"lng":-38.5411554},{"id":"4487887588","name":"Hoje Tem Frango","tags":"addr:city:Fortaleza,addr:housenumber:733,addr:street:Rua Major Weyne,addr:suburb:Jardim América,amenity:restaurant","lat":-3.7497765,"lng":-38.5432796},{"id":"4493528663","name":"Premium Educar","tags":"addr:city:Fortaleza,addr:housenumber:3929,addr:street:Avenida João Pessoa,addr:suburb:Damas,amenity:school","lat":-3.7486859,"lng":-38.5458619},{"id":"4493543518","name":"FAC Faculdade Cearense","tags":"addr:city:Fortaleza,addr:housenumber:3884,addr:street:Avenida João Pessoa,addr:suburb:Damas,amenity:university","lat":-3.7480328,"lng":-38.5457425},{"id":"4493543519","name":"Ceará Sporting Club","tags":"addr:city:Fortaleza,addr:housenumber:3532,addr:street:Avenida João Pessoa,addr:suburb:Damas,leisure:sports_centre,wikidata:Q1052219,wikipedia:pt:Ceará Sporting Club","lat":-3.746996,"lng":-38.5448508},{"id":"4494994992","name":"Faculdade de Odontologia UFC","tags":"addr:city:Fortaleza,addr:housenumber:s/n,addr:street:Rua Monsenhor Furtado,addr:suburb:Rodolfo Teófilo,amenity:university","lat":-3.7481309,"lng":-38.5508195},{"id":"5668197221","name":"Mercantil Nossa Senhora Auxiliadora","tags":"addr:street:Travessa Amaral,opening_hours:Mo-Fr 05:30-17:30,shop:convenience","lat":-3.7487756,"lng":-38.5480706}]