[{"id":"4916813125","tags":"amenity:atm","lat":-3.7430193,"lng":-38.4841709},{"id":"7902929043","name":"Praça Martins Dourado","tags":"leisure:park","lat":-3.7453142,"lng":-38.4765326},{"id":"9075098294","name":"Fuxiko beer","tags":"addr:city:Fortaleza,addr:housenumber:1013,addr:postcode:60192-270,addr:street:Rua Almeida Prado,addr:suburb:Cocó,amenity:restaurant","lat":-3.7454898,"lng":-38.4756519},{"id":"9223986048","name":"Super Frangolândia","tags":"addr:city:Fortaleza,addr:housenumber:5916,addr:postcode:60192-035,addr:street:Rua Vilebaldo Aguiar,addr:suburb:Cocó,shop:supermarket","lat":-3.7428619,"lng":-38.4794069},{"id":"10019514016","name":"Drogasil","tags":"amenity:pharmacy,brand:Drogasil,brand:wikidata:Q5308185,brand:wikipedia:pt:Drogasil,dispensing:yes,healthcare:pharmacy,wheelchair:yes","lat":-3.7427156,"lng":-38.4795641}]