[{"id":"4478140005","name":"Caixa Econômica Federal (Vila Peri)","tags":"addr:city:Fortaleza,addr:housenumber:s/n,addr:street:Avenida General Osório de Paiva,addr:suburb:Vila Peri,amenity:bank","lat":-3.7868515,"lng":-38.5837312},{"id":"5149938964","name":"Intelecto","tags":"addr:city:Fortaleza,addr:housenumber:2134,addr:street:Avenida Cônego de Castro,addr:suburb:Vila Pery,addr:unit:2,amenity:school","lat":-3.7888289,"lng":-38.5771083},{"id":"5150002465","name":"Mercantil Pinheiro","tags":"addr:city:Fortaleza,addr:housenumber:105,addr:postcode:60730-640,addr:street:Rua Antônio Costa Mendes,addr:suburb:Vila Pery,opening_hours:Mo-Su 06:00-22:00,phone:+558534845529,shop:supermarket","lat":-3.7877236,"lng":-38.5815323},{"id":"6841999598","name":"Farmácia do Trabalhador","tags":"amenity:pharmacy,dispensing:yes,healthcare:pharmacy","lat":-3.7879096,"lng":-38.5812703},{"id":"6841999599","name":"Farma Plus","tags":"amenity:pharmacy,dispensing:yes,healthcare:pharmacy","lat":-3.7879752,"lng":-38.580927},{"id":"6841999600","name":"Farmácia Carneiro","tags":"amenity:pharmacy,dispensing:yes,healthcare:pharmacy","lat":-3.7883357,"lng":-38.5797576},{"id":"6841999601","name":"Farma Life","tags":"amenity:pharmacy,dispensing:yes,healthcare:pharmacy","lat":-3.7858386,"lng":-38.5822668},{"id":"7072308979","tags":"amenity:atm,cash_in:no,covered:yes,drive_through:no,network:Banco24Horas,opening_hours:Mo-Sa 07:00-21:00; Su 07:00-14:00","lat":-3.7848177,"lng":-38.5825854}]