[{"id":"4476080654","name":"Delícias Da Thay","tags":"addr:city:Fortaleza,addr:street:Travessa Baraúna,addr:suburb:Parque Dois Irmãos,amenity:restaurant","lat":-3.8014306,"lng":-38.5504225},{"id":"4476080656","name":"Mercadinho Mel","tags":"addr:city:Fortaleza,addr:housenumber:1550,addr:street:Rua Afonso Lopes,addr:suburb:Parque Dois Irmãos,shop:supermarket","lat":-3.8013793,"lng":-38.5508007},{"id":"4476080664","name":"Camarão Online","tags":"addr:city:Fortaleza,addr:housenumber:82,addr:street:Rua B,addr:suburb:Parque Dois Irmãos,amenity:restaurant","lat":-3.8029401,"lng":-38.5501862},{"id":"4476088187","name":"Mercadinho Bom Preço","tags":"addr:city:Fortaleza,addr:housenumber:1313,addr:street:Rua H,addr:suburb:Parque Dois Irmãos,shop:supermarket","lat":-3.8065819,"lng":-38.5476387},{"id":"4476088188","name":"Mercadinho São Raimundo","tags":"addr:city:Fortaleza,addr:housenumber:1310,addr:street:Rua H,addr:suburb:Parque Dois Irmãos,shop:supermarket","lat":-3.8065324,"lng":-38.5475716},{"id":"4476088191","name":"Mercadinho Nenen","tags":"addr:city:Fortaleza,addr:housenumber:1301,addr:street:Rua H,addr:suburb:Parque Dois Irmãos,shop:supermarket","lat":-3.8060493,"lng":-38.5471921},{"id":"6967575060","name":"Escola de tempo parcial Abdenago da Rocha Lima","tags":"addr:city:Fortaleza,addr:housenumber:75,addr:postcode:60744-530,addr:street:Rua 114,alt_name:ETP Abdenago da Rocha Lima,amenity:school,building:school,operator:Secretaria Municipal da Educação,phone:+55 85 34883394","lat":-3.8016935,"lng":-38.5444419}]