[{"id":"4131809490","name":"Cachaçaria Água Doce","tags":"addr:street:Avenida Ville Roy,amenity:restaurant,opening_hours:Tu-Su 18:00-00:00","lat":2.8123287,"lng":-60.6799657},{"id":"4324085947","name":"Escola Estadual São Vicente de Paula","tags":"addr:city:Boa Vista,addr:street:Avenida Nossa Senhora da Consolata,addr:suburb:São Vicente,amenity:school","lat":2.810548,"lng":-60.6808683},{"id":"4496801294","name":"Sabor da Terra","tags":"addr:housenumber:7556,addr:street:Avenida Ville Roy,amenity:restaurant,cuisine:burger;fish;sandwich;hot_dog;ice_cream;diner;chicken;barbecue,internet_access:wlan,opening_hours:Mo-Su 11:00-15:00, 17:00-01:00,phone:+5595991742303","lat":2.8122227,"lng":-60.6807927},{"id":"5642003349","name":"Mercantil Vitória","tags":"addr:city:Boa Vista,addr:street:Rua Parimé,addr:suburb:São Vicente,operator:Rosinaldo,payment:cash:yes,payment:coins:yes,payment:credit_cards:yes,payment:debit_cards:yes,shop:supermarket","lat":2.8073128,"lng":-60.6780904},{"id":"9023062017","name":"Dan","tags":"addr:housenumber:7505,addr:postcode:69303-472,addr:street:Avenida Getúlio Vargas,opening_hours:Mo-Sa 06:00-21:30,shop:supermarket","lat":2.8086837,"lng":-60.6784739}]