[{"id":"2353465742","name":"Supermercado Goiana","tags":"addr:street:Avenida Ville Roy,shop:supermarket","lat":2.8180751,"lng":-60.6749631},{"id":"2353465743","name":"La Gondola","tags":"amenity:restaurant,cuisine:regional","lat":2.8186664,"lng":-60.6714575},{"id":"2371857160","name":"Banco Santander","tags":"amenity:bank,brand:Banco Santander,brand:en:Santander Bank,brand:es:Banco Santander,brand:wikidata:Q6496310,brand:wikipedia:es:Banco Santander,name:en:Santander Bank,name:es:Banco Santander,official_name:Santander Group","lat":2.818524,"lng":-60.6710855},{"id":"4066670272","name":"Banco Bradesco","tags":"amenity:atm","lat":2.8182655,"lng":-60.6699553},{"id":"4194397490","name":"Farmácia de Olho no Preço - Filial da Mega Farma","tags":"addr:housenumber:698,addr:street:Avenida Sebastião Diniz,amenity:pharmacy,healthcare:pharmacy,phone:+559532241391","lat":2.8188264,"lng":-60.6681142},{"id":"4269761203","name":"Loteria Central","tags":"addr:street:Rua José Magalhães,amenity:bank,opening_hours:Mo-Fr 07:30-18:00; Sa 07:30-12:00","lat":2.8189151,"lng":-60.6682796},{"id":"4269783194","name":"Biblioteca Pública","tags":"addr:street:Avenida Amazonas,amenity:library,opening_hours:Mo-Fr 07:30-13:30","lat":2.8208662,"lng":-60.670664},{"id":"4269783196","name":"Caixa Econômica Federal","tags":"addr:street:Avenida João Pereira de Melo,amenity:bank,opening_hours:Mo-Fr 09:00-13:00","lat":2.8192879,"lng":-60.6686644},{"id":"4274715592","name":"Loteria Boa Vista","tags":"addr:street:Avenida Ville Roy,amenity:bank,opening_hours:Mo-Fr 08:00-22:00; Sa 07:30-22:00","lat":2.8183507,"lng":-60.6747961},{"id":"4274715593","name":"Escola Anjo da Guarda","tags":"addr:street:Avenida Ville Roy,amenity:childcare","lat":2.8190772,"lng":-60.6742037},{"id":"4313554989","name":"Lanche Dom Ramón","tags":"addr:street:Avenida Amazonas,amenity:restaurant,cuisine:burger;sandwich;regional;ice_cream;grill;coffee_shop;pasta;noodles;donut;pancake;pizza;fish_and_chips;diner;brazilian;breakfast;friture,opening_hours:24/7","lat":2.822276,"lng":-60.6726602},{"id":"4689257791","name":"Banco Itaú","tags":"addr:street:Rua Coronel Pinto,amenity:bank,operator:Itaú SA","lat":2.8205343,"lng":-60.6686342},{"id":"4873162922","name":"Lanche da Família","tags":"addr:street:Rua Cecília Brasil,amenity:restaurant,cuisine:burger;sandwich;regional;ice_cream;diner;local,name:pt:Lanche da Família","lat":2.8227358,"lng":-60.676049},{"id":"6806462888","name":"Launched do Lulu","tags":"amenity:cafe","lat":2.8232475,"lng":-60.6759351},{"id":"6806487185","name":"Food Park","tags":"amenity:restaurant","lat":2.8225289,"lng":-60.6767796}]