[{"id":"2352387363","name":"Supermercado Novo Tempo","tags":"addr:street:Avenida Mario Homem de Melo,opening_hours:Mo-Su 06:00-00:00,shop:supermarket","lat":2.8220522,"lng":-60.6936342},{"id":"2353486611","name":"Drogaria Popular","tags":"amenity:pharmacy,healthcare:pharmacy","lat":2.8221464,"lng":-60.6950529},{"id":"4220583290","name":"Instituto de Medicina Legal Dr. Benigno José de Oliveira","tags":"addr:street:Avenida Venezuela,amenity:police,short_name:IML","lat":2.8229046,"lng":-60.6960332},{"id":"4232926793","name":"Ponto dos Frios","tags":"addr:street:Rua Lourenço Belforte,shop:supermarket","lat":2.8200053,"lng":-60.6941544},{"id":"4232933492","name":"Instituto de Criminalística","tags":"addr:street:Rua José Pinheiro,amenity:police,opening_hours:Mo-Fr 07:30-13:30,operator:Polícia Civil","lat":2.8226,"lng":-60.6963626},{"id":"4232935591","name":"Instituto de Identificação Odílio Cruz","tags":"addr:street:Avenida Venezuela,amenity:police,opening_hours:Mo-Fr 07:30-13:30,short_name:IIOC","lat":2.8226855,"lng":-60.6960128},{"id":"4232935890","name":"Frangão","tags":"addr:street:Avenida Mario Homem de Melo,amenity:restaurant,cuisine:fish;chicken;brazilian;sausage;barbecue","lat":2.8223481,"lng":-60.6957774},{"id":"4232935990","name":"Correios CEE","tags":"addr:street:Avenida Venezuela,amenity:post_office,brand:Correios,brand:wikidata:Q3375004,brand:wikipedia:en:Correios","lat":2.8189979,"lng":-60.6941042},{"id":"4232936090","name":"Correios - CDD Boa Vista","tags":"addr:street:Avenida Venezuela,amenity:post_office,brand:Correios,brand:wikidata:Q3375004,brand:wikipedia:en:Correios,opening_hours:Mo-Fr 08:30-11:30,operator:Empresa Brasileira de Correios e Telégrafos","lat":2.8220082,"lng":-60.6956811},{"id":"4232936190","name":"Churrasquinho do Gioano","tags":"addr:street:Avenida Mario Homem de Melo,amenity:restaurant,cuisine:brazilian;steak_house;barbecue","lat":2.8225609,"lng":-60.6965525},{"id":"4271737590","name":"Centro Educacional Pitágoras","tags":"addr:street:Rua Capitão Felipe Sturm,amenity:school,opening_hours:Mo-Fr 07:00-22:00","lat":2.8207882,"lng":-60.690628},{"id":"4275785790","name":"Churrascaria Nordeste","tags":"addr:street:Avenida Mario Homem de Melo,amenity:restaurant,cuisine:fish;grill;sausage;friture;steak_house;pasta;chicken;brazilian;barbecue","lat":2.8222309,"lng":-60.69136},{"id":"4305272592","name":"Pague Menos","tags":"addr:housenumber:1833,addr:street:Avenida Venezuela,amenity:pharmacy,brand:Pague Menos,brand:wikidata:Q7124466,brand:wikipedia:pt:Pague Menos,healthcare:pharmacy","lat":2.8209955,"lng":-60.6952306},{"id":"4305297390","name":"Mercado Boas Novas","tags":"addr:street:Avenida Mario Homem de Melo,shop:supermarket","lat":2.8220853,"lng":-60.6924553},{"id":"4305318189","name":"Churrasquinho do Animal","tags":"addr:street:Avenida General Ataíde Teive,amenity:restaurant,cuisine:fish;regional;ice_cream;grill;sausage;friture;chicken;brazilian;kebab;barbecue","lat":2.8196799,"lng":-60.6953516}]