[{"id":"4116967310","name":"Republic Bank","tags":"amenity:bank","lat":3.3685304,"lng":-59.7975023},{"id":"4116967311","name":"GBTI","tags":"amenity:bank","lat":3.3705033,"lng":-59.7971479},{"id":"6799191685","name":"Cindy's bus service","tags":"amenity:bus_station","lat":3.3727614,"lng":-59.7960125},{"id":"6813081689","tags":"amenity:atm,operator:Republic Bank","lat":3.3712807,"lng":-59.7966027},{"id":"6813081690","name":"Republic Bank","tags":"amenity:bank,opening_hours:Mo-Fr 08:00-14:00","lat":3.3712334,"lng":-59.7964969},{"id":"6833188386","name":"Waykas Restaurant & Steakhouse","tags":"amenity:restaurant","lat":3.3724729,"lng":-59.7961569},{"id":"6833188885","name":"Amataur","tags":"amenity:bus_station","lat":3.3719311,"lng":-59.7964788}]