[{"id":"3405854549","name":"Supermercado Santa Lúcia BR","tags":"shop:supermarket","lat":0.0781601,"lng":-51.0615313},{"id":"3405865775","name":"Banco do Brasil","tags":"amenity:bank,atm:yes,brand:Banco do Brasil,name:en:Banco do Brazil","lat":0.0780909,"lng":-51.0621285},{"id":"3405867772","name":"Supermercado Fortaleza BR","tags":"shop:supermarket","lat":0.0784273,"lng":-51.0628073},{"id":"5233331822","name":"Academia Phisical Center","tags":"leisure:fitness_centre","lat":0.0792047,"lng":-51.0586982},{"id":"5824638296","name":"Superintendência da PRF no Amapá","tags":"amenity:police,opening_hours:Mo-Fr 08:00-17:00,operator:Polícia Rodoviária Federal,operator:wikidata:Q1158853,operator:wikipedia:pt:Polícia Rodoviária Federal,phone:+55 96 3225 9000","lat":0.0773174,"lng":-51.0600718},{"id":"8204263439","name":"Atacadão","tags":"brand:Atacadão,brand:wikidata:Q2868739,brand:wikipedia:en:Atacadão,shop:supermarket","lat":0.0780674,"lng":-51.0638031},{"id":"8204263442","name":"Pizzaria Mamute","tags":"amenity:restaurant,cuisine:pizza","lat":0.0813075,"lng":-51.0642406},{"id":"8204263443","name":"Pizzaria Dindom","tags":"amenity:restaurant,cuisine:pizza","lat":0.081649,"lng":-51.0640659},{"id":"10277279300","name":"Extrafarma","tags":"amenity:pharmacy,healthcare:pharmacy","lat":0.0781285,"lng":-51.0598048},{"id":"10277279301","name":"Mercadão dos Medicamentos","tags":"amenity:pharmacy,healthcare:pharmacy","lat":0.0780734,"lng":-51.0595146},{"id":"10277279302","name":"Medicor Farma","tags":"amenity:pharmacy,healthcare:pharmacy","lat":0.0781073,"lng":-51.058729},{"id":"10569436768","name":"Farmácias Pague Menos","tags":"amenity:pharmacy,healthcare:pharmacy","lat":0.0781174,"lng":-51.0612127},{"id":"10588171555","name":"Drogasil","tags":"amenity:pharmacy,healthcare:pharmacy","lat":0.078194,"lng":-51.0591208}]