[{"id":"5233319426","name":"Mercantil Romão","tags":"shop:supermarket","lat":0.0692016,"lng":-51.0858604},{"id":"5235202022","name":"Comercial Pegue e Pague","tags":"shop:supermarket","lat":0.0700195,"lng":-51.0846389},{"id":"5235202523","name":"Farmafort Popular","tags":"amenity:pharmacy","lat":0.0706947,"lng":-51.0835228},{"id":"5235210922","name":"Central da Economia","tags":"shop:supermarket","lat":0.0697021,"lng":-51.0852742},{"id":"5235210923","name":"Escola verá Lúcia Pinon","tags":"amenity:school","lat":0.0708267,"lng":-51.0830417},{"id":"5247181624","tags":"amenity:atm,operator:Caixa eletrônico da farmácia","lat":0.0706506,"lng":-51.0835525}]