[{"id":"4774890087","name":"Escola Estadual Maria Neusa Carmo de Souza","tags":"addr:city:Macapá,addr:street:Rua Milton Souza Corrêa,addr:suburb:Jardim Felicidade I,amenity:school","lat":0.083642,"lng":-51.0656476},{"id":"6396469426","name":"Mercadinha do Jogador","tags":"addr:city:Macapá,addr:street:Rua Ayrton Senna,addr:suburb:Boné Azul,operator:Jogador,shop:supermarket","lat":0.0826205,"lng":-51.0748412},{"id":"6396470742","name":"Comercial São Jorge","tags":"addr:city:Macapá,addr:street:Rua Nações Unidas,addr:suburb:Boné Azul,operator:Alda,shop:supermarket","lat":0.0832803,"lng":-51.0744594},{"id":"6396496810","name":"Escola Tia Oneide","tags":"addr:city:Macapá,addr:street:Rua das Flores,addr:suburb:Boné Azul,amenity:school","lat":0.0836297,"lng":-51.0732236},{"id":"8204263445","name":"Automotiva Lava Jato","tags":"amenity:car_wash","lat":0.0826236,"lng":-51.0647293}]